,x,name,lon,lat
0,http://fr.dbpedia.org/resource/Église_Saint-Matthieu_de_Château-Gombert,Église Saint-Matthieu de Château-Gombert,5.44019,43.3524
1,http://fr.dbpedia.org/resource/Alcazar_(Marseille),Alcazar (Marseille),5.37667,43.299
2,http://fr.dbpedia.org/resource/Pont_transbordeur_de_Marseille,Pont transbordeur de Marseille,5.36361,43.2942
3,http://fr.dbpedia.org/resource/Jardin_de_la_Magalone,Jardin de la Magalone,5.39833,43.2617
4,http://fr.dbpedia.org/resource/Église_Sainte-Agathe_des_Camoins,Église Sainte-Agathe des Camoins,5.51387,43.302
5,http://fr.dbpedia.org/resource/Halle_Puget,Halle Puget,5.37534,43.2997
6,http://fr.dbpedia.org/resource/Église_de_la_vieille_Major,Église de la vieille Major,5.36528,43.2994
7,http://fr.dbpedia.org/resource/Gare_de_L'Estaque,Gare de L'Estaque,5.32146,43.3635
8,http://fr.dbpedia.org/resource/Chapelle_Notre-Dame_de_la_Galline,Chapelle Notre-Dame de la Galline,5.29585,43.3784
9,http://fr.dbpedia.org/resource/Gare_de_Marseille-Blancarde,Gare de Marseille-Blancarde,5.40647,43.2962
10,http://fr.dbpedia.org/resource/Cathédrale_des_Saints-Traducteurs_de_Marseille,Cathédrale des Saints-Traducteurs de Marseille,5.3889,43.2706
11,http://fr.dbpedia.org/resource/Monument_du_génocide_de_Marseille,Monument du génocide de Marseille,5.3889,43.2706
12,http://fr.dbpedia.org/resource/Mémorial_du_génocide_de_Marseille,Mémorial du génocide de Marseille,5.4251,43.307
13,http://fr.dbpedia.org/resource/Périer_(métro_de_Marseille),Périer (métro de Marseille),5.38733,43.2795
14,http://fr.dbpedia.org/resource/Rond-point_du_Prado_(métro_de_Marseille),Rond-point du Prado (métro de Marseille),5.39218,43.2723
15,http://fr.dbpedia.org/resource/Col_de_la_Gineste,Col de la Gineste,5.45639,43.24
16,http://fr.dbpedia.org/resource/Gare_de_Noailles,Gare de Noailles,5.38098,43.2984
17,http://fr.dbpedia.org/resource/Hôpital_Saint-Joseph_(Marseille),Hôpital Saint-Joseph (Marseille),5.39229,43.2763
18,http://fr.dbpedia.org/resource/Jean_Bouin_(sculpture),Jean Bouin (sculpture),5.3941,43.2693
19,http://fr.dbpedia.org/resource/Plages_du_Prado,Plages du Prado,5.37247,43.2632
20,http://fr.dbpedia.org/resource/8e_arrondissement_de_Marseille,8e arrondissement de Marseille,5.38464,43.2565
21,http://fr.dbpedia.org/resource/Col_de_Sormiou,Col de Sormiou,5.40889,43.2164
22,http://fr.dbpedia.org/resource/École_supérieure_d'art_et_de_design_Marseille-Méditerranée,École supérieure d'art et de design Marseille-Méditerranée,5.43485,43.2287
23,http://fr.dbpedia.org/resource/Gare_de_La_Pomme,Gare de La Pomme,5.44124,43.2905
24,http://fr.dbpedia.org/resource/Gare_de_Saint-Marcel,Gare de Saint-Marcel,5.4671,43.2881
25,"http://fr.dbpedia.org/resource/Musée_des_arts_africains,_océaniens_et_amérindiens","Musée des arts africains, océaniens et amérindiens",5.36786,43.3002
26,http://fr.dbpedia.org/resource/Castellane_(métro_de_Marseille),Castellane (métro de Marseille),5.37978,43.2904
27,http://fr.dbpedia.org/resource/Estrangin_-_Préfecture_(métro_de_Marseille),Estrangin - Préfecture (métro de Marseille),5.37794,43.2914
28,http://fr.dbpedia.org/resource/Joliette_(métro_de_Marseille),Joliette (métro de Marseille),5.36727,43.3056
29,http://fr.dbpedia.org/resource/Jules_Guesde_(métro_de_Marseille),Jules Guesde (métro de Marseille),5.37383,43.3015
30,http://fr.dbpedia.org/resource/La_Rose_-_Technopôle_de_Château-Gombert_(métro_de_Marseille),La Rose - Technopôle de Château-Gombert (métro de Marseille),5.42847,43.335
31,http://fr.dbpedia.org/resource/Notre-Dame_du_Mont_-_Cours_Julien_(métro_de_Marseille),Notre-Dame du Mont - Cours Julien (métro de Marseille),5.3836,43.2928
32,http://fr.dbpedia.org/resource/Saint-Just_-_Hôtel_du_Département,Saint-Just - Hôtel du Département,5.40396,43.3168
33,http://fr.dbpedia.org/resource/Sainte-Marguerite_Dromel_(métro_de_Marseille),Sainte-Marguerite Dromel (métro de Marseille),5.40193,43.2718
34,http://fr.dbpedia.org/resource/La_Rose_(Marseille),La Rose (Marseille),5.4275,43.3291
35,http://fr.dbpedia.org/resource/Lodi_(Marseille),Lodi (Marseille),5.38691,43.2895
36,http://fr.dbpedia.org/resource/Palama,Palama,5.44348,43.3609
37,http://fr.dbpedia.org/resource/Vauban_(Marseille),Vauban (Marseille),5.37523,43.2837
38,http://fr.dbpedia.org/resource/Hôpital_de_la_Timone,Hôpital de la Timone,5.40278,43.2911
39,http://fr.dbpedia.org/resource/Cimetière_de_la_Treille,Cimetière de la Treille,5.51227,43.3118
40,http://fr.dbpedia.org/resource/Musée_des_civilisations_de_l'Europe_et_de_la_Méditerranée,Musée des civilisations de l'Europe et de la Méditerranée,5.36194,43.2953
41,http://fr.dbpedia.org/resource/Gare_de_la_Barasse,Gare de la Barasse,5.48294,43.2863
42,http://fr.dbpedia.org/resource/Gare_de_Saint-Menet,Gare de Saint-Menet,5.49849,43.2856
43,http://fr.dbpedia.org/resource/Hôpital_Nord,Hôpital Nord,5.36333,43.3786
44,http://fr.dbpedia.org/resource/Hôpital_européen_de_Marseille,Hôpital européen de Marseille,5.371,43.311
45,http://fr.dbpedia.org/resource/Parc_de_la_Maison_Blanche,Parc de la Maison Blanche,5.41727,43.2672
46,http://fr.dbpedia.org/resource/13e_arrondissement_de_Marseille,13e arrondissement de Marseille,5.42536,43.365
47,http://fr.dbpedia.org/resource/11e_arrondissement_de_Marseille,11e arrondissement de Marseille,5.48822,43.285
48,http://fr.dbpedia.org/resource/16e_arrondissement_de_Marseille,16e arrondissement de Marseille,5.30502,43.3754
49,http://fr.dbpedia.org/resource/2e_arrondissement_de_Marseille,2e arrondissement de Marseille,5.36962,43.2964
50,http://fr.dbpedia.org/resource/6e_arrondissement_de_Marseille,6e arrondissement de Marseille,5.38083,43.2875
51,http://fr.dbpedia.org/resource/9e_arrondissement_de_Marseille,9e arrondissement de Marseille,5.44634,43.229
52,http://fr.dbpedia.org/resource/Gare_de_Séon-Saint-Henri,Gare de Séon-Saint-Henri,5.33993,43.3624
53,http://fr.dbpedia.org/resource/Musée_des_beaux-arts_de_Marseille,Musée des beaux-arts de Marseille,5.39387,43.3044
54,http://fr.dbpedia.org/resource/École_pour_l'informatique_et_les_nouvelles_technologies,École pour l'informatique et les nouvelles technologies,2.36306,48.8153
55,http://fr.dbpedia.org/resource/Parc_Borély,Parc Borély,5.38225,43.2604
56,http://fr.dbpedia.org/resource/Institut_Paoli-Calmettes,Institut Paoli-Calmettes,5.41046,43.2623
57,http://fr.dbpedia.org/resource/École_centrale_de_Marseille,École centrale de Marseille,5.43813,43.3415
58,http://fr.dbpedia.org/resource/Musée_de_la_Marine_(Marseille),Musée de la Marine (Marseille),5.37528,43.2961
59,http://fr.dbpedia.org/resource/Gare_de_Marseille-Canet,Gare de Marseille-Canet,5.37218,43.3232
60,http://fr.dbpedia.org/resource/Parc_du_26e_Centenaire,Parc du 26e Centenaire,5.39472,43.2806
61,http://fr.dbpedia.org/resource/Fondation_Monticelli,Fondation Monticelli,5.28706,43.3563
62,http://fr.dbpedia.org/resource/Musée_du_santon_Marcel_Carbonel,Musée du santon Marcel Carbonel,5.36704,43.2915
63,"http://fr.dbpedia.org/resource/Musée_des_Arts_décoratifs,_de_la_Faïence_et_de_la_Mode","Musée des Arts décoratifs, de la Faïence et de la Mode",5.38195,43.2574
64,http://fr.dbpedia.org/resource/École_nationale_supérieure_d'architecture_de_Marseille,École nationale supérieure d'architecture de Marseille,5.43413,43.2292
65,http://fr.dbpedia.org/resource/Baille_(métro_de_Marseille),Baille (métro de Marseille),5.39124,43.2895
66,http://fr.dbpedia.org/resource/Bougainville_(métro_de_Marseille),Bougainville (métro de Marseille),5.37139,43.3208
67,http://fr.dbpedia.org/resource/Chartreux_(métro_de_Marseille),Chartreux (métro de Marseille),5.39791,43.3092
68,http://fr.dbpedia.org/resource/Cinq_Avenues_-_Longchamp_(métro_de_Marseille),Cinq Avenues - Longchamp (métro de Marseille),5.39042,43.3046
69,http://fr.dbpedia.org/resource/Colbert_-_Hôtel_de_Région_(métro_de_Marseille),Colbert - Hôtel de Région (métro de Marseille),5.37405,43.3009
70,http://fr.dbpedia.org/resource/Désirée_Clary_(métro_de_Marseille),Désirée Clary (métro de Marseille),5.37278,43.3128
71,http://fr.dbpedia.org/resource/Frais_Vallon_(métro_de_Marseille),Frais Vallon (métro de Marseille),5.4233,43.327
72,http://fr.dbpedia.org/resource/La_Timone_(métro_de_Marseille),La Timone (métro de Marseille),5.39851,43.2916
73,http://fr.dbpedia.org/resource/Malpassé_(métro_de_Marseille),Malpassé (métro de Marseille),5.41562,43.3216
74,http://fr.dbpedia.org/resource/National_(métro_de_Marseille),National (métro de Marseille),5.37287,43.3165
75,http://fr.dbpedia.org/resource/Réformés_-_Canebière_(métro_de_Marseille),Réformés - Canebière (métro de Marseille),5.38334,43.3033
76,http://fr.dbpedia.org/resource/Belsunce_(Marseille),Belsunce (Marseille),5.3766,43.2983
77,http://fr.dbpedia.org/resource/Gare_de_Saint-Antoine,Gare de Saint-Antoine,5.35791,43.3696
78,http://fr.dbpedia.org/resource/Gare_de_Sainte-Marthe-en-Provence,Gare de Sainte-Marthe-en-Provence,5.3904,43.3391
79,http://fr.dbpedia.org/resource/Capitaine_Gèze_(métro_de_Marseille),Capitaine Gèze (métro de Marseille),5.36704,43.3285
80,http://fr.dbpedia.org/resource/Archipel_du_Frioul,Archipel du Frioul,5.30667,43.2772
81,http://fr.dbpedia.org/resource/Aéroport_de_Marseille_Provence,Aéroport de Marseille Provence,5.21499,43.4369
82,http://fr.dbpedia.org/resource/Le_Panier,Le Panier,5.36778,43.2981
83,http://fr.dbpedia.org/resource/La_Fourragère,La Fourragère,5.43038,43.2991
84,http://fr.dbpedia.org/resource/Les_Chartreux_(Marseille),Les Chartreux (Marseille),5.40208,43.3104
85,http://fr.dbpedia.org/resource/Saint-Barnabé_(Marseille),Saint-Barnabé (Marseille),5.41885,43.3038
86,http://fr.dbpedia.org/resource/Saint-Julien_(Marseille),Saint-Julien (Marseille),5.4475,43.3137
87,http://fr.dbpedia.org/resource/Vieux-Port_-_Hôtel_de_Ville_(métro_de_Marseille),Vieux-Port - Hôtel de Ville (métro de Marseille),5.37435,43.2952
88,http://fr.dbpedia.org/resource/Cimetière_Saint-Pierre,Cimetière Saint-Pierre,5.4125,43.2912
89,http://fr.dbpedia.org/resource/La_Blancarde_(métro_de_Marseille),La Blancarde (métro de Marseille),5.40639,43.2961
90,http://fr.dbpedia.org/resource/La_Fourragère_(métro_de_Marseille),La Fourragère (métro de Marseille),5.42444,43.3039
91,http://fr.dbpedia.org/resource/Louis_Armand_(métro_de_Marseille),Louis Armand (métro de Marseille),5.41306,43.2997
92,http://fr.dbpedia.org/resource/Saint-Barnabé_(métro_de_Marseille),Saint-Barnabé (métro de Marseille),5.41861,43.3033
93,http://fr.dbpedia.org/resource/Le_Petit_Nice,Le Petit Nice,5.3518,43.2801
94,http://fr.dbpedia.org/resource/Beaumont_(Marseille),Beaumont (Marseille),5.43652,43.3084
95,http://fr.dbpedia.org/resource/Sofitel_Marseille_Vieux-Port,Sofitel Marseille Vieux-Port,5.36029,43.2928
96,http://fr.dbpedia.org/resource/1er_arrondissement_de_Marseille,1er arrondissement de Marseille,5.38104,43.2976
97,http://fr.dbpedia.org/resource/3e_arrondissement_de_Marseille,3e arrondissement de Marseille,5.38086,43.3117
98,http://fr.dbpedia.org/resource/4e_arrondissement_de_Marseille,4e arrondissement de Marseille,5.40183,43.3058
99,http://fr.dbpedia.org/resource/5e_arrondissement_de_Marseille,5e arrondissement de Marseille,5.39659,43.2917
100,http://fr.dbpedia.org/resource/7e_arrondissement_de_Marseille,7e arrondissement de Marseille,5.3617,43.2828
101,http://fr.dbpedia.org/resource/Gare_de_Picon-Busserine,Gare de Picon-Busserine,5.3929,43.3307
102,http://fr.dbpedia.org/resource/Gare_de_Saint-Joseph-le-Castellas,Gare de Saint-Joseph-le-Castellas,5.37868,43.3516
103,http://fr.dbpedia.org/resource/Japan_Expo_Sud,Japan Expo Sud,5.39461,43.2719
104,http://fr.dbpedia.org/resource/Saint-Charles_(métro_de_Marseille),Saint-Charles (métro de Marseille),5.37972,43.3036
105,http://fr.dbpedia.org/resource/Gare_d'Arenc-Euroméditerranée,Gare d'Arenc-Euroméditerranée,5.3675,43.3134
106,http://fr.dbpedia.org/resource/Gare_de_Saint-Barthélémy,Gare de Saint-Barthélémy,5.39248,43.3235
107,http://fr.dbpedia.org/resource/10e_arrondissement_de_Marseille,10e arrondissement de Marseille,5.43064,43.2733
108,http://fr.dbpedia.org/resource/12e_arrondissement_de_Marseille,12e arrondissement de Marseille,5.42538,43.3072
109,http://fr.dbpedia.org/resource/14e_arrondissement_de_Marseille,14e arrondissement de Marseille,5.38871,43.3426
110,http://fr.dbpedia.org/resource/15e_arrondissement_de_Marseille,15e arrondissement de Marseille,5.36778,43.3628
111,http://fr.dbpedia.org/resource/Gare_de_Saint-Louis-les_Aygalades,Gare de Saint-Louis-les Aygalades,5.36502,43.3461
