,city,lat,lng,country,iso2,admin,capital,population,population_proper
0,Adjamé,5.350527,-4.024637,Côte D’Ivoire,CI,Abidjan,,3802000.0,3190395.0
1,Bouaké,7.693846000000001,-5.030307,Côte D’Ivoire,CI,Vallée du Bandama,admin,567481.0,454821.0
2,Déraouan,6.890867,-6.423196,Côte D’Ivoire,CI,Sassandra-Marahoué,,255168.0,215652.0
3,San-Pédro,4.748508,-6.636301,Côte D’Ivoire,CI,Bas-Sassandra,admin,210273.0,196751.0
4,Yamoussoukro,6.820548,-5.276741,Côte D’Ivoire,CI,Yamoussoukro,primary,206499.0,194530.0
5,Korhogo,9.458031,-5.629608,Côte D’Ivoire,CI,Savanes,admin,177711.0,167359.0
6,Man,7.412513000000001,-7.5538300000000005,Côte D’Ivoire,CI,Montagnes,admin,146974.0,139341.0
7,Divo,5.83739,-5.357229,Côte D’Ivoire,CI,Gôh-Djiboua,minor,127867.0,127867.0
8,Gagnoa,6.131933999999999,-5.950601,Côte D’Ivoire,CI,Gôh-Djiboua,admin,123184.0,99192.0
9,Soubré,5.785556,-6.608333,Côte D’Ivoire,CI,Bas-Sassandra,,108933.0,58492.0
10,Abengourou,6.729722,-3.4963889999999997,Côte D’Ivoire,CI,Comoé,admin,104020.0,71598.0
11,Agboville,5.92801,-4.213186,Côte D’Ivoire,CI,Lagunes,minor,81770.0,64285.0
12,Grand-Bassam,5.211796,-3.738839,Côte D’Ivoire,CI,Comoé,minor,73772.0,48681.0
13,Dabou,5.325556,-4.376853,Côte D’Ivoire,CI,Lagunes,admin,72913.0,69661.0
14,Dimbokro,6.646780000000001,-4.70519,Côte D’Ivoire,CI,Lacs,admin,67349.0,25586.0
15,Ferkessédougou,9.5928,-5.1944870000000005,Côte D’Ivoire,CI,Savanes,minor,62008.0,52812.0
16,Bouaflé,6.990406,-5.744204,Côte D’Ivoire,CI,Sassandra-Marahoué,minor,60962.0,60962.0
17,Bondoukou,8.040201,-2.800034,Côte D’Ivoire,CI,Zanzan,admin,58297.0,18706.0
18,Séguéla,7.961111,-6.673056,Côte D’Ivoire,CI,Woroba,admin,51157.0,12603.0
19,Odienné,9.505114,-7.564332,Côte D’Ivoire,CI,Denguélé,admin,49857.0,19119.0
20,Guiglo,6.5436819999999996,-7.493494999999999,Côte D’Ivoire,CI,Montagnes,minor,39134.0,35846.0
21,Toumodi,6.557986,-5.017688,Côte D’Ivoire,CI,Lacs,minor,39005.0,39005.0
22,Sassandra,4.95,-6.0833330000000005,Côte D’Ivoire,CI,Bas-Sassandra,minor,38411.0,23274.0
23,Aboisso,5.4677940000000005,-3.2071110000000003,Côte D’Ivoire,CI,Comoé,minor,37654.0,37654.0
24,Touba,8.283333,-7.683333,Côte D’Ivoire,CI,Woroba,minor,27504.0,27504.0
25,Toulépleu,6.5797419999999995,-8.410905999999999,Côte D’Ivoire,CI,Montagnes,minor,,
26,Sakassou,7.454624000000001,-5.292628,Côte D’Ivoire,CI,Vallée du Bandama,minor,,
27,Ayamé,5.6052040000000005,-3.157086,Côte D’Ivoire,CI,Comoé,minor,,
28,Béoumi,7.673951,-5.580855000000001,Côte D’Ivoire,CI,Vallée du Bandama,minor,,
29,Katiola,8.137278,-5.10095,Côte D’Ivoire,CI,Vallée du Bandama,minor,,
30,Alépé,5.500397,-3.6630830000000003,Côte D’Ivoire,CI,Lagunes,minor,,
31,Dianra,8.943333,-6.254897,Côte D’Ivoire,CI,Woroba,minor,,
32,Tanda,7.803355000000001,-3.168325,Côte D’Ivoire,CI,Zanzan,minor,,
33,Yakassé-Attobrou,6.181743,-3.651111,Côte D’Ivoire,CI,Lagunes,minor,,
34,Séguélon,9.356944,-7.120833,Côte D’Ivoire,CI,Denguélé,minor,,
35,Sikensi,5.668294,-4.573709,Côte D’Ivoire,CI,Lagunes,minor,,
36,Kounahiri,7.790886,-5.834766,Côte D’Ivoire,CI,Woroba,minor,,
37,Koun-Fao,7.4876380000000005,-3.252493,Côte D’Ivoire,CI,Zanzan,minor,,
38,Jacqueville,5.205148,-4.414604,Côte D’Ivoire,CI,Lagunes,minor,,
39,Guitry,5.519518,-5.240379,Côte D’Ivoire,CI,Gôh-Djiboua,minor,,
40,Daloa,6.8773550000000006,-6.450221,Côte D’Ivoire,CI,Sassandra-Marahoué,admin,,
41,Kaniasso,9.814708999999999,-7.512505,Côte D’Ivoire,CI,Denguélé,minor,,
42,Songon,5.319597,-4.2541519999999995,Côte D’Ivoire,CI,Abidjan,minor,,
43,Tiapoum,5.136221,-3.0230770000000002,Côte D’Ivoire,CI,Comoé,minor,,
44,Abidjan,5.309657,-4.012656,Côte D’Ivoire,CI,Abidjan,admin,,
45,Mankono,8.058611,-6.189722,Côte D’Ivoire,CI,Woroba,minor,,
46,Minignan,9.997442,-7.83593,Côte D’Ivoire,CI,Denguélé,minor,,
47,Azaguié,5.629841000000001,-4.082041,Côte D’Ivoire,CI,Lagunes,minor,,
48,Tabou,4.42295,-7.3528,Côte D’Ivoire,CI,Bas-Sassandra,minor,,
49,Bongouanou,6.651749000000001,-4.204061,Côte D’Ivoire,CI,Lacs,minor,,
50,Kouto,9.890289,-6.4092150000000006,Côte D’Ivoire,CI,Savanes,minor,,
51,Grand-Lahou,5.250683,-5.003332,Côte D’Ivoire,CI,Lagunes,minor,,
52,Biankouma,7.7390929999999996,-7.613774,Côte D’Ivoire,CI,Montagnes,minor,,
53,Soubré,5.783766,-6.59388,Côte D’Ivoire,CI,Bas-Sassandra,minor,,
54,Bonoua,5.272469999999999,-3.596248,Côte D’Ivoire,CI,Comoé,minor,,
55,Danané,7.259572,-8.154981,Côte D’Ivoire,CI,Montagnes,minor,,
56,Tiébissou,7.157722,-5.2248,Côte D’Ivoire,CI,Lacs,minor,,
57,Téhini,9.60542,-3.658043,Côte D’Ivoire,CI,Zanzan,minor,,
58,Oumé,6.3830860000000005,-5.417591000000001,Côte D’Ivoire,CI,Gôh-Djiboua,minor,,
59,Botro,7.852488,-5.3106279999999995,Côte D’Ivoire,CI,Vallée du Bandama,minor,,
60,Niakaramandougou,8.657589,-5.291087,Côte D’Ivoire,CI,Vallée du Bandama,minor,,
61,Kani,8.478074000000001,-6.605092,Côte D’Ivoire,CI,Woroba,minor,,
62,Kong,9.149434,-4.6098230000000004,Côte D’Ivoire,CI,Savanes,minor,,
63,Bangolo,7.01232,-7.486395,Côte D’Ivoire,CI,Montagnes,admin,,
64,Bouna,9.269264999999999,-2.995098,Côte D’Ivoire,CI,Zanzan,minor,,
65,Zoukougbeu,6.762289999999999,-6.8638,Côte D’Ivoire,CI,Sassandra-Marahoué,minor,,
66,Méagui,5.404821,-6.558358999999999,Côte D’Ivoire,CI,Bas-Sassandra,minor,,
67,Transua,7.550045,-3.014313,Côte D’Ivoire,CI,Zanzan,minor,,
68,Ouaninou,8.237897,-7.866378999999999,Côte D’Ivoire,CI,Woroba,minor,,
69,Daoukro,7.058552000000001,-3.964625,Côte D’Ivoire,CI,Lacs,minor,,
70,Gbéléban,9.584607,-8.131833,Côte D’Ivoire,CI,Denguélé,minor,,
71,Bocanda,7.062635,-4.499484,Côte D’Ivoire,CI,Lacs,minor,,
72,Doropo,9.810273,-3.344975,Côte D’Ivoire,CI,Zanzan,minor,,
73,Adzopé,6.106944,-3.8619440000000003,Côte D’Ivoire,CI,Lagunes,minor,,
74,Kouassi-Kouassikro,7.341414,-4.67709,Côte D’Ivoire,CI,Lacs,minor,,
75,Zouan-Hounien,6.919371000000001,-8.206503,Côte D’Ivoire,CI,Montagnes,minor,,
76,Sipilou,7.8645,-8.101433,Côte D’Ivoire,CI,Montagnes,minor,,
77,Buyo,6.2753440000000005,-6.997038000000001,Côte D’Ivoire,CI,Bas-Sassandra,minor,,
78,Arrah,6.673419,-3.969383,Côte D’Ivoire,CI,Lacs,minor,,
79,Guéyo,5.688203,-6.071199,Côte D’Ivoire,CI,Bas-Sassandra,minor,,
80,Facobly,7.388300999999999,-7.3764389999999995,Côte D’Ivoire,CI,Montagnes,minor,,
81,Lakota,5.847523000000001,-5.681997,Côte D’Ivoire,CI,Gôh-Djiboua,minor,,
82,Tiassalé,5.898394000000001,-4.822926,Côte D’Ivoire,CI,Lagunes,minor,,
83,Sinématiali,9.584103,-5.384757,Côte D’Ivoire,CI,Savanes,minor,,
84,Sinfra,6.621026,-5.911442,Côte D’Ivoire,CI,Sassandra-Marahoué,minor,,
85,Anyama,5.494622,-4.051831,Côte D’Ivoire,CI,Abidjan,minor,,
86,Duekoué,6.74202,-7.349183,Côte D’Ivoire,CI,Montagnes,minor,,
87,Ouangolodougou,9.96837,-5.148818,Côte D’Ivoire,CI,Savanes,minor,,
88,Bingerville,5.355809,-3.885371,Côte D’Ivoire,CI,Abidjan,minor,,
89,Prikro,7.647048,-3.996256,Côte D’Ivoire,CI,Lacs,minor,,
90,Agnibilékrou,7.131132000000001,-3.2041470000000003,Côte D’Ivoire,CI,Comoé,minor,,
91,Vavoua,7.381944,-6.477778,Côte D’Ivoire,CI,Sassandra-Marahoué,minor,,
92,Béttié,6.0756760000000005,-3.4084559999999997,Côte D’Ivoire,CI,Comoé,minor,,
93,Fresco,5.0822650000000005,-5.5693790000000005,Côte D’Ivoire,CI,Bas-Sassandra,minor,,
94,Samatiguila,9.819521,-7.560846000000001,Côte D’Ivoire,CI,Denguélé,minor,,
95,Koro,8.555049,-7.463478,Côte D’Ivoire,CI,Woroba,minor,,
96,Adiaké,5.2863370000000005,-3.304025,Côte D’Ivoire,CI,Comoé,minor,,
97,Dikodougou,9.067573,-5.772225,Côte D’Ivoire,CI,Savanes,minor,,
98,Didiévi,7.128660000000001,-4.898041,Côte D’Ivoire,CI,Lacs,minor,,
99,Madinani,9.610832,-6.942153,Côte D’Ivoire,CI,Denguélé,minor,,
100,Taabo,6.199799,-5.108841,Côte D’Ivoire,CI,Lagunes,minor,,
101,Sandégué,7.953755999999999,-3.5801239999999996,Côte D’Ivoire,CI,Zanzan,minor,,
102,Djékanou,6.483892,-5.115526999999999,Côte D’Ivoire,CI,Lacs,minor,,
103,Zuénoula,7.430272,-6.050541,Côte D’Ivoire,CI,Sassandra-Marahoué,minor,,
104,M’Bahiakro,7.457277,-4.3399339999999995,Côte D’Ivoire,CI,Lacs,minor,,
105,Taï,5.873663,-7.455185,Côte D’Ivoire,CI,Montagnes,minor,,
106,Issia,6.492241,-6.585576,Côte D’Ivoire,CI,Sassandra-Marahoué,minor,,
107,Bloléquin,6.569128999999999,-8.002533,Côte D’Ivoire,CI,Montagnes,minor,,
108,Kouibly,7.255974,-7.235084,Côte D’Ivoire,CI,Montagnes,minor,,
109,Agou,5.982888,-3.9439330000000004,Côte D’Ivoire,CI,Lagunes,minor,,
110,M’Batto,6.471971,-4.357809,Côte D’Ivoire,CI,Lacs,minor,,
111,Nassian,8.452746000000001,-3.471522,Côte D’Ivoire,CI,Zanzan,minor,,
112,Tengréla,10.48115,-6.406939,Côte D’Ivoire,CI,Savanes,minor,,
113,Boundiali,9.521666999999999,-6.486944,Côte D’Ivoire,CI,Savanes,minor,,
114,M’Bengué,10.002435,-5.900366,Côte D’Ivoire,CI,Savanes,minor,,
115,Dabakala,8.363209,-4.428628,Côte D’Ivoire,CI,Vallée du Bandama,minor,,
116,Akoupé,6.3842300000000005,-3.8875889999999997,Côte D’Ivoire,CI,Lagunes,minor,,
117,Maféré,5.415102,-3.0300580000000004,Côte D’Ivoire,CI,Comoé,minor,,
118,Attiégouakro,6.77402,-5.114105,Côte D’Ivoire,CI,Yamoussoukro,minor,,
