,city,lat,lng,country,iso2,admin,capital,population,population_proper
0,Helsinki,60.17555600000001,24.934167000000002,Finland,FI,Uusimaa,primary,1115000.0,558457.0
1,Tampere,61.5,23.75,Finland,FI,Pirkanmaa,admin,259279.0,202687.0
2,Turku,60.45,22.283333,Finland,FI,Varsinais-Suomi,admin,175945.0,174940.0
3,Oulu,65.016667,25.466667,Finland,FI,Pohjois-Pohjanmaa,admin,136752.0,128618.0
4,Lahti,60.966667,25.666667,Finland,FI,Päijät-Häme,admin,98826.0,96190.0
5,Jyväskylä,62.233332999999995,25.733333,Finland,FI,Keski-Suomi,admin,98136.0,85026.0
6,Kuopio,62.9,27.683333,Finland,FI,Pohjois-Savo,admin,91900.0,89104.0
7,Pori,61.483332999999995,21.783333,Finland,FI,Satakunta,admin,76772.0,66280.0
8,Lappeenranta,61.066667,28.183333,Finland,FI,Etelä-Karjala,admin,59276.0,49757.0
9,Vaasa,63.1,21.6,Finland,FI,Pohjanmaa,admin,57014.0,40846.0
10,Joensuu,62.6,29.766666999999998,Finland,FI,Pohjois-Karjala,admin,53388.0,53388.0
11,Hämeenlinna,61.0,24.45,Finland,FI,Kanta-Häme,admin,47261.0,47261.0
12,Kokkola,63.833332999999996,23.116667,Finland,FI,Keski-Pohjanmaa,admin,46714.0,46714.0
13,Mikkeli,61.683333,27.25,Finland,FI,Etelä-Savo,admin,46550.0,46550.0
14,Rovaniemi,66.5,25.716667,Finland,FI,Lappi,admin,34781.0,25389.0
15,Kouvola,60.86666700000001,26.7,Finland,FI,Kymenlaakso,admin,31133.0,31133.0
16,Savonlinna,61.86666700000001,28.883333,Finland,FI,Etelä-Savo,minor,27353.0,13114.0
17,Kemi,65.733333,24.566667000000002,Finland,FI,Lappi,minor,22641.0,11479.0
18,Porvoo,60.4,25.666667,Finland,FI,Uusimaa,minor,12242.0,12242.0
19,Kirkonkylä,67.4,26.65,Finland,FI,Lappi,,8942.0,4091.0
20,Kemijärvi,66.666667,27.416666999999997,Finland,FI,Lappi,minor,8883.0,8883.0
21,Sodankylä,67.416667,26.6,Finland,FI,Lappi,minor,,
22,Kangasala,61.466667,24.083333,Finland,FI,Pirkanmaa,minor,,
23,Varkaus,62.316667,27.916666999999997,Finland,FI,Pohjois-Savo,minor,,
24,Kuusamo,65.966667,29.183333,Finland,FI,Pohjois-Pohjanmaa,minor,,
25,Teuva,62.483332999999995,21.733333,Finland,FI,Etelä-Pohjanmaa,minor,,
26,Saarijärvi,62.716667,25.266667,Finland,FI,Keski-Suomi,minor,,
27,Lemland,60.083332999999996,20.1,Finland,FI,Åland,minor,,
28,Simpele,61.433333,29.366667,Finland,FI,Etelä-Karjala,minor,,
29,Lumijoki,64.833333,25.183332999999998,Finland,FI,Pohjois-Pohjanmaa,minor,,
30,Urjala,61.083332999999996,23.533333,Finland,FI,Pirkanmaa,minor,,
31,Geta,60.38333299999999,19.85,Finland,FI,Åland,minor,,
32,Laukaa,62.416667000000004,25.95,Finland,FI,Keski-Suomi,minor,,
33,Ingå,60.05,24.016667,Finland,FI,Uusimaa,minor,,
34,Laitila,60.88333299999999,21.683332999999998,Finland,FI,Varsinais-Suomi,minor,,
35,Kitee,62.1,30.15,Finland,FI,Pohjois-Karjala,minor,,
36,Kaustinen,63.533333,23.7,Finland,FI,Keski-Pohjanmaa,minor,,
37,Honkajoki,61.983332999999995,22.266667,Finland,FI,Satakunta,minor,,
38,Kauhajoki,62.433333,22.183332999999998,Finland,FI,Etelä-Pohjanmaa,minor,,
39,Lieksa,63.316667,30.016666999999998,Finland,FI,Pohjois-Karjala,minor,,
40,Sonkajärvi,63.666667000000004,27.516666999999998,Finland,FI,Pohjois-Savo,minor,,
41,Suonenjoki,62.61666700000001,27.133333,Finland,FI,Pohjois-Savo,minor,,
42,Enontekiö,68.383333,23.633333,Finland,FI,Lappi,minor,,
43,Nastola,60.95,25.933332999999998,Finland,FI,Päijät-Häme,minor,,
44,Kyyjärvi,63.033333,24.566667000000002,Finland,FI,Keski-Suomi,minor,,
45,Vårdö,60.246066000000006,20.373934,Finland,FI,Åland,minor,,
46,Savukoski,67.2925,28.158056,Finland,FI,Lappi,minor,,
47,Sipoo,60.36666700000001,25.266667,Finland,FI,Uusimaa,minor,,
48,Siilinjärvi,63.083332999999996,27.666666999999997,Finland,FI,Pohjois-Savo,minor,,
49,Tuusniemi,62.816667,28.5,Finland,FI,Pohjois-Savo,minor,,
50,Masku,60.566667,22.1,Finland,FI,Varsinais-Suomi,minor,,
51,Ranua,65.916667,26.533333000000002,Finland,FI,Lappi,minor,,
52,Lapua,62.95,23.0,Finland,FI,Etelä-Pohjanmaa,minor,,
53,Nivala,63.916667000000004,24.966667,Finland,FI,Pohjois-Pohjanmaa,minor,,
54,Nummela,60.333332999999996,24.333333,Finland,FI,Uusimaa,minor,,
55,Pelkosenniemi,67.110833,27.510556,Finland,FI,Lappi,minor,,
56,Brändö,60.416667000000004,21.05,Finland,FI,Åland,minor,,
57,Pulkkila,64.266667,25.866667,Finland,FI,Pohjois-Pohjanmaa,minor,,
58,Pudasjärvi,65.383333,26.916666999999997,Finland,FI,Pohjois-Pohjanmaa,minor,,
59,Haapajärvi,63.75,25.333333,Finland,FI,Pohjois-Pohjanmaa,minor,,
60,Harjavalta,61.316667,22.133333,Finland,FI,Satakunta,minor,,
61,Karstula,62.86666700000001,24.783333,Finland,FI,Keski-Suomi,minor,,
62,Kauniainen,60.217222,24.7425,Finland,FI,Uusimaa,minor,,
63,Korsnäs,62.783333,21.2,Finland,FI,Pohjanmaa,minor,,
64,Ruokolahti,61.283333,28.833333000000003,Finland,FI,Etelä-Karjala,minor,,
65,Jomala,60.15,19.966667,Finland,FI,Åland,minor,,
66,Loimaa,60.86666700000001,22.983333,Finland,FI,Varsinais-Suomi,minor,,
67,Muhos,64.8,25.983333,Finland,FI,Pohjois-Pohjanmaa,minor,,
68,Rautalampi,62.63333299999999,26.833333000000003,Finland,FI,Pohjois-Savo,minor,,
69,Rautavaara,63.483332999999995,28.3,Finland,FI,Pohjois-Savo,minor,,
70,Lohja,60.25,24.083333,Finland,FI,Uusimaa,minor,,
71,Taipalsaari,61.15,28.05,Finland,FI,Etelä-Karjala,minor,,
72,Imatra,61.166667000000004,28.766666999999998,Finland,FI,Etelä-Karjala,minor,,
73,Jämijärvi,61.816667,22.7,Finland,FI,Satakunta,minor,,
74,Raseborg,59.983332999999995,23.65,Finland,FI,Uusimaa,minor,,
75,Karkkila,60.533333,24.183332999999998,Finland,FI,Uusimaa,minor,,
76,Kalajoki,64.25,23.95,Finland,FI,Pohjois-Pohjanmaa,minor,,
77,Puumala,61.533333,28.183333,Finland,FI,Etelä-Savo,minor,,
78,Uusikaupunki,60.8,21.416667,Finland,FI,Varsinais-Suomi,minor,,
79,Soini,62.86666700000001,24.216667,Finland,FI,Etelä-Pohjanmaa,minor,,
80,Pihtipudas,63.38333299999999,25.566667000000002,Finland,FI,Keski-Suomi,minor,,
81,Toijala,61.166667000000004,23.866667,Finland,FI,Pirkanmaa,minor,,
82,Lemi,61.05,27.8,Finland,FI,Etelä-Karjala,minor,,
83,Savitaipale,61.2,27.7,Finland,FI,Etelä-Karjala,minor,,
84,Karvia,62.13333299999999,22.566667000000002,Finland,FI,Satakunta,minor,,
85,Ilmajoki,62.733332999999995,22.566667000000002,Finland,FI,Etelä-Pohjanmaa,minor,,
86,Orimattila,60.8,25.75,Finland,FI,Päijät-Häme,minor,,
87,Oripää,60.85,22.683332999999998,Finland,FI,Varsinais-Suomi,minor,,
88,Kankaanpää,61.8,22.416667,Finland,FI,Satakunta,minor,,
89,Vantaa,60.3,24.85,Finland,FI,Uusimaa,minor,,
90,Pielavesi,63.233332999999995,26.75,Finland,FI,Pohjois-Savo,minor,,
91,Kronoby,63.716667,23.033333,Finland,FI,Pohjanmaa,minor,,
92,Kivijärvi,63.11666700000001,25.1,Finland,FI,Keski-Suomi,minor,,
93,Juva,61.9,27.85,Finland,FI,Etelä-Savo,minor,,
94,Polvijärvi,62.85,29.366667,Finland,FI,Pohjois-Karjala,minor,,
95,Polvijärvi,62.416667000000004,28.333333000000003,Finland,FI,Etelä-Savo,minor,,
96,Lappträsk,60.63333299999999,26.216666999999998,Finland,FI,Uusimaa,minor,,
97,Luvia,61.35,21.616667,Finland,FI,Satakunta,minor,,
98,Taivalkoski,65.56666700000001,28.25,Finland,FI,Pohjois-Pohjanmaa,minor,,
99,Ypäjä,60.8,23.283333,Finland,FI,Kanta-Häme,minor,,
100,Joutsa,61.733332999999995,26.116667,Finland,FI,Keski-Suomi,minor,,
101,Malax,62.933333,21.566667000000002,Finland,FI,Pohjanmaa,minor,,
102,Mynämäki,60.666667000000004,22.0,Finland,FI,Varsinais-Suomi,minor,,
103,Ikaalinen,61.766667000000005,23.05,Finland,FI,Pirkanmaa,minor,,
104,Pertunmaa,61.5,26.483333000000002,Finland,FI,Etelä-Savo,minor,,
105,Järvenpää,60.466667,25.1,Finland,FI,Uusimaa,minor,,
106,Kannus,63.9,23.9,Finland,FI,Keski-Pohjanmaa,minor,,
107,Nurmijärvi,60.466667,24.8,Finland,FI,Uusimaa,minor,,
108,Sottunga,60.13333299999999,20.666667,Finland,FI,Åland,minor,,
109,Hämeenkyrö,61.63333299999999,23.2,Finland,FI,Pirkanmaa,minor,,
110,Ödkarby,60.3,19.983333,Finland,FI,Åland,minor,,
111,Tammela,60.8,23.766667,Finland,FI,Kanta-Häme,minor,,
112,Multia,62.416667000000004,24.783333,Finland,FI,Keski-Suomi,minor,,
113,Vieremä,63.75,27.016666999999998,Finland,FI,Pohjois-Savo,minor,,
114,Liminka,64.81666700000001,25.4,Finland,FI,Pohjois-Pohjanmaa,minor,,
115,Kiuruvesi,63.65,26.616667,Finland,FI,Pohjois-Savo,minor,,
116,Kauhava,63.1,23.083333,Finland,FI,Etelä-Pohjanmaa,minor,,
117,Hyvinkää,60.63333299999999,24.866667,Finland,FI,Uusimaa,minor,,
118,Outokumpu,62.733332999999995,29.016666999999998,Finland,FI,Pohjois-Karjala,minor,,
119,Kristinestad,62.283333,21.383333,Finland,FI,Pohjanmaa,minor,,
120,Nousiainen,60.61666700000001,22.133333,Finland,FI,Varsinais-Suomi,minor,,
121,Iisalmi,63.566667,27.183333,Finland,FI,Pohjois-Savo,minor,,
122,Hammarland,60.216667,19.75,Finland,FI,Åland,minor,,
123,Pieksämäki,62.3,27.133333,Finland,FI,Etelä-Savo,minor,,
124,Hyrynsalmi,64.666667,28.533333000000002,Finland,FI,Kainuu,minor,,
125,Lappajärvi,63.2,23.633333,Finland,FI,Etelä-Pohjanmaa,minor,,
126,Suomussalmi,64.9,29.0,Finland,FI,Kainuu,minor,,
127,Tuusula,60.416667000000004,25.033333,Finland,FI,Uusimaa,minor,,
128,Kaskinen,62.38333299999999,21.216667,Finland,FI,Pohjanmaa,minor,,
129,Hankasalmi,62.38333299999999,26.433333,Finland,FI,Keski-Suomi,minor,,
130,Muonio,67.95,23.7,Finland,FI,Lappi,minor,,
131,Maaninka,63.15,27.3,Finland,FI,Pohjois-Savo,minor,,
132,Eckerö,60.2,19.616667,Finland,FI,Åland,minor,,
133,Heinävesi,62.433333,28.6,Finland,FI,Etelä-Savo,minor,,
134,Kannonkoski,62.966667,25.25,Finland,FI,Keski-Suomi,minor,,
135,Kyrö,60.7,22.75,Finland,FI,Varsinais-Suomi,minor,,
136,Kirkkonummi,60.11666700000001,24.433332999999998,Finland,FI,Uusimaa,minor,,
137,Larsmo,63.75,22.8,Finland,FI,Pohjanmaa,minor,,
138,Askola,60.533333,25.6,Finland,FI,Uusimaa,minor,,
139,Forssa,60.816667,23.633333,Finland,FI,Kanta-Häme,minor,,
140,Mänttä,62.033333,24.633333,Finland,FI,Pirkanmaa,minor,,
141,Utsjoki,69.883333,27.0,Finland,FI,Lappi,minor,,
142,Parola,61.05,24.366667,Finland,FI,Kanta-Häme,minor,,
143,Äänekoski,62.6,25.733333,Finland,FI,Keski-Suomi,minor,,
144,Halsua,63.466667,24.166667,Finland,FI,Keski-Pohjanmaa,minor,,
145,Ilomantsi,62.666667000000004,30.916666999999997,Finland,FI,Pohjois-Karjala,minor,,
146,Alavus,62.583332999999996,23.616667,Finland,FI,Etelä-Pohjanmaa,minor,,
147,Taivassalo,60.566667,21.6,Finland,FI,Varsinais-Suomi,minor,,
148,Lestijärvi,63.533333,24.65,Finland,FI,Keski-Pohjanmaa,minor,,
149,Haapavesi,64.133333,25.366667,Finland,FI,Pohjois-Pohjanmaa,minor,,
150,Punkalaidun,61.11666700000001,23.1,Finland,FI,Pirkanmaa,minor,,
151,Uurainen,62.5,25.45,Finland,FI,Keski-Suomi,minor,,
152,Pyhäjoki,64.466667,24.233333,Finland,FI,Pohjois-Pohjanmaa,minor,,
153,Köyliö,61.11666700000001,22.35,Finland,FI,Satakunta,minor,,
154,Kittilä,67.666667,24.9,Finland,FI,Lappi,minor,,
155,Bennäs,63.6,22.8,Finland,FI,Pohjanmaa,minor,,
156,Simo,65.666667,25.05,Finland,FI,Lappi,minor,,
157,Huittinen,61.183333,22.7,Finland,FI,Satakunta,minor,,
158,Ruovesi,61.983332999999995,24.083333,Finland,FI,Pirkanmaa,minor,,
159,Keitele,63.183333,26.366667,Finland,FI,Pohjois-Savo,minor,,
160,Dalsbruk,60.033333,22.516667,Finland,FI,Varsinais-Suomi,minor,,
161,Loppi,60.716667,24.45,Finland,FI,Kanta-Häme,minor,,
162,Pyhäranta,60.95,21.45,Finland,FI,Varsinais-Suomi,minor,,
163,Lieto,60.5,22.45,Finland,FI,Varsinais-Suomi,minor,,
164,Kempele,64.916667,25.5,Finland,FI,Pohjois-Pohjanmaa,minor,,
165,Aura,60.6,22.566667000000002,Finland,FI,Varsinais-Suomi,minor,,
166,Riihimäki,60.75,24.766667,Finland,FI,Kanta-Häme,minor,,
167,Kustavi,60.55,21.35,Finland,FI,Varsinais-Suomi,minor,,
168,Liperi,62.533333,29.366667,Finland,FI,Pohjois-Karjala,minor,,
169,Kokemäki,61.25,22.35,Finland,FI,Satakunta,minor,,
170,Luhanka,61.783333,25.7,Finland,FI,Keski-Suomi,minor,,
171,Veteli,63.466667,23.766667,Finland,FI,Keski-Pohjanmaa,minor,,
172,Konnevesi,62.61666700000001,26.316667,Finland,FI,Keski-Suomi,minor,,
173,Perho,63.216667,24.416667,Finland,FI,Keski-Pohjanmaa,minor,,
174,Rusko,60.533333,22.216667,Finland,FI,Varsinais-Suomi,minor,,
175,Nakkila,61.36666700000001,22.0,Finland,FI,Satakunta,minor,,
176,Reisjärvi,63.61666700000001,24.9,Finland,FI,Pohjois-Pohjanmaa,minor,,
177,Godby,60.233332999999995,20.0,Finland,FI,Åland,minor,,
178,Jämsä,61.86666700000001,25.2,Finland,FI,Keski-Suomi,minor,,
179,Vörå,63.15,22.25,Finland,FI,Pohjanmaa,minor,,
180,Hollola,61.0,25.5,Finland,FI,Päijät-Häme,minor,,
181,Jokioinen,60.816667,23.466667,Finland,FI,Kanta-Häme,minor,,
182,Närpes,62.466667,21.333333,Finland,FI,Pohjanmaa,minor,,
183,Seinäjoki,62.8,22.833333,Finland,FI,Etelä-Pohjanmaa,admin,,
184,Petäjävesi,62.25,25.2,Finland,FI,Keski-Suomi,minor,,
185,Rauma,61.13333299999999,21.5,Finland,FI,Satakunta,minor,,
186,Ii,65.31666700000001,25.366667,Finland,FI,Pohjois-Pohjanmaa,minor,,
187,Säkylä,61.033333,22.333333,Finland,FI,Satakunta,minor,,
188,Kangasniemi,61.983332999999995,26.633333,Finland,FI,Etelä-Savo,minor,,
189,Siuntio,60.183333,24.2,Finland,FI,Uusimaa,minor,,
190,Hamina,60.566667,27.2,Finland,FI,Kymenlaakso,minor,,
191,Pälkäne,61.333332999999996,24.266667,Finland,FI,Pirkanmaa,minor,,
192,Kärsämäki,63.966667,25.766667,Finland,FI,Pohjois-Pohjanmaa,minor,,
193,Kuortane,62.8,23.5,Finland,FI,Etelä-Pohjanmaa,minor,,
194,Vimpeli,63.15,23.8,Finland,FI,Etelä-Pohjanmaa,minor,,
195,Koski Tl,60.65,23.15,Finland,FI,Varsinais-Suomi,minor,,
196,Kausala,60.9,26.366667,Finland,FI,Kymenlaakso,minor,,
197,Björby,60.257222,20.134167,Finland,FI,Åland,minor,,
198,Alavieska,64.166667,24.3,Finland,FI,Pohjois-Pohjanmaa,minor,,
199,Sysmä,61.5,25.683332999999998,Finland,FI,Päijät-Häme,minor,,
200,Tervola,66.083333,24.8,Finland,FI,Lappi,minor,,
201,Kajaani,64.233333,27.683333,Finland,FI,Kainuu,admin,,
202,Rantasalmi,62.066667,28.3,Finland,FI,Etelä-Savo,minor,,
203,Hanko,59.833332999999996,22.95,Finland,FI,Uusimaa,minor,,
204,Sastamala,61.333330000000004,22.9,Finland,FI,Pirkanmaa,minor,,
205,Mäntsälä,60.63333299999999,25.316667000000002,Finland,FI,Uusimaa,minor,,
206,Ivalo,68.65,27.6,Finland,FI,Lappi,minor,,
207,Parikkala,61.55,29.5,Finland,FI,Etelä-Karjala,minor,,
208,Pargas,60.3,22.3,Finland,FI,Varsinais-Suomi,minor,,
209,Siikainen,61.86666700000001,21.833333,Finland,FI,Satakunta,minor,,
210,Hirvensalmi,61.63333299999999,26.8,Finland,FI,Etelä-Savo,minor,,
211,Kuhmoinen,61.566667,25.183332999999998,Finland,FI,Keski-Suomi,minor,,
212,Jalasjärvi,62.5,22.75,Finland,FI,Etelä-Pohjanmaa,minor,,
213,Turenki,60.916667000000004,24.633333,Finland,FI,Kanta-Häme,minor,,
214,Kotka,60.466667,26.916666999999997,Finland,FI,Kymenlaakso,minor,,
215,Evijärvi,63.36666700000001,23.483333,Finland,FI,Etelä-Pohjanmaa,minor,,
216,Isokyrö,63.0,22.316667000000002,Finland,FI,Pohjanmaa,minor,,
217,Hartola,61.583332999999996,26.016667,Finland,FI,Päijät-Häme,minor,,
218,Vääksy,61.183333,25.55,Finland,FI,Päijät-Häme,minor,,
219,Vaala,64.56666700000001,26.833333000000003,Finland,FI,Kainuu,minor,,
220,Virrat,62.233332999999995,23.783333,Finland,FI,Pirkanmaa,minor,,
221,Keuruu,62.266667000000005,24.7,Finland,FI,Keski-Suomi,minor,,
222,Tornio,65.84816,24.176639,Finland,FI,Lappi,minor,,
223,Pornainen,60.466667,25.383333,Finland,FI,Uusimaa,minor,,
224,Pukkila,60.65,25.566667000000002,Finland,FI,Uusimaa,minor,,
225,Isojoki,62.11666700000001,21.966667,Finland,FI,Etelä-Pohjanmaa,minor,,
226,Pello,66.77599599999999,23.961632,Finland,FI,Lappi,minor,,
227,Kurikka,62.61666700000001,22.416667,Finland,FI,Etelä-Pohjanmaa,minor,,
228,Järvelä,60.86666700000001,25.283333,Finland,FI,Päijät-Häme,minor,,
229,Merijärvi,64.3,24.45,Finland,FI,Pohjois-Pohjanmaa,minor,,
230,Tohmajärvi,62.183333,30.383333,Finland,FI,Pohjois-Karjala,minor,,
231,Toholampi,63.766667000000005,24.25,Finland,FI,Keski-Pohjanmaa,minor,,
232,Muurame,62.13333299999999,25.666667,Finland,FI,Keski-Suomi,minor,,
233,Sievi,63.9,24.5,Finland,FI,Pohjois-Pohjanmaa,minor,,
234,Naantali,60.45,22.033333,Finland,FI,Varsinais-Suomi,minor,,
235,Lumparland,60.11666700000001,20.25,Finland,FI,Åland,minor,,
236,Leppävirta,62.483332999999995,27.783333000000002,Finland,FI,Pohjois-Savo,minor,,
237,Oulainen,64.266667,24.8,Finland,FI,Pohjois-Pohjanmaa,minor,,
238,Jakobstad,63.666667000000004,22.7,Finland,FI,Pohjanmaa,minor,,
239,Joroinen,62.183333,27.833333000000003,Finland,FI,Etelä-Savo,minor,,
240,Salo,60.38333299999999,23.133333,Finland,FI,Varsinais-Suomi,minor,,
241,Laihia,62.966667,22.016667,Finland,FI,Pohjanmaa,minor,,
242,Lovisa,60.45,26.233333000000002,Finland,FI,Uusimaa,minor,,
243,Myrskylä,60.666667000000004,25.85,Finland,FI,Uusimaa,minor,,
244,Kuhmo,64.133333,29.516666999999998,Finland,FI,Kainuu,minor,,
245,Kontiolahti,62.766667000000005,29.85,Finland,FI,Pohjois-Karjala,minor,,
246,Paltamo,64.416667,27.833333000000003,Finland,FI,Kainuu,minor,,
247,Pirkkala,61.466667,23.566667000000002,Finland,FI,Pirkanmaa,minor,,
248,Karlby,59.916667000000004,20.9,Finland,FI,Åland,minor,,
249,Hämeenkoski,61.033333,25.15,Finland,FI,Päijät-Häme,minor,,
250,Nurmes,63.55,29.116667,Finland,FI,Pohjois-Karjala,minor,,
251,Toivakka,62.1,26.083333,Finland,FI,Keski-Suomi,minor,,
252,Tarvasjoki,60.583332999999996,22.733333,Finland,FI,Varsinais-Suomi,minor,,
253,Nokia,61.466667,23.5,Finland,FI,Pirkanmaa,minor,,
254,Korsholm,63.11666700000001,21.716667,Finland,FI,Pohjanmaa,minor,,
255,Hailuoto,65.0,24.716667,Finland,FI,Pohjois-Pohjanmaa,minor,,
256,Sulkava,61.783333,28.383333,Finland,FI,Etelä-Savo,minor,,
257,Humppila,60.933333,23.366667,Finland,FI,Kanta-Häme,minor,,
258,Ristijärvi,64.5,28.216666999999998,Finland,FI,Kainuu,minor,,
259,Kumlinge,60.266667000000005,20.783333,Finland,FI,Åland,minor,,
260,Ruukki,64.666667,25.1,Finland,FI,Pohjois-Pohjanmaa,minor,,
261,Eura,61.13333299999999,22.133333,Finland,FI,Satakunta,minor,,
262,Salla,66.833333,28.666666999999997,Finland,FI,Lappi,minor,,
263,Eurajoki,61.2,21.733333,Finland,FI,Satakunta,minor,,
264,Föglö,60.01303299999999,20.427541,Finland,FI,Åland,minor,,
265,Kimito,60.166667000000004,22.75,Finland,FI,Varsinais-Suomi,minor,,
266,Kihniö,62.2,23.183332999999998,Finland,FI,Pirkanmaa,minor,,
267,Posio,66.1,28.15,Finland,FI,Lappi,minor,,
268,Lempäälä,61.316667,23.75,Finland,FI,Pirkanmaa,minor,,
269,Kinnula,63.36666700000001,24.966667,Finland,FI,Keski-Suomi,minor,,
270,Åva,60.45,21.083333,Finland,FI,Åland,minor,,
271,Utajärvi,64.75,26.383333,Finland,FI,Pohjois-Pohjanmaa,minor,,
272,Valtimo,63.666667000000004,28.8,Finland,FI,Pohjois-Karjala,minor,,
273,Paimio,60.45,22.7,Finland,FI,Varsinais-Suomi,minor,,
274,Karijoki,62.3,21.7,Finland,FI,Etelä-Pohjanmaa,minor,,
275,Keminmaa,65.81666700000001,24.533333,Finland,FI,Lappi,minor,,
276,Kolari,67.333333,23.8,Finland,FI,Lappi,minor,,
277,Kaavi,62.983332999999995,28.5,Finland,FI,Pohjois-Savo,minor,,
278,Mariehamn,60.1,19.95,Finland,FI,Åland,admin,,
279,Raisio,60.483332999999995,22.183332999999998,Finland,FI,Varsinais-Suomi,minor,,
280,Enonkoski,62.083332999999996,28.933333,Finland,FI,Etelä-Savo,minor,,
281,Korkeakoski,61.8,24.366667,Finland,FI,Pirkanmaa,minor,,
282,Kaarina,60.416667000000004,22.416667,Finland,FI,Varsinais-Suomi,minor,,
283,Orivesi,61.683333,24.35,Finland,FI,Pirkanmaa,minor,,
284,Mäntyharju,61.416667000000004,26.883333,Finland,FI,Etelä-Savo,minor,,
285,Alajärvi,63.0,23.816667000000002,Finland,FI,Etelä-Pohjanmaa,minor,,
286,Puolanka,64.866667,27.666666999999997,Finland,FI,Kainuu,minor,,
287,Virolahti,60.516667000000005,27.683056,Finland,FI,Kymenlaakso,minor,,
288,Tyrnävä,64.766667,25.65,Finland,FI,Pohjois-Pohjanmaa,minor,,
289,Heinola,61.216667,26.033333,Finland,FI,Päijät-Häme,minor,,
290,Ähtäri,62.566667,24.1,Finland,FI,Etelä-Pohjanmaa,minor,,
291,Siltakylä,60.5,26.716666999999998,Finland,FI,Kymenlaakso,minor,,
292,Oitti,60.783333,25.033333,Finland,FI,Kanta-Häme,minor,,
293,Marttila,60.583332999999996,22.9,Finland,FI,Varsinais-Suomi,minor,,
294,Vesanto,62.933333,26.416666999999997,Finland,FI,Pohjois-Savo,minor,,
295,Kerava,60.4,25.116667,Finland,FI,Uusimaa,minor,,
296,Ulvila,61.433333,21.883333,Finland,FI,Satakunta,minor,,
297,Padasjoki,61.35,25.283333,Finland,FI,Päijät-Häme,minor,,
298,Juankoski,63.066667,28.35,Finland,FI,Pohjois-Savo,minor,,
299,Espoo,60.216667,24.666667,Finland,FI,Uusimaa,minor,,
300,Parkano,62.016667000000005,23.016667,Finland,FI,Pirkanmaa,minor,,
301,Merikarvia,61.85,21.5,Finland,FI,Satakunta,minor,,
302,Raahe,64.68333299999999,24.483333,Finland,FI,Pohjois-Pohjanmaa,minor,,
303,Tervo,62.95,26.75,Finland,FI,Pohjois-Savo,minor,,
304,Lapinlahti,63.36666700000001,27.4,Finland,FI,Pohjois-Savo,minor,,
305,Viitasaari,63.066667,25.866667,Finland,FI,Keski-Suomi,minor,,
306,Vesilahti,61.316667,23.616667,Finland,FI,Pirkanmaa,minor,,
307,Sotkamo,64.133333,28.416666999999997,Finland,FI,Kainuu,minor,,
308,Sauvo,60.35,22.7,Finland,FI,Varsinais-Suomi,minor,,
309,Ylivieska,64.083333,24.55,Finland,FI,Pohjois-Pohjanmaa,minor,,
310,Vinkkilä,60.683333,21.716667,Finland,FI,Varsinais-Suomi,minor,,
311,Pyhäntä,64.1,26.316667,Finland,FI,Pohjois-Pohjanmaa,minor,,
312,Pyhäsalmi,63.683333,25.983333,Finland,FI,Pohjois-Pohjanmaa,minor,,
313,Miehikkälä,60.666667000000004,27.7,Finland,FI,Kymenlaakso,minor,,
314,Valkeakoski,61.266667000000005,24.033333,Finland,FI,Pirkanmaa,minor,,
315,Ylöjärvi,61.55,23.6,Finland,FI,Pirkanmaa,minor,,
316,Juuka,63.233332999999995,29.25,Finland,FI,Pohjois-Karjala,minor,,
317,Ylitornio,66.316779,23.680747,Finland,FI,Lappi,minor,,
318,Pomarkku,61.7,22.0,Finland,FI,Satakunta,minor,,
319,Somero,60.61666700000001,23.533333,Finland,FI,Varsinais-Suomi,minor,,
320,Rääkkylä,62.316667,29.616667,Finland,FI,Pohjois-Karjala,minor,,
321,Nykarleby,63.533333,22.533333,Finland,FI,Pohjanmaa,minor,,
322,Lavia,61.6,22.6,Finland,FI,Satakunta,minor,,
323,Taavetti,60.916667000000004,27.566667,Finland,FI,Etelä-Karjala,minor,,
