,city,lat,lng,country,iso2,admin,capital,population,population_proper
0,Jakarta Pusat,-6.1818,106.8223,Indonesia,ID,Jakarta,,9125000.0,8540121.0
1,Surabaya,-7.249167,112.75083300000001,Indonesia,ID,Jawa Timur,admin,2845000.0,2374658.0
2,Tanjung,-6.929722,107.58555600000001,Indonesia,ID,Jawa Barat,,2394000.0,1699719.0
3,Bekasijaya,-6.2308330000000005,107.01361100000001,Indonesia,ID,Jawa Barat,,2378211.0,1520119.0
4,Merdeka,3.5704,98.6593,Indonesia,ID,Sumatera Utara,,2115000.0,1750971.0
5,Palembang,-2.9763889999999997,104.75,Indonesia,ID,Sumatera Selatan,admin,1749000.0,1441500.0
6,Semarangindah,-6.974,110.3909,Indonesia,ID,Jawa Tengah,,1396000.0,1288084.0
7,Ujungtanah,-5.1146,119.4245,Indonesia,ID,Sulawesi Selatan,,1262000.0,1262000.0
8,Cilacap,-7.726389,109.00944399999999,Indonesia,ID,Jawa Tengah,minor,1174964.0,1174964.0
9,Bogor,-6.594444,106.78916699999999,Indonesia,ID,Jawa Barat,,918000.0,800000.0
10,Tanjung Gintung,-5.4294139999999995,105.27533500000001,Indonesia,ID,Lampung,,881801.0,881801.0
11,Bandar Lampung,-5.429167,105.26111100000001,Indonesia,ID,Lampung,admin,865000.0,726514.0
12,Pampangan,-0.9790770000000001,100.382191,Indonesia,ID,Sumatera Barat,,855000.0,840352.0
13,Gadang,-8.0123,112.6283,Indonesia,ID,Jawa Timur,minor,805000.0,746716.0
14,Pekanbaru,0.516667,101.44166700000001,Indonesia,ID,Riau,admin,799000.0,611436.0
15,Wanasari,-8.6429,115.2145,Indonesia,ID,Bali,,732344.0,405923.0
16,Yogyakarta,-7.801389,110.364722,Indonesia,ID,Yogyakarta,admin,636660.0,636660.0
17,Palu,-0.908333,119.870833,Indonesia,ID,Sulawesi Tengah,admin,612445.0,335297.0
18,Pontianak Barat,-0.018941,109.318679,Indonesia,ID,Kalimantan Barat,minor,607311.0,550304.0
19,Banjarmasin,-3.323611,114.588889,Indonesia,ID,Kalimantan Selatan,admin,603576.0,572837.0
20,Samarinda,-0.491667,117.14583300000001,Indonesia,ID,Kalimantan Timur,admin,592228.0,355160.0
21,Pekan Binjai,3.6084,98.48899999999999,Indonesia,ID,Sumatera Utara,,564979.0,246010.0
22,Surakarta,-7.5561110000000005,110.831667,Indonesia,ID,Jawa Tengah,,555308.0,555308.0
23,Lampaseh Aceh,5.558,95.3102,Indonesia,ID,Aceh,,513698.0,174433.0
24,Bukittinggi,-0.309068,100.370552,Indonesia,ID,Sumatera Barat,,506964.0,98746.0
25,Pasuruan,-7.6453,112.9075,Indonesia,ID,Jawa Timur,,500000.0,186322.0
26,Mataram Timur,-8.5931,116.1055,Indonesia,ID,Nusa Tenggara Barat,,499409.0,318674.0
27,Jambi,-1.620152,103.611373,Indonesia,ID,Jambi,admin,457090.0,420323.0
28,Manado Light,1.485833,124.834722,Indonesia,ID,Sulawesi Utara,,451893.0,447102.0
29,Balikpapan Baru,-1.2437,116.8674,Indonesia,ID,Kalimantan Timur,,445905.0,433866.0
30,Bengkulu,-3.8125,102.2875,Indonesia,ID,Bengkulu,admin,426673.0,309712.0
31,Gorontalo,0.5375,123.0625,Indonesia,ID,Gorontalo,admin,365497.0,144195.0
32,Ambon,-3.6958330000000004,128.183333,Indonesia,ID,Maluku,admin,355596.0,99526.0
33,Pematangsiantar,2.9595,99.0687,Indonesia,ID,Sumatera Utara,,341200.0,209614.0
34,Jumerto,-8.1379,113.6881,Indonesia,ID,Jawa Timur,minor,298585.0,298585.0
35,Kupang,-10.170833,123.606944,Indonesia,ID,Nusa Tenggara Timur,admin,282396.0,259200.0
36,Sukabumi,-6.918056,106.926667,Indonesia,ID,Jawa Barat,,276414.0,276414.0
37,Majene,-3.5403,118.9707,Indonesia,ID,Sulawesi Barat,minor,272377.0,37715.0
38,Pencongan,-6.885244,109.634114,Indonesia,ID,Jawa Tengah,,272000.0,257945.0
39,Tasikmalaya,-7.3274,108.2207,Indonesia,ID,Jawa Barat,,271143.0,271143.0
40,Kampung Tebingtinggi,3.322,99.1688,Indonesia,ID,Sumatera Utara,,268043.0,117530.0
41,Padangmatinggi,1.3673,99.2527,Indonesia,ID,Sumatera Utara,,266882.0,100561.0
42,Kacirebonan,-6.7252,108.5678,Indonesia,ID,Jawa Barat,,254298.0,254298.0
43,Singkawang,0.9092520000000001,108.984633,Indonesia,ID,Kalimantan Barat,,248012.0,101838.0
44,Tegal,-6.8694,109.1402,Indonesia,ID,Jawa Tengah,,237084.0,237084.0
45,Kediri,-7.816667,112.016667,Indonesia,ID,Jawa Timur,,235143.0,235143.0
46,Kampungsingaraja,-8.1222,115.0866,Indonesia,ID,Bali,,234468.0,133784.0
47,Tanjungpinang,0.916667,104.458333,Indonesia,ID,Kepulauan Riau,admin,226666.0,125472.0
48,Sibolga,1.7427,98.7792,Indonesia,ID,Sumatera Utara,,217312.0,79714.0
49,Martapura,-3.4109,114.8642,Indonesia,ID,Kalimantan Selatan,minor,198239.0,131449.0
50,Tarakan,3.3133190000000003,117.59151999999999,Indonesia,ID,Kalimantan Utara,,193069.0,97478.0
51,Ternate,0.790647,127.384243,Indonesia,ID,Maluku Utara,,187521.0,101731.0
52,Gading,-7.6257,111.5049,Indonesia,ID,Jawa Timur,,186099.0,186099.0
53,Pinrang,-3.786111,119.652222,Indonesia,ID,Sulawesi Selatan,minor,182731.0,182731.0
54,Probolinggo,-7.7543,113.2159,Indonesia,ID,Jawa Timur,,181656.0,181656.0
55,Salatigapermai,-7.296111,110.471944,Indonesia,ID,Jawa Tengah,,176000.0,172645.0
56,Banyuwangi,-8.2215,114.3646,Indonesia,ID,Jawa Timur,minor,172424.0,108166.0
57,Jayapura,-2.534722,140.705556,Indonesia,ID,Papua,admin,169341.0,134895.0
58,Kendari,-3.975,122.516667,Indonesia,ID,Sulawesi Tenggara,admin,165377.0,165377.0
59,Secang,-6.1127,106.1697,Indonesia,ID,Banten,,164767.0,164767.0
60,Palangkaraya,-2.208333,113.91666699999999,Indonesia,ID,Kalimantan Tengah,admin,148289.0,148289.0
61,Kota Lhokseumawe,5.1771,97.1423,Indonesia,ID,Aceh,,140322.0,88974.0
62,Blitar,-8.0983,112.1681,Indonesia,ID,Jawa Timur,,132416.0,132416.0
63,Pangkalpinang,-2.120833,106.1125,Indonesia,ID,Kepulauan Bangka Belitung,admin,125933.0,73638.0
64,Sorong,-0.877295,131.287507,Indonesia,ID,Papua Barat,,125535.0,125535.0
65,Indramayu,-6.326389,108.32,Indonesia,ID,Jawa Barat,minor,123263.0,123263.0
66,Pati,-6.7559,111.038,Indonesia,ID,Jawa Tengah,minor,122785.0,122785.0
67,Mojokasri,-7.466667,112.4,Indonesia,ID,,,112557.0,112557.0
68,Magelang,-7.470556,110.21777800000001,Indonesia,ID,Jawa Tengah,,111461.0,111461.0
69,Sabali,-8.4799,118.7727,Indonesia,ID,Nusa Tenggara Barat,,106101.0,106101.0
70,Maumere,-8.6199,122.2111,Indonesia,ID,Nusa Tenggara Timur,minor,104285.0,47598.0
71,Barias,-1.1814360000000002,136.079614,Indonesia,ID,Papua,,103610.0,103610.0
72,Prabumulih,-3.434472,104.230558,Indonesia,ID,Sumatera Selatan,minor,103470.0,64038.0
73,Bontangkuala,0.1397,117.5141,Indonesia,ID,Kalimantan Timur,,101691.0,101691.0
74,Sungai Penuh,-2.0561,101.3913,Indonesia,ID,Jambi,,95913.0,17633.0
75,Sampit,-2.5315,112.9496,Indonesia,ID,Kalimantan Tengah,minor,92710.0,66053.0
76,Parepare,-4.0135,119.6255,Indonesia,ID,Sulawesi Selatan,,87776.0,87776.0
77,Sumenep,-7.016667,113.86666699999999,Indonesia,ID,Jawa Timur,minor,84656.0,84656.0
78,Watampone,-4.5386,120.3279,Indonesia,ID,Sulawesi Selatan,minor,81629.0,36277.0
79,Ende,-8.8432,121.6623,Indonesia,ID,Nusa Tenggara Timur,minor,77205.0,44655.0
80,Tuban,-6.8976,112.0649,Indonesia,ID,Jawa Timur,minor,76242.0,76242.0
81,Manokwari,-0.8611110000000001,134.0625,Indonesia,ID,Papua Barat,admin,74504.0,53190.0
82,Lahat-ulu,-3.798398,103.52826999999999,Indonesia,ID,Sumatera Selatan,,65906.0,35033.0
83,Tanjungpandan,-2.733741,107.64656399999998,Indonesia,ID,Kepulauan Bangka Belitung,minor,62374.0,60808.0
84,Redong,-8.5967,120.4526,Indonesia,ID,Nusa Tenggara Timur,,53976.0,34569.0
85,Sawahlunto,-0.674834,100.807152,Indonesia,ID,Sumatera Barat,,50354.0,50354.0
86,Wunga,-9.667,120.2627,Indonesia,ID,Nusa Tenggara Timur,,48828.0,23153.0
87,Luwuk,-0.9516,122.7875,Indonesia,ID,Sulawesi Tengah,minor,47778.0,39323.0
88,Amahai,-3.3342,128.9243,Indonesia,ID,Maluku,minor,47653.0,4692.0
89,Poso,-1.3959,120.7524,Indonesia,ID,Sulawesi Tengah,minor,47110.0,35904.0
90,Padangpanjang,-0.45602299999999996,100.405209,Indonesia,ID,Sumatera Barat,,44096.0,44096.0
91,Nabire,-3.367,135.4964,Indonesia,ID,Papua,minor,43898.0,13771.0
92,Kotaalam,-4.834615,104.872557,Indonesia,ID,Lampung,,42366.0,42366.0
93,Bayan,-8.6893,116.26899999999999,Indonesia,ID,Nusa Tenggara Barat,,35183.0,35183.0
94,Merauke,-8.489108,140.38536299999998,Indonesia,ID,Papua,minor,34412.0,34412.0
95,Baubau,-5.4633,122.6024,Indonesia,ID,Sulawesi Tenggara,,24412.0,24412.0
96,Makale,-3.1019,119.8539,Indonesia,ID,Sulawesi Selatan,minor,9960.0,9960.0
97,Pakkalolo,-3.1234,120.221,Indonesia,ID,Sulawesi Selatan,,2444.0,2444.0
98,Tarutung,2.014673,98.96548299999999,Indonesia,ID,Sumatera Utara,minor,1305.0,1305.0
99,Ketawang,-7.1657,111.626,Indonesia,ID,Jawa Timur,minor,,
100,Tekung,-8.1736,113.2796,Indonesia,ID,Jawa Timur,minor,,
101,Dukuhsawah,-7.4418,108.7818,Indonesia,ID,Jawa Tengah,minor,,
102,Dusun Tengah Cihaurbeuti,-7.2248,108.2027,Indonesia,ID,Jawa Barat,minor,,
103,Kemiren,-6.8988,111.4685,Indonesia,ID,Jawa Tengah,minor,,
104,Kramat,-7.7004,113.4896,Indonesia,ID,Jawa Timur,minor,,
105,Sukokerto,-8.0549,113.8137,Indonesia,ID,Jawa Timur,minor,,
106,Ragang,-8.0505,113.8295,Indonesia,ID,Jawa Timur,minor,,
107,Sepang,-8.3089,114.9171,Indonesia,ID,Bali,minor,,
108,Sepanjang,-8.3014,114.0513,Indonesia,ID,Jawa Timur,minor,,
109,Makemi,-8.2146,124.6893,Indonesia,ID,Nusa Tenggara Timur,minor,,
110,Atengmelang,-8.2262,124.6706,Indonesia,ID,Nusa Tenggara Timur,minor,,
111,Nifunaibesi,-9.6685,124.4889,Indonesia,ID,Nusa Tenggara Timur,minor,,
112,Oeoh,-9.7366,124.4852,Indonesia,ID,Nusa Tenggara Timur,minor,,
113,Tlogowungu,-6.9324,111.2785,Indonesia,ID,Jawa Tengah,minor,,
114,Karangori,-6.9318,111.2882,Indonesia,ID,Jawa Tengah,minor,,
115,Hoelea,-8.2156,123.7414,Indonesia,ID,Nusa Tenggara Timur,minor,,
116,Karadenan,-7.3385,106.6206,Indonesia,ID,Jawa Barat,minor,,
117,Sanana,-2.058532,125.97786200000002,Indonesia,ID,Maluku Utara,minor,,
118,Tarikolot,-7.0223,108.5084,Indonesia,ID,Jawa Barat,minor,,
119,Kapongan,-7.6907,114.0619,Indonesia,ID,Jawa Timur,minor,,
120,Sliwungkrajan,-7.7506,114.008,Indonesia,ID,Jawa Timur,minor,,
121,Babana,-2.0779,119.1986,Indonesia,ID,Sulawesi Barat,minor,,
122,Laiwui,-1.351774,127.66928600000001,Indonesia,ID,Maluku Utara,minor,,
123,Sukamulya,-7.3149,108.193,Indonesia,ID,Jawa Barat,minor,,
124,Karangagung Timur,-6.8997,112.1677,Indonesia,ID,Jawa Timur,minor,,
125,Ares Tengah,-6.9508,114.0064,Indonesia,ID,Jawa Timur,minor,,
126,Ngabungan,-6.9574,114.0267,Indonesia,ID,Jawa Timur,minor,,
127,Lawong,-7.2951,108.3877,Indonesia,ID,Jawa Barat,minor,,
128,Lhoknga,5.47691,95.24538299999999,Indonesia,ID,Aceh,minor,,
129,Sumpur Kudus,-0.4418,100.9088,Indonesia,ID,Sumatera Barat,minor,,
130,Pogalankrajan,-8.0542,111.738,Indonesia,ID,Jawa Timur,minor,,
131,Taka,-8.8406,121.11399999999999,Indonesia,ID,Nusa Tenggara Timur,minor,,
132,Warekeo,-8.8445,121.0109,Indonesia,ID,Nusa Tenggara Timur,minor,,
133,Wolomarang,-8.604,122.1994,Indonesia,ID,Nusa Tenggara Timur,minor,,
134,Tawun,-6.9148,111.7378,Indonesia,ID,Jawa Timur,minor,,
135,Tayan,-0.033652999999999995,110.10183700000002,Indonesia,ID,Kalimantan Barat,minor,,
136,Obano,-3.9259,136.2259,Indonesia,ID,Papua,minor,,
137,Tapakrejo,-8.1094,112.4017,Indonesia,ID,Jawa Timur,minor,,
138,Plasah,-7.174587,113.553642,Indonesia,ID,Jawa Timur,minor,,
139,Krajan,-8.0189,112.819,Indonesia,ID,Jawa Timur,minor,,
140,Boyolangu,-8.1181,111.8935,Indonesia,ID,Jawa Timur,minor,,
141,Kedampul,-8.0097,112.8132,Indonesia,ID,Jawa Timur,minor,,
142,Padang,-0.941667,100.375,Indonesia,ID,Sumatera Barat,admin,,
143,Cibeureum,-7.1597,107.9933,Indonesia,ID,Jawa Barat,minor,,
144,Pangansalan,-6.9919,112.3847,Indonesia,ID,Jawa Timur,minor,,
145,Bandaneira,-4.5402,129.9398,Indonesia,ID,Maluku,minor,,
146,Cinangka,-7.5566,108.6536,Indonesia,ID,Jawa Barat,minor,,
147,Pasar Kulon,-7.1112,107.8967,Indonesia,ID,Jawa Barat,minor,,
148,Cibeureum,-7.3707,108.5087,Indonesia,ID,Jawa Barat,minor,,
149,Sembungjaya,-7.3492,108.5084,Indonesia,ID,Jawa Barat,minor,,
150,Lojejerkrajan,-8.3653,113.4956,Indonesia,ID,Jawa Timur,minor,,
151,Sudimanik,-6.7528,105.7277,Indonesia,ID,Banten,minor,,
152,Rancasadang,-6.7554,105.6806,Indonesia,ID,Banten,minor,,
153,Kuaro,-1.8198,116.0797,Indonesia,ID,Kalimantan Timur,minor,,
154,Serang,-6.115278,106.15416699999999,Indonesia,ID,Banten,admin,,
155,Serang,-8.3077,112.2402,Indonesia,ID,Jawa Timur,minor,,
156,Pangkalan,-6.6183,111.0783,Indonesia,ID,Jawa Tengah,minor,,
157,Sumber,-6.6131,111.0325,Indonesia,ID,Jawa Tengah,minor,,
158,Rindingallo,-2.8979,119.8138,Indonesia,ID,Sulawesi Selatan,minor,,
159,Krajan Jlugangan,-7.7107,114.0561,Indonesia,ID,Jawa Timur,minor,,
160,Baturono,-7.0464,112.4762,Indonesia,ID,Jawa Timur,minor,,
161,Jabung Wetan,-7.742000000000001,113.4873,Indonesia,ID,Jawa Timur,minor,,
162,Rantau Prapat,2.332098,100.052054,Indonesia,ID,Sumatera Utara,minor,,
163,Cijulang,-7.7273,108.4733,Indonesia,ID,Jawa Barat,minor,,
164,Cijulang,-7.2616,108.1972,Indonesia,ID,Jawa Barat,minor,,
165,Banjar Dukuh,-8.5733,115.0623,Indonesia,ID,Bali,minor,,
166,Purut,-8.2337,113.1087,Indonesia,ID,Jawa Timur,minor,,
167,Onyam,-7.5495,107.8324,Indonesia,ID,Jawa Barat,minor,,
168,Carodok,-6.5823,105.8508,Indonesia,ID,Banten,minor,,
169,Pangasinan,-7.4066,108.5292,Indonesia,ID,Jawa Barat,minor,,
170,Suban Jeriji,-3.7463660000000005,103.96405,Indonesia,ID,Sumatera Selatan,minor,,
171,Tumu,-9.857076,124.490307,Indonesia,ID,Nusa Tenggara Timur,minor,,
172,Walahir,-7.4472,108.44,Indonesia,ID,Jawa Barat,minor,,
173,Pasirawi,-7.0966,106.9521,Indonesia,ID,Jawa Barat,minor,,
174,Margamulya,-7.2674,108.5587,Indonesia,ID,Jawa Barat,minor,,
175,Pakuan Agung,-4.664808,104.962934,Indonesia,ID,Lampung,minor,,
176,Cibunar,-7.2365,107.8877,Indonesia,ID,Jawa Barat,minor,,
177,Cibungurgardu,-6.4675,105.8147,Indonesia,ID,Banten,minor,,
178,Oepura,-10.189,123.6076,Indonesia,ID,Nusa Tenggara Timur,minor,,
179,Bualu,-8.796,115.2172,Indonesia,ID,Bali,minor,,
180,Pasirpanjang,-6.4785,105.9269,Indonesia,ID,Banten,minor,,
181,Kapakabisa,-9.7219,119.2998,Indonesia,ID,Nusa Tenggara Timur,minor,,
182,Batusopang,-1.8236,115.9126,Indonesia,ID,Kalimantan Timur,minor,,
183,Banjar Petak,-8.4448,115.3195,Indonesia,ID,Bali,minor,,
184,Gununglaban,-7.589444,109.23111100000001,Indonesia,ID,Jawa Tengah,minor,,
185,Randuboto,-7.0034,112.5812,Indonesia,ID,Jawa Timur,minor,,
186,Keroak,-8.5705,116.49799999999999,Indonesia,ID,Nusa Tenggara Barat,minor,,
187,Angkup,4.6216,96.7228,Indonesia,ID,Aceh,minor,,
188,Riangpuho,-8.1974,122.8052,Indonesia,ID,Nusa Tenggara Timur,minor,,
189,Ebak,-8.1697,122.8508,Indonesia,ID,Nusa Tenggara Timur,minor,,
190,Bedalewun,-8.1904,122.8251,Indonesia,ID,Nusa Tenggara Timur,minor,,
191,Jatirego,-6.8401,111.5204,Indonesia,ID,Jawa Tengah,minor,,
192,Panugeran,-7.3653,108.1034,Indonesia,ID,Jawa Barat,minor,,
193,Angsana Timur,-7.0913,113.54299999999999,Indonesia,ID,Jawa Timur,minor,,
194,Duko Tengah,-6.8573,115.2797,Indonesia,ID,Jawa Timur,minor,,
195,Utarapasar,-6.8553,115.2869,Indonesia,ID,Jawa Timur,minor,,
196,Bagorejo,-8.396,114.3045,Indonesia,ID,Jawa Timur,minor,,
197,Bakungan,2.92397,97.483114,Indonesia,ID,Aceh,minor,,
198,Seputih,-8.2019,113.7841,Indonesia,ID,Jawa Timur,minor,,
199,Rawa Satu,-7.1581,108.3171,Indonesia,ID,Jawa Barat,minor,,
200,Lewotola,-8.2916,122.9193,Indonesia,ID,Nusa Tenggara Timur,minor,,
201,Cikabuyutan Barat,-7.3785,108.5422,Indonesia,ID,Jawa Barat,minor,,
202,Waris,-3.1166669999999996,140.883333,Indonesia,ID,Papua,minor,,
203,Biris Daja,-7.1537619999999995,113.51968600000001,Indonesia,ID,Jawa Timur,minor,,
204,Cikoneng,-7.3118,108.271,Indonesia,ID,Jawa Barat,minor,,
205,Nomih,-6.9828,113.4857,Indonesia,ID,Jawa Timur,minor,,
206,Lonpao Dajah,-6.8989,113.4891,Indonesia,ID,Jawa Timur,minor,,
207,Ewa,-8.6235,122.5073,Indonesia,ID,Nusa Tenggara Timur,minor,,
208,Kurungkotok,-6.2278,106.0372,Indonesia,ID,Banten,minor,,
209,Glatik,-6.971,112.5386,Indonesia,ID,Jawa Timur,minor,,
210,Sambong,-6.7986,111.4202,Indonesia,ID,Jawa Tengah,minor,,
211,Krajan Suko Kidul,-8.0604,111.5793,Indonesia,ID,Jawa Timur,minor,,
212,Maron,-8.0059,111.4216,Indonesia,ID,Jawa Timur,minor,,
213,Bebedahan,-7.2599,107.8746,Indonesia,ID,Jawa Barat,minor,,
214,Riangkroko,-8.1544,122.789,Indonesia,ID,Nusa Tenggara Timur,minor,,
215,Welahan,-8.2094,111.7838,Indonesia,ID,Jawa Timur,minor,,
216,Kundung,-8.1927,111.777,Indonesia,ID,Jawa Timur,minor,,
217,Batudulang,-8.5873,117.2809,Indonesia,ID,Nusa Tenggara Barat,minor,,
218,Cibanten,-7.6941,108.4029,Indonesia,ID,Jawa Barat,minor,,
219,Cibaregbeg Dua,-7.16,106.8789,Indonesia,ID,Jawa Barat,minor,,
220,Ratilangi,-10.1419,120.7186,Indonesia,ID,Nusa Tenggara Timur,minor,,
221,Onan Ganjang Satu,2.1588990000000003,98.630436,Indonesia,ID,Sumatera Utara,minor,,
222,Banjar,-7.3688,108.5329,Indonesia,ID,Jawa Barat,minor,,
223,Bosiko,-8.8101,120.9907,Indonesia,ID,Nusa Tenggara Timur,minor,,
224,Losari,-7.557778,109.15472199999999,Indonesia,ID,Jawa Tengah,minor,,
225,Karanglewas,-7.553611,109.13888899999999,Indonesia,ID,Jawa Tengah,minor,,
226,Curup,-3.4703,102.5207,Indonesia,ID,Bengkulu,minor,,
227,Curugkembar Satu,-7.2141,106.9363,Indonesia,ID,Jawa Barat,minor,,
228,Barus,2.0106,98.3982,Indonesia,ID,Sumatera Utara,minor,,
229,Gugut,-8.1838,113.6121,Indonesia,ID,Jawa Timur,minor,,
230,Karangori Kidul,-6.796,111.3999,Indonesia,ID,Jawa Tengah,minor,,
231,Fuan,-10.2079,123.7745,Indonesia,ID,Nusa Tenggara Timur,minor,,
232,Hadakewa,-8.3698,123.5473,Indonesia,ID,Nusa Tenggara Timur,minor,,
233,Haurpanggung,-7.2056,107.9047,Indonesia,ID,Jawa Barat,minor,,
234,Waibalun,-8.3453,122.9542,Indonesia,ID,Nusa Tenggara Timur,minor,,
235,Waibakul,-9.635556,119.41333300000001,Indonesia,ID,Nusa Tenggara Timur,minor,,
236,Saga,-8.7694,121.7349,Indonesia,ID,Nusa Tenggara Timur,minor,,
237,Pericik,-6.9229,112.0522,Indonesia,ID,Jawa Timur,minor,,
238,Lohayong,-8.4345,123.0688,Indonesia,ID,Nusa Tenggara Timur,minor,,
239,Sempe Atas,-8.6546,117.3629,Indonesia,ID,Nusa Tenggara Barat,minor,,
240,Pasirhuni,-7.0262,106.9887,Indonesia,ID,Jawa Barat,minor,,
241,Tangantangancut,3.6876,96.8896,Indonesia,ID,Aceh,minor,,
242,Tembol,-6.3221,105.8427,Indonesia,ID,Banten,minor,,
243,Panolan,-7.2246,111.5334,Indonesia,ID,Jawa Tengah,minor,,
244,Betangan,-6.8945,113.8033,Indonesia,ID,Jawa Timur,minor,,
245,Daja,-6.9188,113.8132,Indonesia,ID,Jawa Timur,minor,,
246,Sendung,-8.0272,111.8611,Indonesia,ID,Jawa Timur,minor,,
247,Santosa,-7.2537,107.6388,Indonesia,ID,Jawa Barat,minor,,
248,Sukasirna,-7.3548,107.037,Indonesia,ID,Jawa Barat,minor,,
249,Tugu,-7.2604,107.0551,Indonesia,ID,Jawa Barat,minor,,
250,Cigintung,-7.3743,108.8043,Indonesia,ID,Jawa Tengah,minor,,
251,Dangkah,-6.9078,113.0641,Indonesia,ID,Jawa Timur,minor,,
252,Tracal,-6.9824,112.3381,Indonesia,ID,Jawa Timur,minor,,
253,Lhokkruet,4.8797,95.40100000000001,Indonesia,ID,Aceh,minor,,
254,Kayuaru,-6.9132,115.55799999999999,Indonesia,ID,Jawa Timur,minor,,
255,Krajan,-8.118611,111.03,Indonesia,ID,Jawa Timur,minor,,
256,Meluwiting,-8.2415,123.7464,Indonesia,ID,Nusa Tenggara Timur,minor,,
257,Pagerageung,-7.1124,108.1668,Indonesia,ID,Jawa Barat,minor,,
258,Banjar,-8.0781,111.6781,Indonesia,ID,Jawa Timur,minor,,
259,Karanggintung,-7.4579,108.859,Indonesia,ID,Jawa Tengah,minor,,
260,Sanggrahan Kidul,-8.1207,111.9147,Indonesia,ID,Jawa Timur,minor,,
261,Pucung Kidul,-8.1208,111.904,Indonesia,ID,Jawa Timur,minor,,
262,Blimbing,-8.1238,111.8841,Indonesia,ID,Jawa Timur,minor,,
263,Genting,-8.1191,111.8844,Indonesia,ID,Jawa Timur,minor,,
264,Waimangura,-9.5098,119.2377,Indonesia,ID,Nusa Tenggara Timur,minor,,
265,Talegong Dua,-7.2997,107.5119,Indonesia,ID,Jawa Barat,minor,,
266,Kudang,-7.2175,107.9279,Indonesia,ID,Jawa Barat,minor,,
267,Tanahwulan,-8.0293,113.7592,Indonesia,ID,Jawa Timur,minor,,
268,Penanggungan,-8.0189,113.7785,Indonesia,ID,Jawa Timur,minor,,
269,Gambangan,-8.0322,113.7689,Indonesia,ID,Jawa Timur,minor,,
270,Pujerbaru,-8.0322,113.7621,Indonesia,ID,Jawa Timur,minor,,
271,Fatupael,-9.7054,123.9555,Indonesia,ID,Nusa Tenggara Timur,minor,,
272,Leloboko,-9.7008,123.9288,Indonesia,ID,Nusa Tenggara Timur,minor,,
273,Geritan,-6.7522,111.0604,Indonesia,ID,Jawa Tengah,minor,,
274,Mademang,-8.384756,124.834595,Indonesia,ID,Nusa Tenggara Timur,minor,,
275,Neob,-9.6086,124.5978,Indonesia,ID,Nusa Tenggara Timur,minor,,
276,Pelau,-3.520396,128.46810200000002,Indonesia,ID,Maluku,minor,,
277,Dungkek,-6.9779,114.0948,Indonesia,ID,Jawa Timur,minor,,
278,Sudo,-6.7881,111.3243,Indonesia,ID,Jawa Tengah,minor,,
279,Bate,-6.9954,111.6874,Indonesia,ID,Jawa Timur,minor,,
280,Margasarihilir,-2.8266,115.0066,Indonesia,ID,Kalimantan Selatan,minor,,
281,Kebasen,-7.533333,109.199722,Indonesia,ID,Jawa Tengah,minor,,
282,Fatuhilik,-9.8038,124.6041,Indonesia,ID,Nusa Tenggara Timur,minor,,
283,Tarebung,-7.0963,114.2781,Indonesia,ID,Jawa Timur,minor,,
284,Panututan,-7.341,108.2088,Indonesia,ID,Jawa Barat,minor,,
285,Trogan Barat,-6.9237,112.8607,Indonesia,ID,Jawa Timur,minor,,
286,Jajar,-8.0727,112.2956,Indonesia,ID,Jawa Timur,minor,,
287,Kotes,-8.056372,112.28481699999999,Indonesia,ID,Jawa Timur,minor,,
288,Sanan,-8.0675,112.2832,Indonesia,ID,Jawa Timur,minor,,
289,Telagalangsat,-2.7908,115.5643,Indonesia,ID,Kalimantan Selatan,minor,,
290,Nangerang,-7.1103,106.7991,Indonesia,ID,Jawa Barat,minor,,
291,Jambul,-7.218630999999999,113.530612,Indonesia,ID,Jawa Timur,minor,,
292,Sukasenang,-7.5477,108.2173,Indonesia,ID,Jawa Barat,minor,,
293,Nebe,-8.4741,122.5615,Indonesia,ID,Nusa Tenggara Timur,minor,,
294,Sidorejo,-6.7675,111.4741,Indonesia,ID,Jawa Tengah,minor,,
295,Nuamuri,-8.5871,121.8612,Indonesia,ID,Nusa Tenggara Timur,minor,,
296,Banggai,-1.5887,123.4992,Indonesia,ID,Sulawesi Tengah,minor,,
297,Purorejo,-8.3041,112.9473,Indonesia,ID,Jawa Timur,minor,,
298,Karangbayat,-8.104,113.42,Indonesia,ID,Jawa Timur,minor,,
299,Pamoyanan,-7.1403,106.7783,Indonesia,ID,Jawa Barat,minor,,
300,Siumate,-9.8415,123.6933,Indonesia,ID,Nusa Tenggara Timur,minor,,
301,Lintongnihuta,2.276,98.866,Indonesia,ID,Sumatera Utara,minor,,
302,Ciboleger,-6.5944,106.2255,Indonesia,ID,Banten,minor,,
303,Kefamenanu,-9.446667,124.47805600000001,Indonesia,ID,Nusa Tenggara Timur,minor,,
304,Kotablolong,-8.2994,123.2655,Indonesia,ID,Nusa Tenggara Timur,minor,,
305,Ketanggi,-7.0156,111.3162,Indonesia,ID,Jawa Tengah,minor,,
306,Lewoblolong,-8.3151,123.2788,Indonesia,ID,Nusa Tenggara Timur,minor,,
307,Lobuk,-6.8943,113.1236,Indonesia,ID,Jawa Timur,minor,,
308,Citalahab,-6.3752,106.1019,Indonesia,ID,Banten,minor,,
309,Kloangrotat,-8.6793,122.3355,Indonesia,ID,Nusa Tenggara Timur,minor,,
310,Poja,-6.962000000000001,114.0351,Indonesia,ID,Jawa Timur,minor,,
311,Balokang,-7.3665,108.4852,Indonesia,ID,Jawa Barat,minor,,
312,Balong,-6.8381,111.1714,Indonesia,ID,Jawa Tengah,minor,,
313,Brongkah,-8.1141,111.7762,Indonesia,ID,Jawa Timur,minor,,
314,Camming,-4.8118,120.0771,Indonesia,ID,Sulawesi Selatan,minor,,
315,Mulia,-3.714722,137.985278,Indonesia,ID,Papua,minor,,
316,Krajan Senepo,-8.0435,111.3934,Indonesia,ID,Jawa Timur,minor,,
317,Ciranca,-7.6614,108.3254,Indonesia,ID,Jawa Barat,minor,,
318,Cikawung,-7.6764,108.311,Indonesia,ID,Jawa Barat,minor,,
319,Ketahun,-3.3897,101.8352,Indonesia,ID,Bengkulu,minor,,
320,Mekarsari,-7.6682,108.3375,Indonesia,ID,Jawa Barat,minor,,
321,Timurleke,-7.037000000000001,113.6765,Indonesia,ID,Jawa Timur,minor,,
322,Pendok,-6.6313,111.52799999999999,Indonesia,ID,Jawa Tengah,minor,,
323,Wolobela,-8.7375,121.9543,Indonesia,ID,Nusa Tenggara Timur,minor,,
324,Winduasri,-7.1385,108.7327,Indonesia,ID,Jawa Tengah,minor,,
325,Nglongsor,-8.0471,111.6623,Indonesia,ID,Jawa Timur,minor,,
326,Labala,-8.5147,123.4912,Indonesia,ID,Nusa Tenggara Timur,minor,,
327,Kroyo,-8.1784,111.7824,Indonesia,ID,Jawa Timur,minor,,
328,Cigaber,-6.799971,106.109829,Indonesia,ID,Banten,minor,,
329,Cidima,-6.593,106.0399,Indonesia,ID,Banten,minor,,
330,Ciemas,-7.2333,106.5198,Indonesia,ID,Jawa Barat,minor,,
331,Ciawitali,-7.3837,108.0618,Indonesia,ID,Jawa Barat,minor,,
332,Pranti,-6.7611,111.355,Indonesia,ID,Jawa Tengah,minor,,
333,Seren Barat,-6.7591,111.3313,Indonesia,ID,Jawa Tengah,minor,,
334,Legok,-6.7611,111.3134,Indonesia,ID,Jawa Tengah,minor,,
335,Hueknutu,-9.8576,124.0216,Indonesia,ID,Nusa Tenggara Timur,minor,,
336,Gondang,-8.0312,111.5606,Indonesia,ID,Jawa Timur,minor,,
337,Gandoang,-7.1668,108.8436,Indonesia,ID,Jawa Tengah,minor,,
338,Mboto,-8.0908,112.5687,Indonesia,ID,Jawa Timur,minor,,
339,Ngasem,-8.0955,112.5588,Indonesia,ID,Jawa Timur,minor,,
340,Kesamben,-8.0637,112.5669,Indonesia,ID,Jawa Timur,minor,,
341,Biting,-8.5966,120.6341,Indonesia,ID,Nusa Tenggara Timur,minor,,
342,Pepe,-7.4024,112.7692,Indonesia,ID,Jawa Timur,minor,,
343,Kawitan,-7.5107,108.2701,Indonesia,ID,Jawa Barat,minor,,
344,Tista,-8.3525,114.9211,Indonesia,ID,Bali,minor,,
345,Karanggeneng,-6.9897,112.3738,Indonesia,ID,Jawa Timur,minor,,
346,Asahbadung,-8.3278,114.9055,Indonesia,ID,Bali,minor,,
347,Gunungputri,-6.3606,106.0937,Indonesia,ID,Banten,minor,,
348,Duko,-7.0489999999999995,113.6889,Indonesia,ID,Jawa Timur,minor,,
349,Masjid,-7.0412,113.6863,Indonesia,ID,Jawa Timur,minor,,
350,Konkokon,-7.0361,113.6851,Indonesia,ID,Jawa Timur,minor,,
351,Sumberkindagan,-7.0621,113.6886,Indonesia,ID,Jawa Timur,minor,,
352,Popnam,-9.6248,124.5315,Indonesia,ID,Nusa Tenggara Timur,minor,,
353,Pringgabaya,-8.557,116.6319,Indonesia,ID,Nusa Tenggara Barat,minor,,
354,Lantoka,-8.258,124.9326,Indonesia,ID,Nusa Tenggara Timur,minor,,
355,Sedatiagung,-7.381944,112.75805600000001,Indonesia,ID,Jawa Timur,minor,,
356,Lato,-8.3677,122.7584,Indonesia,ID,Nusa Tenggara Timur,minor,,
357,Depapre,-2.4869,140.3711,Indonesia,ID,Papua,minor,,
358,Denpasar,-8.65,115.21666699999999,Indonesia,ID,Bali,admin,,
359,Bofuer,-3.0114,133.7626,Indonesia,ID,Papua Barat,minor,,
360,Sidamukti,-6.487012,105.803251,Indonesia,ID,Banten,minor,,
361,Ngebruk,-8.1504,112.5165,Indonesia,ID,Jawa Timur,minor,,
362,Karangpawitan,-7.2061,107.9456,Indonesia,ID,Jawa Barat,minor,,
363,Modosinal,-10.7949,122.9617,Indonesia,ID,Nusa Tenggara Timur,minor,,
364,Sulahan,-8.421,115.3479,Indonesia,ID,Bali,minor,,
365,Kajeung,4.513854,96.132441,Indonesia,ID,Aceh,minor,,
366,Karanglincak,-6.7014,111.6282,Indonesia,ID,Jawa Tengah,minor,,
367,Karangharjo,-6.6994,111.6254,Indonesia,ID,Jawa Tengah,minor,,
368,Sitirejo,-6.9113,111.4339,Indonesia,ID,Jawa Tengah,minor,,
369,Krajan Lodan Kulon,-6.7841,111.6066,Indonesia,ID,Jawa Tengah,minor,,
370,Talagabakti,-6.2081,106.0093,Indonesia,ID,Banten,minor,,
371,Argasari,-7.3247,108.2057,Indonesia,ID,Jawa Barat,minor,,
372,Blaloudeng,-8.3992,122.7892,Indonesia,ID,Nusa Tenggara Timur,minor,,
373,Gedangan,-8.0112,112.5849,Indonesia,ID,Jawa Timur,minor,,
374,Hobonio,-8.7867,121.1256,Indonesia,ID,Nusa Tenggara Timur,minor,,
375,Salakan Lor,-8.157,111.9935,Indonesia,ID,Jawa Timur,minor,,
376,Pakkat,2.1524,98.4745,Indonesia,ID,Sumatera Utara,minor,,
377,Brandil,-8.1454,111.9562,Indonesia,ID,Jawa Timur,minor,,
378,Tunggangri,-8.1491,111.9656,Indonesia,ID,Jawa Timur,minor,,
379,Pancanagara,-6.1919,106.0877,Indonesia,ID,Banten,minor,,
380,Pasirreungit,-7.0097,107.0098,Indonesia,ID,Jawa Barat,minor,,
381,Lerahinga,-8.369,123.5545,Indonesia,ID,Nusa Tenggara Timur,minor,,
382,Warungjarak,-7.262709,108.373811,Indonesia,ID,Jawa Barat,minor,,
383,Kanugrahan,-8.0503,111.8995,Indonesia,ID,Jawa Timur,minor,,
384,Bunder,-7.186700999999999,113.52967199999999,Indonesia,ID,Jawa Timur,minor,,
385,Kablukan,-6.9845,111.7096,Indonesia,ID,Jawa Timur,minor,,
386,Ngrojo,-6.9817,111.7169,Indonesia,ID,Jawa Timur,minor,,
387,Talok,-6.9775,111.7107,Indonesia,ID,Jawa Timur,minor,,
388,Kedungharjo,-6.9777,111.723,Indonesia,ID,Jawa Timur,minor,,
389,Krajan Weden,-6.9797,111.7223,Indonesia,ID,Jawa Timur,minor,,
390,Tegalarum,-6.6103,111.01100000000001,Indonesia,ID,Jawa Tengah,minor,,
391,Long Beluah,2.759923,117.08904799999999,Indonesia,ID,Kalimantan Utara,minor,,
392,Robatal,-7.0009,113.28,Indonesia,ID,Jawa Timur,minor,,
393,Ancol,-7.4599,107.9856,Indonesia,ID,Jawa Barat,minor,,
394,Fatukoa,-10.2315,123.6069,Indonesia,ID,Nusa Tenggara Timur,minor,,
395,Sowa,-8.375094,118.690087,Indonesia,ID,Nusa Tenggara Barat,minor,,
396,Sodong Hilir,-7.4894,108.0514,Indonesia,ID,Jawa Barat,minor,,
397,Surabaya,-7.0259,108.0209,Indonesia,ID,Jawa Barat,minor,,
398,Ciloa,-7.021,108.0261,Indonesia,ID,Jawa Barat,minor,,
399,Krajan A Wonorejo,-8.2864,113.3819,Indonesia,ID,Jawa Timur,minor,,
400,Ngusu,-8.7065,120.6769,Indonesia,ID,Nusa Tenggara Timur,minor,,
401,Batuputih Atas,-6.8745,115.3704,Indonesia,ID,Jawa Timur,minor,,
402,Kalibaru,-8.2897,113.9859,Indonesia,ID,Jawa Timur,minor,,
403,Makam,-8.0033,113.2154,Indonesia,ID,Jawa Timur,minor,,
404,Kadumelati,-6.5056,105.9212,Indonesia,ID,Banten,minor,,
405,Krajan Satu,-8.2072,114.3563,Indonesia,ID,Jawa Timur,minor,,
406,Muara Enim,-3.6486,103.771,Indonesia,ID,Sumatera Selatan,minor,,
407,Boganatar,-8.5043,122.6405,Indonesia,ID,Nusa Tenggara Timur,minor,,
408,Waiklibang,-8.1745,122.8955,Indonesia,ID,Nusa Tenggara Timur,minor,,
409,Oele,-10.7852,123.1593,Indonesia,ID,Nusa Tenggara Timur,minor,,
410,Tanggulangin,-8.085,111.9257,Indonesia,ID,Jawa Timur,minor,,
411,Sadar,-8.0906,111.9522,Indonesia,ID,Jawa Timur,minor,,
412,Bendilmuning,-8.0925,111.9417,Indonesia,ID,Jawa Timur,minor,,
413,Panyaungan Timur,-6.901401,106.153585,Indonesia,ID,Banten,minor,,
414,Pagersari,-8.1626,111.9239,Indonesia,ID,Jawa Timur,minor,,
415,Pelem,-8.1581,111.8818,Indonesia,ID,Jawa Timur,minor,,
416,Cigaru,-7.0988,106.5953,Indonesia,ID,Jawa Barat,minor,,
417,Montongtebolak,-8.7261,116.4644,Indonesia,ID,Nusa Tenggara Barat,minor,,
418,Semilat,-2.3077,112.2118,Indonesia,ID,Kalimantan Tengah,minor,,
419,Tabrik,-7.361000000000001,108.1371,Indonesia,ID,Jawa Barat,minor,,
420,Blokdesa Situgede,-7.1053,108.557,Indonesia,ID,Jawa Barat,minor,,
421,Watodei,-8.3381,123.098,Indonesia,ID,Nusa Tenggara Timur,minor,,
422,Cisodong,-7.6887,108.3782,Indonesia,ID,Jawa Barat,minor,,
423,Doko,-8.0816,112.3729,Indonesia,ID,Jawa Timur,minor,,
424,Sodo,-8.166131,111.825484,Indonesia,ID,Jawa Timur,minor,,
425,Gebang,-8.1761,111.8169,Indonesia,ID,Jawa Timur,minor,,
426,Krenggan,-8.1659,111.8378,Indonesia,ID,Jawa Timur,minor,,
427,Pepayan,-7.3669,108.0221,Indonesia,ID,Jawa Barat,minor,,
428,Pasir Panjang,2.674547,98.000569,Indonesia,ID,Aceh,minor,,
429,Krajan Tugurejo,-8.0361,111.3893,Indonesia,ID,Jawa Timur,minor,,
430,Cicurug,-7.2681,108.1382,Indonesia,ID,Jawa Barat,minor,,
431,Minggirsari Dua,-8.142000000000001,112.1697,Indonesia,ID,Jawa Timur,minor,,
432,Duren,-8.1213,112.2828,Indonesia,ID,Jawa Timur,minor,,
433,Jeblog Satu,-8.1186,112.2625,Indonesia,ID,Jawa Timur,minor,,
434,Tumpang,-8.1227,112.2541,Indonesia,ID,Jawa Timur,minor,,
435,Bendosewu,-8.1198,112.2726,Indonesia,ID,Jawa Timur,minor,,
436,Wonorejo Dua,-8.1136,112.2869,Indonesia,ID,Jawa Timur,minor,,
437,Pasirkadu,-6.5154,105.853,Indonesia,ID,Banten,minor,,
438,Wori,1.597137,124.852461,Indonesia,ID,Sulawesi Utara,minor,,
439,Ngalupolo,-8.8716,121.7352,Indonesia,ID,Nusa Tenggara Timur,minor,,
440,Temayang,-6.9039,111.8897,Indonesia,ID,Jawa Timur,minor,,
441,Banyudono,-6.6999,111.3094,Indonesia,ID,Jawa Tengah,minor,,
442,Kabongan Lor,-6.7052,111.35700000000001,Indonesia,ID,Jawa Tengah,minor,,
443,Tireman Timur,-6.7058,111.3717,Indonesia,ID,Jawa Tengah,minor,,
444,Kasingan,-6.707000000000001,111.352,Indonesia,ID,Jawa Tengah,minor,,
445,Gedong Tataan,-5.3827,105.0955,Indonesia,ID,Lampung,minor,,
446,Ciulu,-7.513,108.6537,Indonesia,ID,Jawa Barat,minor,,
447,Purwodadi,-7.602,108.76100000000001,Indonesia,ID,Jawa Tengah,minor,,
448,Ullong,-1.370833,133.913056,Indonesia,ID,Papua Barat,minor,,
449,Krajan Petung,-8.1964,111.5622,Indonesia,ID,Jawa Timur,minor,,
450,Cicayur,-7.2864,107.8196,Indonesia,ID,Jawa Barat,minor,,
451,Sangatta,0.5049,117.5279,Indonesia,ID,Kalimantan Timur,minor,,
452,Gangseyan,-6.9427,112.946,Indonesia,ID,Jawa Timur,minor,,
453,Cikuya,-7.6288,108.3752,Indonesia,ID,Jawa Barat,minor,,
454,Kulonkali,-6.9904,111.3746,Indonesia,ID,Jawa Tengah,minor,,
455,Cikole Hilir,-7.1679,107.9786,Indonesia,ID,Jawa Barat,minor,,
456,Karang Lor,-6.9203,112.1707,Indonesia,ID,Jawa Timur,minor,,
457,Sumberjo,-6.9977,112.1668,Indonesia,ID,Jawa Timur,minor,,
458,Wangun,-6.928999999999999,112.1663,Indonesia,ID,Jawa Timur,minor,,
459,Pliwetan,-6.9042,112.1716,Indonesia,ID,Jawa Timur,minor,,
460,Meraran,-8.6882,116.8493,Indonesia,ID,Nusa Tenggara Barat,minor,,
461,Seteluk Tengah,-8.6263,116.8641,Indonesia,ID,Nusa Tenggara Barat,minor,,
462,Bara Datu,-4.744226,104.496403,Indonesia,ID,Lampung,minor,,
463,Sukodono,-6.9586,112.4567,Indonesia,ID,Jawa Timur,minor,,
464,Serah,-6.949,112.4439,Indonesia,ID,Jawa Timur,minor,,
465,Sumurber,-6.9495,112.4288,Indonesia,ID,Jawa Timur,minor,,
466,Gampeng,-6.9365,112.45299999999999,Indonesia,ID,Jawa Timur,minor,,
467,Bangunrejo,-5.1075800000000005,105.07656000000001,Indonesia,ID,Lampung,minor,,
468,Ringinsari Krajan,-8.2773,112.6755,Indonesia,ID,Jawa Timur,minor,,
469,Grujugan,-7.127899,113.53838300000001,Indonesia,ID,Jawa Timur,minor,,
470,Benger,-6.7358,105.8433,Indonesia,ID,Banten,minor,,
471,Paas Girang,-7.6489,107.7413,Indonesia,ID,Jawa Barat,minor,,
472,Batur Kidul,-6.7571,111.13600000000001,Indonesia,ID,Jawa Tengah,minor,,
473,Tunis,-9.76,124.6056,Indonesia,ID,Nusa Tenggara Timur,minor,,
474,Banjar Bunutpanggang,-8.165564,115.01942700000001,Indonesia,ID,Bali,minor,,
475,Klemunan,-8.0984,112.3341,Indonesia,ID,Jawa Timur,minor,,
476,Sinagar,-7.5774,108.3241,Indonesia,ID,Jawa Barat,minor,,
477,Tarogong,-6.3929,105.8391,Indonesia,ID,Banten,minor,,
478,Liang,-8.8601,116.8293,Indonesia,ID,Nusa Tenggara Barat,minor,,
479,Jereweh,-8.8571,116.8234,Indonesia,ID,Nusa Tenggara Barat,minor,,
480,Desa Nasol,-7.2815,108.2903,Indonesia,ID,Jawa Barat,minor,,
481,Cileutik,-7.3091,106.8375,Indonesia,ID,Jawa Barat,minor,,
482,Ciemas Satu,-7.1439,106.5431,Indonesia,ID,Jawa Barat,minor,,
483,Lawonda,-9.5252,119.5923,Indonesia,ID,Nusa Tenggara Timur,minor,,
484,Recobanteng,-8.198619,113.216958,Indonesia,ID,Jawa Timur,minor,,
485,Krajan,-8.1953,113.1997,Indonesia,ID,Jawa Timur,minor,,
486,Siulakderasmudik,-1.9067,101.2303,Indonesia,ID,Jambi,minor,,
487,Oinao,-8.5773,118.8274,Indonesia,ID,Nusa Tenggara Barat,minor,,
488,Karanggeneng,-6.7023,111.3296,Indonesia,ID,Jawa Tengah,minor,,
489,Balemoyan,-7.3174,107.9452,Indonesia,ID,Jawa Barat,minor,,
490,Muaracikadu,-7.4217,107.1546,Indonesia,ID,Jawa Barat,minor,,
491,Muara Dua,-4.531781,104.07396800000001,Indonesia,ID,Sumatera Selatan,minor,,
492,Oebelo,-10.1098,123.7534,Indonesia,ID,Nusa Tenggara Timur,minor,,
493,Batukarut,-7.1366,107.9713,Indonesia,ID,Jawa Barat,minor,,
494,Ciparay,-7.2968,106.6121,Indonesia,ID,Jawa Barat,minor,,
495,Sananrejo,-8.148977,112.71758100000001,Indonesia,ID,Jawa Timur,minor,,
496,Tumpukrenteng,-8.1305,112.6945,Indonesia,ID,Jawa Timur,minor,,
497,Sudimoro,-8.1237,112.6731,Indonesia,ID,Jawa Timur,minor,,
498,Cimoyan,-6.4707,105.8875,Indonesia,ID,Banten,minor,,
499,Krajan,-8.0291,113.23299999999999,Indonesia,ID,Jawa Timur,minor,,
500,Londe,-8.606214,121.728559,Indonesia,ID,Nusa Tenggara Timur,minor,,
501,Wolomuku,-8.6042,121.74041499999998,Indonesia,ID,Nusa Tenggara Timur,minor,,
502,Karangpeton,-8.1246,113.7813,Indonesia,ID,Jawa Timur,minor,,
503,Biting,-8.1184,113.7617,Indonesia,ID,Jawa Timur,minor,,
504,Tobitambor,-8.246367,124.22039099999999,Indonesia,ID,Nusa Tenggara Timur,minor,,
505,Daleman,-7.0920000000000005,114.323,Indonesia,ID,Jawa Timur,minor,,
506,Wakaf,-6.8352,115.3419,Indonesia,ID,Jawa Timur,minor,,
507,Karangsalam,-7.4428,108.8275,Indonesia,ID,Jawa Tengah,minor,,
508,Ciawitali,-7.423027,107.368113,Indonesia,ID,Jawa Barat,minor,,
509,Singgit,-8.1542,111.7757,Indonesia,ID,Jawa Timur,minor,,
510,Dompyong,-8.2165,113.1426,Indonesia,ID,Jawa Timur,minor,,
511,Argotirto Krajan,-8.2885,112.6884,Indonesia,ID,Jawa Timur,minor,,
512,Sumbermanjing Krajan,-8.2604,112.6858,Indonesia,ID,Jawa Timur,minor,,
513,Kudus,-6.8048,110.8405,Indonesia,ID,Jawa Tengah,minor,,
514,Nunbaundelha,-10.172,123.5698,Indonesia,ID,Nusa Tenggara Timur,minor,,
515,Tungguwaneng,-8.4465,121.1364,Indonesia,ID,Nusa Tenggara Timur,minor,,
516,Temana,-6.8894,113.045,Indonesia,ID,Jawa Timur,minor,,
517,Jatirejo,-8.1273,112.4889,Indonesia,ID,Jawa Timur,minor,,
518,Babakan,-7.0915,108.4328,Indonesia,ID,Jawa Barat,minor,,
519,Jeneponto,-5.6765,119.7484,Indonesia,ID,Sulawesi Selatan,minor,,
520,Jenggawah,-8.2661,113.6479,Indonesia,ID,Jawa Timur,minor,,
521,Baratan,-8.1348,113.7304,Indonesia,ID,Jawa Timur,minor,,
522,Stasiun,-8.0413,113.2789,Indonesia,ID,Jawa Timur,minor,,
523,Kromot,-8.043,113.3029,Indonesia,ID,Jawa Timur,minor,,
524,Cipicung,-7.505,108.3008,Indonesia,ID,Jawa Barat,minor,,
525,Mombok,-8.5271,120.7293,Indonesia,ID,Nusa Tenggara Timur,minor,,
526,Poto,-9.905,124.5771,Indonesia,ID,Nusa Tenggara Timur,minor,,
527,Manola,-9.5639,119.2014,Indonesia,ID,Nusa Tenggara Timur,minor,,
528,Kabandang,-9.7448,120.2511,Indonesia,ID,Nusa Tenggara Timur,minor,,
529,Dikir,-6.8692,111.7784,Indonesia,ID,Jawa Timur,minor,,
530,Kokar,-8.1629,124.4473,Indonesia,ID,Nusa Tenggara Timur,minor,,
531,Cikole,-7.4892,107.277,Indonesia,ID,Jawa Barat,minor,,
532,Ngrejeng,-7.2174,111.7076,Indonesia,ID,Jawa Timur,minor,,
533,Tlatah,-7.2122,111.7011,Indonesia,ID,Jawa Timur,minor,,
534,Lengor,-6.2279,106.11,Indonesia,ID,Banten,minor,,
535,Pejukutan,-8.7493,115.5858,Indonesia,ID,Bali,minor,,
536,Karangduren Dua,-8.2717,113.4939,Indonesia,ID,Jawa Timur,minor,,
537,Mbueaian,-10.807,122.8295,Indonesia,ID,Nusa Tenggara Timur,minor,,
538,Borong,-8.8125,120.60972199999999,Indonesia,ID,Nusa Tenggara Timur,minor,,
539,Lemahputih,-7.0099,108.1698,Indonesia,ID,Jawa Barat,minor,,
540,Babakanbandung,-7.096,107.0267,Indonesia,ID,Jawa Barat,minor,,
541,Kawali,-7.1854,108.3704,Indonesia,ID,Jawa Barat,minor,,
542,Ranambeling,-8.6595,120.7129,Indonesia,ID,Nusa Tenggara Timur,minor,,
543,Pejek,-8.6461,120.7225,Indonesia,ID,Nusa Tenggara Timur,minor,,
544,Dalo,-8.6593,120.6965,Indonesia,ID,Nusa Tenggara Timur,minor,,
545,Kotabunan,0.812171,124.655455,Indonesia,ID,Sulawesi Utara,minor,,
546,Kotabumi,-4.825054,104.881697,Indonesia,ID,Lampung,minor,,
547,Daik Lingga,-0.21451399999999998,104.618243,Indonesia,ID,Kepulauan Riau,minor,,
548,Cimarga,-7.4498,108.4652,Indonesia,ID,Jawa Barat,minor,,
549,Golong,-6.5567,111.0159,Indonesia,ID,Jawa Tengah,minor,,
550,Sidomulyo,-8.0636,112.6429,Indonesia,ID,Jawa Timur,minor,,
551,Lobuk,-7.1289,113.8187,Indonesia,ID,Jawa Timur,minor,,
552,Kradenan,-6.7669,111.7095,Indonesia,ID,Jawa Timur,minor,,
553,Banjarjo,-6.7727,111.7257,Indonesia,ID,Jawa Timur,minor,,
554,Krajan,-8.3125,114.1998,Indonesia,ID,Jawa Timur,minor,,
555,Bantilan,-6.8363,115.3741,Indonesia,ID,Jawa Timur,minor,,
556,Kelapalima,-10.1499,123.6194,Indonesia,ID,Nusa Tenggara Timur,minor,,
557,Pocok,-7.0979,114.3642,Indonesia,ID,Jawa Timur,minor,,
558,Kemuning,-7.0934,114.3353,Indonesia,ID,Jawa Timur,minor,,
559,Krajan Pucanganak,-8.0267,111.6102,Indonesia,ID,Jawa Timur,minor,,
560,Tawingmuara,-6.1637,105.8548,Indonesia,ID,Banten,minor,,
561,Galuk,-7.1097,111.4871,Indonesia,ID,Jawa Tengah,minor,,
562,Oekero,-10.1557,124.0498,Indonesia,ID,Nusa Tenggara Timur,minor,,
563,Jatipamor,-7.0028,108.329,Indonesia,ID,Jawa Barat,minor,,
564,Nangalili,-8.7765,120.131,Indonesia,ID,Nusa Tenggara Timur,minor,,
565,Tlutup,-6.6492,111.0889,Indonesia,ID,Jawa Tengah,minor,,
566,Sikluk,-7.1258,107.9603,Indonesia,ID,Jawa Barat,minor,,
567,Kupel,-7.0760000000000005,107.1737,Indonesia,ID,Jawa Barat,minor,,
568,Walagar,-7.3528,108.2886,Indonesia,ID,Jawa Barat,minor,,
569,Keden,-8.0347,112.7419,Indonesia,ID,Jawa Timur,minor,,
570,Rambaan,-8.0463,112.6787,Indonesia,ID,Jawa Timur,minor,,
571,Pajaran,-8.0351,112.7174,Indonesia,ID,Jawa Timur,minor,,
572,Kadungabaris,-6.404605999999999,106.08996699999999,Indonesia,ID,Banten,minor,,
573,Selajambe,-7.1181,108.4625,Indonesia,ID,Jawa Barat,minor,,
574,Tanamera,-7.0769,114.3371,Indonesia,ID,Jawa Timur,minor,,
575,Caringin,-7.4546,107.5139,Indonesia,ID,Jawa Barat,minor,,
576,Carita,-6.3178,105.8382,Indonesia,ID,Banten,minor,,
577,Babatan,-7.0016,108.4546,Indonesia,ID,Jawa Barat,minor,,
578,Rappang,-3.8445,119.8173,Indonesia,ID,Sulawesi Selatan,minor,,
579,Tanarara,-9.6336,119.5446,Indonesia,ID,Nusa Tenggara Timur,minor,,
580,Konga,-8.451,122.7756,Indonesia,ID,Nusa Tenggara Timur,minor,,
581,Bolang,-6.7658,105.9928,Indonesia,ID,Banten,minor,,
582,Bulumeduro,-6.7722,111.7303,Indonesia,ID,Jawa Timur,minor,,
583,Ciparay,-6.1326,105.8659,Indonesia,ID,Banten,minor,,
584,Melati,-8.5666,118.9275,Indonesia,ID,Nusa Tenggara Barat,minor,,
585,Toblong,-7.5609,107.9192,Indonesia,ID,Jawa Barat,minor,,
586,Kelabang,-6.7799,111.7274,Indonesia,ID,Jawa Timur,minor,,
587,Kampungbaru,-7.4903,108.1582,Indonesia,ID,Jawa Barat,minor,,
588,Armopa,-2.3409,139.6335,Indonesia,ID,Papua,minor,,
589,Sendang Timur,-7.1173,113.6214,Indonesia,ID,Jawa Timur,minor,,
590,Palalang,-7.0326,113.5735,Indonesia,ID,Jawa Timur,minor,,
591,Panggulan,-7.1188,113.6123,Indonesia,ID,Jawa Timur,minor,,
592,Cibeurih,-6.547999999999999,106.3288,Indonesia,ID,,minor,,
593,Miribanteng,-8.2358,112.0273,Indonesia,ID,Jawa Timur,minor,,
594,Sungaisalak,-0.4381,103.0075,Indonesia,ID,Riau,minor,,
595,Jepuro,-6.728,111.1446,Indonesia,ID,Jawa Tengah,minor,,
596,Kedungpancing,-6.7247,111.1462,Indonesia,ID,Jawa Tengah,minor,,
597,Karangboyo,-6.7316,111.1525,Indonesia,ID,Jawa Tengah,minor,,
598,Kerek,-6.8951,111.8866,Indonesia,ID,Jawa Timur,minor,,
599,Krajan Tengah Sendangmulyo,-6.8531,111.3223,Indonesia,ID,Jawa Tengah,minor,,
600,Krajan Wonokerto,-8.1603,113.2595,Indonesia,ID,Jawa Timur,minor,,
601,Pandansari,-8.1503,113.2509,Indonesia,ID,Jawa Timur,minor,,
602,Bantarsari,-7.2798,108.4978,Indonesia,ID,Jawa Barat,minor,,
603,Pinggan,-6.8488,111.3445,Indonesia,ID,Jawa Tengah,minor,,
604,Ciranca Satu,-7.033287,108.28293400000001,Indonesia,ID,Jawa Barat,minor,,
605,Bebae,-8.6898,116.5506,Indonesia,ID,Nusa Tenggara Barat,minor,,
606,Ciguha Tengah,-7.111000000000001,107.0554,Indonesia,ID,Jawa Barat,minor,,
607,Terara,-8.6409,116.411,Indonesia,ID,Nusa Tenggara Barat,minor,,
608,Melahue,-9.752163000000001,124.41004299999999,Indonesia,ID,Nusa Tenggara Timur,minor,,
609,Ahadan,-6.9975,113.9426,Indonesia,ID,Jawa Timur,minor,,
610,Kramat,-6.9974,113.9399,Indonesia,ID,Jawa Timur,minor,,
611,Temenggungan,-8.1041,111.8657,Indonesia,ID,Jawa Timur,minor,,
612,Kendal,-8.1099,111.8483,Indonesia,ID,Jawa Timur,minor,,
613,Gempolan Wetan,-8.1145,111.8582,Indonesia,ID,Jawa Timur,minor,,
614,Genting,-8.1165,111.8747,Indonesia,ID,Jawa Timur,minor,,
615,Karangturi,-8.2776,111.5811,Indonesia,ID,Jawa Timur,minor,,
616,Dajalorong,-6.9964,113.9329,Indonesia,ID,Jawa Timur,minor,,
617,Banjar Geriana Kangin,-8.4335,115.5012,Indonesia,ID,Bali,minor,,
618,Babakansalam,-7.502044000000001,107.62535700000001,Indonesia,ID,Jawa Barat,minor,,
619,Rejasa Kaja,-8.4609,115.1173,Indonesia,ID,Bali,minor,,
620,Nunbaki,-9.8481,124.1668,Indonesia,ID,Nusa Tenggara Timur,minor,,
621,Edo,-8.3098,121.7277,Indonesia,ID,Nusa Tenggara Timur,minor,,
622,Cipadung Timur,-7.3594,108.5414,Indonesia,ID,Jawa Barat,minor,,
623,Cisolok,-6.9482,106.4498,Indonesia,ID,Jawa Barat,minor,,
624,Madur,-7.5812,108.1311,Indonesia,ID,Jawa Barat,minor,,
625,Pusparahayu,-7.4284,108.0593,Indonesia,ID,Jawa Barat,minor,,
626,Nglojo,-6.7501,111.616,Indonesia,ID,Jawa Tengah,minor,,
627,Kuncen,-6.8983,112.0707,Indonesia,ID,Jawa Timur,minor,,
628,Naip,-10.0382,124.3427,Indonesia,ID,Nusa Tenggara Timur,minor,,
629,Panyambungan,0.8651,99.5528,Indonesia,ID,Sumatera Utara,minor,,
630,Sambong,-6.6952,111.4348,Indonesia,ID,Jawa Tengah,minor,,
631,Tritunggal,-6.6977,111.3969,Indonesia,ID,Jawa Tengah,minor,,
632,Pangkajene,-4.8372,119.5472,Indonesia,ID,Sulawesi Selatan,minor,,
633,Krajan Pangkah Kulon,-6.9158,112.5541,Indonesia,ID,Jawa Timur,minor,,
634,Cikeusik,-6.7282,105.87200000000001,Indonesia,ID,Banten,minor,,
635,Datarnangka,-7.1994,106.848,Indonesia,ID,Jawa Barat,minor,,
636,Kahabe,-10.5676,121.9306,Indonesia,ID,Nusa Tenggara Timur,minor,,
637,Curug,-6.7616,105.7639,Indonesia,ID,Banten,minor,,
638,Selajambe Satu,-7.1185,108.4608,Indonesia,ID,Jawa Barat,minor,,
639,Cikawunggading,-7.7701,108.1017,Indonesia,ID,Jawa Barat,minor,,
640,Cilimus,-7.1096,108.46600000000001,Indonesia,ID,Jawa Barat,minor,,
641,Harapan Jaya,3.8747230000000004,108.303055,Indonesia,ID,Kepulauan Riau,minor,,
642,Cibongkok,-7.3883,108.0178,Indonesia,ID,Jawa Barat,minor,,
643,Laimuda,-9.9866,120.3316,Indonesia,ID,Nusa Tenggara Timur,minor,,
644,Oitui,-8.3331,118.9782,Indonesia,ID,Nusa Tenggara Barat,minor,,
645,Bantawora,-8.326,118.8938,Indonesia,ID,Nusa Tenggara Barat,minor,,
646,Segaran,-8.241988000000001,112.630696,Indonesia,ID,Jawa Timur,minor,,
647,Gontar,-8.5112,116.9775,Indonesia,ID,Nusa Tenggara Barat,minor,,
648,Kawunglarang,-7.1649,108.4832,Indonesia,ID,Jawa Barat,minor,,
649,Prawira,-8.3611,116.1441,Indonesia,ID,Nusa Tenggara Barat,minor,,
650,Sukasada,-8.1395,115.1031,Indonesia,ID,Bali,minor,,
651,Sukasari,-7.0757,107.8947,Indonesia,ID,Jawa Barat,minor,,
652,Malunda,-3.013,118.8559,Indonesia,ID,Sulawesi Barat,minor,,
653,Tamansari,-8.281,113.7232,Indonesia,ID,Jawa Timur,minor,,
654,Asem,-7.1567,108.1432,Indonesia,ID,Jawa Barat,minor,,
655,Paokmotong Utara,-8.626,116.4585,Indonesia,ID,Nusa Tenggara Barat,minor,,
656,Nagrog,-7.6598,107.9838,Indonesia,ID,Jawa Barat,minor,,
657,Sukahurip,-7.2619,108.2169,Indonesia,ID,Jawa Barat,minor,,
658,Peukanbada,5.536062,95.22840500000001,Indonesia,ID,Aceh,minor,,
659,Sigih,-8.5373,118.8502,Indonesia,ID,Nusa Tenggara Barat,minor,,
660,Cikamurang,-7.4848,107.2429,Indonesia,ID,Jawa Barat,minor,,
661,Sukamulya,-6.8121,105.8874,Indonesia,ID,Banten,minor,,
662,Haumeni,-9.8851,124.6563,Indonesia,ID,Nusa Tenggara Timur,minor,,
663,Krajan,-8.0504,113.2364,Indonesia,ID,Jawa Timur,minor,,
664,Banjar Dauh Peken,-8.5909,115.1427,Indonesia,ID,Bali,minor,,
665,Dangur,-7.3598,108.0836,Indonesia,ID,Jawa Barat,minor,,
666,Banjar Parekan,-8.5763,115.2164,Indonesia,ID,Bali,minor,,
667,Satrejan,-8.1429,112.2206,Indonesia,ID,Jawa Timur,minor,,
668,Jegu,-8.1512,112.2349,Indonesia,ID,Jawa Timur,minor,,
669,Parenca Wetan,-7.0442,108.7293,Indonesia,ID,Jawa Barat,minor,,
670,Cisaat,-7.0351,108.7479,Indonesia,ID,Jawa Barat,minor,,
671,Cirangrang,-7.0376,108.7215,Indonesia,ID,Jawa Barat,minor,,
672,Nangakeo,-8.7946,121.5676,Indonesia,ID,Nusa Tenggara Timur,minor,,
673,Likioen,-10.7484,123.0446,Indonesia,ID,Nusa Tenggara Timur,minor,,
674,Long Pujungan,2.587689,115.794784,Indonesia,ID,Kalimantan Utara,minor,,
675,Keli,-8.3899,118.7992,Indonesia,ID,Nusa Tenggara Barat,minor,,
676,Cempaka,-3.7323470000000003,104.667594,Indonesia,ID,Sumatera Selatan,minor,,
677,Tumenggungan,-7.1147,112.4145,Indonesia,ID,Jawa Timur,minor,,
678,Ngaglik Timur,-7.1183,112.4126,Indonesia,ID,Jawa Timur,minor,,
679,Tanjung,-7.1146,112.3866,Indonesia,ID,Jawa Timur,minor,,
680,Bilo,-7.1114,112.3782,Indonesia,ID,Jawa Timur,minor,,
681,Barisan,-8.1841,112.4251,Indonesia,ID,Jawa Timur,minor,,
682,Kopral,-8.1819,112.4548,Indonesia,ID,Jawa Timur,minor,,
683,Tempeh Tengah,-8.2055,113.1758,Indonesia,ID,Jawa Timur,minor,,
684,Bandungan Timur,-6.9634,113.4884,Indonesia,ID,Jawa Timur,minor,,
685,Negeriagung,-3.787072,103.649459,Indonesia,ID,Sumatera Selatan,minor,,
686,Mandala,-6.9866,113.8753,Indonesia,ID,Jawa Timur,minor,,
687,Bolengpulau,-8.4384,119.9943,Indonesia,ID,Nusa Tenggara Timur,minor,,
688,Tengah,-6.9942,113.5584,Indonesia,ID,Jawa Timur,minor,,
689,Pesanggaran,-8.5703,114.0997,Indonesia,ID,Jawa Timur,minor,,
690,Sudikampir,-7.512778,109.027222,Indonesia,ID,Jawa Tengah,minor,,
691,Ambuten,-6.8885,113.7392,Indonesia,ID,Jawa Timur,minor,,
692,Kaligentong,-8.2282,111.9899,Indonesia,ID,Jawa Timur,minor,,
693,Paringin,-2.3357,115.4749,Indonesia,ID,Kalimantan Selatan,minor,,
694,Sikur,-8.6331,116.4463,Indonesia,ID,Nusa Tenggara Barat,minor,,
695,Tegalgede Kulon,-8.154537,113.72248700000002,Indonesia,ID,Jawa Timur,minor,,
696,Malinau,3.589472,116.624482,Indonesia,ID,Kalimantan Utara,minor,,
697,Karangkancana,-7.0943,108.6575,Indonesia,ID,Jawa Barat,minor,,
698,Gador,-8.0915,111.8103,Indonesia,ID,Jawa Timur,minor,,
699,Kaduagung,-7.0999,108.6572,Indonesia,ID,Jawa Barat,minor,,
700,Cisiih,-6.9066529999999995,106.191125,Indonesia,ID,Banten,minor,,
701,Watuweri,-8.7843,120.4706,Indonesia,ID,Nusa Tenggara Timur,minor,,
702,Pucangan,-8.0384,111.8462,Indonesia,ID,Jawa Timur,minor,,
703,Dersah,-6.7836,111.1564,Indonesia,ID,Jawa Tengah,minor,,
704,Demaan,-6.8072,111.4303,Indonesia,ID,Jawa Tengah,minor,,
705,Kulutan,-6.7996,111.4646,Indonesia,ID,Jawa Tengah,minor,,
706,Jaha,-6.5869,106.4108,Indonesia,ID,Banten,minor,,
707,Leran,-6.6436,111.4712,Indonesia,ID,Jawa Tengah,minor,,
708,Wirotaman,-8.2529,112.8514,Indonesia,ID,Jawa Timur,minor,,
709,Cijemit,-7.0489999999999995,108.4984,Indonesia,ID,Jawa Barat,minor,,
710,Riangpedang,-8.2904,122.8797,Indonesia,ID,Nusa Tenggara Timur,minor,,
711,Rancabungur,-7.4849,108.59200000000001,Indonesia,ID,Jawa Barat,minor,,
712,Siabu,1.015522,99.494525,Indonesia,ID,Sumatera Utara,minor,,
713,Matumadua,-9.389476,119.75370600000001,Indonesia,ID,Nusa Tenggara Timur,minor,,
714,Desakolot,-7.2562,107.89299999999999,Indonesia,ID,Jawa Barat,minor,,
715,Kondangrege,-7.2721,107.89,Indonesia,ID,Jawa Barat,minor,,
716,Lemburwarung,-7.3351,108.2627,Indonesia,ID,Jawa Barat,minor,,
717,Condong,-7.3447,108.2591,Indonesia,ID,Jawa Barat,minor,,
718,Semalang,-8.366,114.2207,Indonesia,ID,Jawa Timur,minor,,
719,Payaman,-8.3561,114.2497,Indonesia,ID,Jawa Timur,minor,,
720,Bayah,-6.9277,106.2547,Indonesia,ID,Banten,minor,,
721,Badur,-6.3805,105.8474,Indonesia,ID,Banten,minor,,
722,Nangtang,-7.3482,107.98700000000001,Indonesia,ID,Jawa Barat,minor,,
723,Nangkaruka,-7.4331,107.6462,Indonesia,ID,Jawa Barat,minor,,
724,Terang,-8.4563,120.0792,Indonesia,ID,Nusa Tenggara Timur,minor,,
725,Kadipaten,-8.1357,113.2158,Indonesia,ID,Jawa Timur,minor,,
726,Tatunggu,-10.1028,120.3294,Indonesia,ID,Nusa Tenggara Timur,minor,,
727,Perjuangan,-8.1379,113.1822,Indonesia,ID,Jawa Timur,minor,,
728,Kembangkerang Lauk Timur,-8.5583,116.5378,Indonesia,ID,Nusa Tenggara Barat,minor,,
729,Lahar,-6.645,110.9935,Indonesia,ID,Jawa Tengah,minor,,
730,Munturkaju,-6.511,106.0243,Indonesia,ID,Banten,minor,,
731,Wargakerta,-7.3838,108.1495,Indonesia,ID,Jawa Barat,minor,,
732,Babakankalong,-7.3825,108.16,Indonesia,ID,Jawa Barat,minor,,
733,Nagrok,-7.3754,108.1646,Indonesia,ID,Jawa Barat,minor,,
734,Purabaya,-7.1001,106.8803,Indonesia,ID,Jawa Barat,minor,,
735,Kadur,-7.093,113.5586,Indonesia,ID,Jawa Timur,minor,,
736,Kanugrahan,-6.992000000000001,112.2987,Indonesia,ID,Jawa Timur,minor,,
737,Pelangwot,-6.9856,112.2793,Indonesia,ID,Jawa Timur,minor,,
738,Ciwaru,-7.0777,108.6278,Indonesia,ID,Jawa Barat,minor,,
739,Bunutan,-8.4649,115.24799999999999,Indonesia,ID,Bali,minor,,
740,Lilin Satu,-8.6193,116.3645,Indonesia,ID,Nusa Tenggara Barat,minor,,
741,Pediti,-8.5878,116.3298,Indonesia,ID,Nusa Tenggara Barat,minor,,
742,Gunung Tua,1.512741,99.626285,Indonesia,ID,Sumatera Utara,minor,,
743,Trangkil,-6.6632,111.0746,Indonesia,ID,Jawa Tengah,minor,,
744,Pagadungan,-7.3628,106.9517,Indonesia,ID,Jawa Barat,minor,,
745,Burujul,-7.555903999999999,107.71775500000001,Indonesia,ID,Jawa Barat,minor,,
746,Lanta Timur,-8.618,118.9994,Indonesia,ID,Nusa Tenggara Barat,minor,,
747,Wadusari,-8.5736,118.90799999999999,Indonesia,ID,Nusa Tenggara Barat,minor,,
748,Apityeh,-8.4525,115.0714,Indonesia,ID,Bali,minor,,
749,Carik,-8.4834,115.0769,Indonesia,ID,Bali,minor,,
750,Pasargunung,-6.3639,105.9523,Indonesia,ID,Banten,minor,,
751,Bojongpinang,-6.3612,105.9456,Indonesia,ID,Banten,minor,,
752,Kebonharjo,-6.864,111.6247,Indonesia,ID,Jawa Timur,minor,,
753,Krajan Sale,-6.8617,111.6067,Indonesia,ID,Jawa Tengah,minor,,
754,Wailolung,-9.5875,119.5816,Indonesia,ID,Nusa Tenggara Timur,minor,,
755,Sarakole,-6.396242,106.072157,Indonesia,ID,Banten,minor,,
756,Salimpaung,-0.35230500000000003,100.54884200000001,Indonesia,ID,Sumatera Barat,minor,,
757,Kalianda,-5.7380510000000005,105.5916,Indonesia,ID,Lampung,minor,,
758,Guguk,-0.1389,100.5526,Indonesia,ID,Sumatera Barat,minor,,
759,Luwus,-8.3984,115.1956,Indonesia,ID,Bali,minor,,
760,Buahan,-8.3948,115.2367,Indonesia,ID,Bali,minor,,
761,Banjar Bau Kawan,-8.3803,115.5843,Indonesia,ID,Bali,minor,,
762,Tegallega,-7.4708,107.5609,Indonesia,ID,Jawa Barat,minor,,
763,Krajan,-8.2057,114.2698,Indonesia,ID,Jawa Timur,minor,,
764,Krajan,-8.2152,114.2791,Indonesia,ID,Jawa Timur,minor,,
765,Sugiharjo,-6.9013,112.0163,Indonesia,ID,Jawa Timur,minor,,
766,Funga,-8.6687,121.9878,Indonesia,ID,Nusa Tenggara Timur,minor,,
767,Maesan,-8.0233,113.7779,Indonesia,ID,Jawa Timur,minor,,
768,Mafa,0.05727,127.88140200000001,Indonesia,ID,Maluku Utara,minor,,
769,Binab,-9.5834,124.2896,Indonesia,ID,Nusa Tenggara Timur,minor,,
770,Citimbang,-7.1894,108.8567,Indonesia,ID,Jawa Tengah,minor,,
771,Lembung Tengah,-7.162078999999999,113.561874,Indonesia,ID,Jawa Timur,minor,,
772,Tambakrejo,-8.3111,112.1429,Indonesia,ID,Jawa Timur,minor,,
773,Takari,-9.9727,124.0469,Indonesia,ID,Nusa Tenggara Timur,minor,,
774,Bong,-7.226078,113.500083,Indonesia,ID,Jawa Timur,minor,,
775,Bangkal,-7.227044,113.530418,Indonesia,ID,Jawa Timur,minor,,
776,Lanpelan,-6.9819,113.5989,Indonesia,ID,Jawa Timur,minor,,
777,Tajurdesa,-7.2045,108.0078,Indonesia,ID,Jawa Barat,minor,,
778,Pasararba,-2.2591,115.3166,Indonesia,ID,Kalimantan Selatan,minor,,
779,Batuampar,-0.738503,109.524542,Indonesia,ID,Kalimantan Barat,minor,,
780,Tambaksari,-7.5012,108.7511,Indonesia,ID,Jawa Tengah,minor,,
781,Kedungbakung,-7.505199,108.773326,Indonesia,ID,Jawa Tengah,minor,,
782,Wakaseko,-8.6376,121.4704,Indonesia,ID,Nusa Tenggara Timur,minor,,
783,Citeureup,-7.1581,108.3527,Indonesia,ID,Jawa Barat,minor,,
784,Ladan,-7.0641,112.4413,Indonesia,ID,Jawa Timur,minor,,
785,Ngujung,-7.0638,112.4186,Indonesia,ID,Jawa Timur,minor,,
786,Cibuntiris,-7.5064,107.9775,Indonesia,ID,Jawa Barat,minor,,
787,Lewoduli,-8.3539,123.226,Indonesia,ID,Nusa Tenggara Timur,minor,,
788,Banjar Sandinggianyar,-8.4629,115.2992,Indonesia,ID,Bali,minor,,
789,Jampang Kulon,-7.2579,106.6256,Indonesia,ID,Jawa Barat,minor,,
790,Banjar Kelodan,-8.4691,115.5491,Indonesia,ID,Bali,minor,,
791,Kambang,-1.6904,100.7209,Indonesia,ID,Sumatera Barat,minor,,
792,Pematang Raya,2.9658,98.8473,Indonesia,ID,Sumatera Utara,minor,,
793,Pataha,-8.5297,119.0095,Indonesia,ID,Nusa Tenggara Barat,minor,,
794,Kampungbajo,-8.3457,120.1481,Indonesia,ID,Nusa Tenggara Timur,minor,,
795,Seba,-10.4933,121.8393,Indonesia,ID,Nusa Tenggara Timur,minor,,
796,Kayukembang,-6.9338,113.9812,Indonesia,ID,Jawa Timur,minor,,
797,Rangmanten,-6.8903,113.0852,Indonesia,ID,Jawa Timur,minor,,
798,Sayuran,-7.3383,108.10700000000001,Indonesia,ID,Jawa Barat,minor,,
799,Banjar Bucu,-8.586338,115.20468100000001,Indonesia,ID,Bali,minor,,
800,Waiha,-9.6356,119.04299999999999,Indonesia,ID,Nusa Tenggara Timur,minor,,
801,Pidie,5.363341,95.939996,Indonesia,ID,Aceh,minor,,
802,Pasar Banjit,-4.799454,104.483227,Indonesia,ID,Lampung,minor,,
803,Cipanggung,-6.8153,106.3752,Indonesia,ID,Banten,minor,,
804,Cihideung,-7.5857,108.7144,Indonesia,ID,Jawa Barat,minor,,
805,Ketapang,-6.8958,113.2806,Indonesia,ID,Jawa Timur,minor,,
806,Puutura,-8.8644,121.5214,Indonesia,ID,Nusa Tenggara Timur,minor,,
807,Oepuah,-9.8714,124.3025,Indonesia,ID,Nusa Tenggara Timur,minor,,
808,Lamagohang,-8.48,123.0162,Indonesia,ID,Nusa Tenggara Timur,minor,,
809,Sedayu,-8.1795,112.6875,Indonesia,ID,Jawa Timur,minor,,
810,Lewonara,-8.3566,123.1719,Indonesia,ID,Nusa Tenggara Timur,minor,,
811,Mamuju,-2.680556,118.88611100000001,Indonesia,ID,Sulawesi Barat,admin,,
812,Sindangbarang,-7.4516,107.13530300000001,Indonesia,ID,Jawa Barat,minor,,
813,Lohong,-8.2714,113.5055,Indonesia,ID,Jawa Timur,minor,,
814,Krajan,-8.1857,113.6648,Indonesia,ID,Jawa Timur,minor,,
815,Wolowiro,-8.7803,122.0136,Indonesia,ID,Nusa Tenggara Timur,minor,,
816,Wolowaru,-8.7835,121.88600000000001,Indonesia,ID,Nusa Tenggara Timur,minor,,
817,Wolosoko,-8.8531,121.7107,Indonesia,ID,Nusa Tenggara Timur,minor,,
818,Pule,-8.1238,111.5614,Indonesia,ID,Jawa Timur,minor,,
819,Wairiang,-8.1921,123.8187,Indonesia,ID,Nusa Tenggara Timur,minor,,
820,Tayu Kulon,-6.5351669999999995,111.04253700000001,Indonesia,ID,Jawa Tengah,minor,,
821,Weikoro,-8.1986,123.8282,Indonesia,ID,Nusa Tenggara Timur,minor,,
822,Lewutung,-8.1895,123.8127,Indonesia,ID,Nusa Tenggara Timur,minor,,
823,Cimaragas,-7.2447,107.9085,Indonesia,ID,Jawa Barat,minor,,
824,Benteng,-8.8165,120.3695,Indonesia,ID,Nusa Tenggara Timur,minor,,
825,Sopla,-7.5208,108.6747,Indonesia,ID,Jawa Barat,minor,,
826,Marapat,-6.609967999999999,105.696918,Indonesia,ID,Banten,minor,,
827,Timba Timuk,-8.6648,116.5571,Indonesia,ID,Nusa Tenggara Barat,minor,,
828,Jajawai,-7.5682,108.4781,Indonesia,ID,Jawa Barat,minor,,
829,Pangkalan Kasai,-0.5892,102.39,Indonesia,ID,Riau,minor,,
830,Fatumnasi,-9.6511,124.2218,Indonesia,ID,Nusa Tenggara Timur,minor,,
831,Maunggora,-8.8043,121.5146,Indonesia,ID,Nusa Tenggara Timur,minor,,
832,Juhut,-6.2955,106.1064,Indonesia,ID,Banten,minor,,
833,Bajawa,-8.7848,120.9744,Indonesia,ID,Nusa Tenggara Timur,minor,,
834,Padangbai,-8.5317,115.5072,Indonesia,ID,Bali,minor,,
835,Batangsaren,-8.054,111.881,Indonesia,ID,Jawa Timur,minor,,
836,Tanatoku,-9.521,119.5393,Indonesia,ID,Nusa Tenggara Timur,minor,,
837,Barapas,-2.199,137.0013,Indonesia,ID,Papua,minor,,
838,Rowo,-6.5488,111.0396,Indonesia,ID,Jawa Tengah,minor,,
839,Krajan Keboromo,-6.544,111.0515,Indonesia,ID,Jawa Tengah,minor,,
840,Belah Lor,-6.5371,111.053826,Indonesia,ID,Jawa Tengah,minor,,
841,Lewotukan,-8.3198,123.2298,Indonesia,ID,Nusa Tenggara Timur,minor,,
842,Kertasari,-7.3461,108.2814,Indonesia,ID,Jawa Barat,minor,,
843,Ngrayun,-8.0723,111.4489,Indonesia,ID,Jawa Timur,minor,,
844,Dresi Kulon,-6.7111,111.2689,Indonesia,ID,Jawa Tengah,minor,,
845,Karangmete,-8.2761,117.7502,Indonesia,ID,Nusa Tenggara Barat,minor,,
846,Bantarjati,-6.972,106.3899,Indonesia,ID,Banten,minor,,
847,Batusangkar,-0.4606,100.6107,Indonesia,ID,Sumatera Barat,minor,,
848,Baturotok,-8.6651,117.146,Indonesia,ID,Nusa Tenggara Barat,minor,,
849,Salinbatu,2.9405069999999998,117.343433,Indonesia,ID,Kalimantan Utara,minor,,
850,Kowang Utara,-6.9439,112.0864,Indonesia,ID,Jawa Timur,minor,,
851,Getengan,-3.1813,119.8839,Indonesia,ID,Sulawesi Selatan,minor,,
852,Sumbul,2.741,98.3975,Indonesia,ID,Sumatera Utara,minor,,
853,Lingsar,-8.5729,116.1824,Indonesia,ID,Nusa Tenggara Barat,minor,,
854,Cirateun,-7.2767,108.5937,Indonesia,ID,Jawa Tengah,minor,,
855,Sibuhuan,1.053875,99.730177,Indonesia,ID,Sumatera Utara,minor,,
856,Karangjaladri,-7.7041,108.5027,Indonesia,ID,Jawa Barat,minor,,
857,Sarilamak,-0.1503,100.664,Indonesia,ID,Sumatera Barat,minor,,
858,Simpangbandung,2.0733740000000003,100.58542299999999,Indonesia,ID,Riau,minor,,
859,Simpangpasir,2.082525,100.592099,Indonesia,ID,Riau,minor,,
860,Sungaimaja,2.0384919999999997,100.638685,Indonesia,ID,Riau,minor,,
861,Tanjunglumbalumba,2.088269,100.65004499999999,Indonesia,ID,Riau,minor,,
862,Cibenda,-7.3089,108.1217,Indonesia,ID,Jawa Barat,minor,,
863,Lunyuk Rea,-8.9617,117.21799999999999,Indonesia,ID,Nusa Tenggara Barat,minor,,
864,Cihambali,-6.8036,106.3304,Indonesia,ID,Banten,minor,,
865,Ciayunan,-6.8211,106.3049,Indonesia,ID,Banten,minor,,
866,Lunyuk,-8.9676,117.2169,Indonesia,ID,Nusa Tenggara Barat,minor,,
867,Necak,-8.4918,120.619,Indonesia,ID,Nusa Tenggara Timur,minor,,
868,Sukajadi,-6.7144,105.7062,Indonesia,ID,Banten,minor,,
869,Dampit,-8.211616000000001,112.74933500000002,Indonesia,ID,Jawa Timur,minor,,
870,Desa Borogojol,-7.0438,108.1819,Indonesia,ID,Jawa Barat,minor,,
871,Depek,-7.0072,112.4286,Indonesia,ID,Jawa Timur,minor,,
872,Waru,-7.0468,112.4048,Indonesia,ID,Jawa Timur,minor,,
873,Bangelan,-8.1019,112.4981,Indonesia,ID,Jawa Timur,minor,,
874,Curuglanglang,-6.6301,105.9198,Indonesia,ID,Banten,minor,,
875,Tugu,-7.514722,109.137778,Indonesia,ID,Jawa Tengah,minor,,
876,Krajan Demit,-6.8933,111.6899,Indonesia,ID,Jawa Timur,minor,,
877,Oekamusa,-9.8747,124.3064,Indonesia,ID,Nusa Tenggara Timur,minor,,
878,Numeto,-9.7677,124.2759,Indonesia,ID,Nusa Tenggara Timur,minor,,
879,Kaliprak,-6.8864,111.583,Indonesia,ID,Jawa Tengah,minor,,
880,Langkaplancar,-7.3777,108.6141,Indonesia,ID,Jawa Barat,minor,,
881,Wajak,-8.102,112.7312,Indonesia,ID,Jawa Timur,minor,,
882,Panenggoede,-9.6701,119.0511,Indonesia,ID,Nusa Tenggara Timur,minor,,
883,Sumberpakem,-8.0562,113.8714,Indonesia,ID,Jawa Timur,minor,,
884,Krajan Sumberdanti,-8.0521,113.863,Indonesia,ID,Jawa Timur,minor,,
885,Plereyan,-8.0484,113.8715,Indonesia,ID,Jawa Timur,minor,,
886,Pandan,-7.2394,111.564,Indonesia,ID,Jawa Timur,minor,,
887,Pengkol,-7.2352,111.5932,Indonesia,ID,Jawa Timur,minor,,
888,Klempun,-7.2292,111.5837,Indonesia,ID,Jawa Timur,minor,,
889,Reo,-8.3098,120.4893,Indonesia,ID,Nusa Tenggara Timur,minor,,
890,Nangaraba,-8.3154,118.7681,Indonesia,ID,Nusa Tenggara Barat,minor,,
891,Nangah Pinoh,-0.333333,111.733333,Indonesia,ID,Kalimantan Barat,minor,,
892,Bayunglincir,-2.0549,103.6834,Indonesia,ID,Sumatera Selatan,minor,,
893,Sundawenang,-7.3719,107.9983,Indonesia,ID,Jawa Barat,minor,,
894,Coo,-6.5563,106.2901,Indonesia,ID,Banten,minor,,
895,Gunungsulah,-7.606921000000001,107.65210400000001,Indonesia,ID,Jawa Barat,minor,,
896,Sboo,-9.8392,124.6549,Indonesia,ID,Nusa Tenggara Timur,minor,,
897,Cerme Kidul,-8.1808,111.8413,Indonesia,ID,Jawa Timur,minor,,
898,Jiworejo,-6.9815,111.5076,Indonesia,ID,Jawa Tengah,minor,,
899,Redakodi,-9.4542,119.2271,Indonesia,ID,Nusa Tenggara Timur,minor,,
900,Jinanten,-6.8756,111.573,Indonesia,ID,Jawa Tengah,minor,,
901,Campurjanggang,-8.162,111.8581,Indonesia,ID,Jawa Timur,minor,,
902,Tanah Merah,3.632211,97.702337,Indonesia,ID,Aceh,minor,,
903,Mersak,3.51416,97.382094,Indonesia,ID,Aceh,minor,,
904,Kutacane,3.5221120000000004,97.79625300000001,Indonesia,ID,Aceh,minor,,
905,Sumberkrajan,-8.0504,111.6878,Indonesia,ID,Jawa Timur,minor,,
906,Rarang Selatan,-8.6387,116.3937,Indonesia,ID,Nusa Tenggara Barat,minor,,
907,Bagansiapiapi,2.156683,100.80763,Indonesia,ID,Riau,minor,,
908,Bosnik,-1.1572,136.2283,Indonesia,ID,Papua,minor,,
909,Mojogemi,-8.0578,113.7972,Indonesia,ID,Jawa Timur,minor,,
910,Krajan Timur Suger Kidul,-8.0526,113.7809,Indonesia,ID,Jawa Timur,minor,,
911,Sukojember,-8.059,113.7698,Indonesia,ID,Jawa Timur,minor,,
912,Wanasari Baleran,-8.4849,115.1348,Indonesia,ID,Bali,minor,,
913,Sumbermanggis,-8.2537,112.838,Indonesia,ID,Jawa Timur,minor,,
914,Kebonkaret,-7.2417,107.0718,Indonesia,ID,Jawa Barat,minor,,
915,Triteh,-6.9594,111.3617,Indonesia,ID,Jawa Tengah,minor,,
916,Wotbakah,-6.9441,111.3175,Indonesia,ID,Jawa Tengah,minor,,
917,Padaan,-6.9435,111.2995,Indonesia,ID,Jawa Tengah,minor,,
918,Cijalarang,-6.6644,105.6704,Indonesia,ID,Banten,minor,,
919,Citeureup,-7.631943,107.70751399999999,Indonesia,ID,Jawa Barat,minor,,
920,Lais,-3.5294,102.0497,Indonesia,ID,Bengkulu,minor,,
921,Kalidung,-7.1913,107.8902,Indonesia,ID,Jawa Barat,minor,,
922,Petong,-6.9735,114.0254,Indonesia,ID,Jawa Timur,minor,,
923,Jurangara,-6.9727,114.0153,Indonesia,ID,Jawa Timur,minor,,
924,Karang,-6.9381,111.4968,Indonesia,ID,Jawa Tengah,minor,,
925,Trikora,-8.7865,120.9715,Indonesia,ID,Nusa Tenggara Timur,minor,,
926,Ngedukelu,-8.7877,120.9748,Indonesia,ID,Nusa Tenggara Timur,minor,,
927,Tanalodu,-8.7908,120.97399999999999,Indonesia,ID,Nusa Tenggara Timur,minor,,
928,Banteng,-6.5966,111.0157,Indonesia,ID,Jawa Tengah,minor,,
929,Cintawana,-7.3552,108.1053,Indonesia,ID,Jawa Barat,minor,,
930,Bebedahan,-7.1783,107.9804,Indonesia,ID,Jawa Barat,minor,,
931,Cinunuk Girang,-7.1787,107.9751,Indonesia,ID,Jawa Barat,minor,,
932,Karangrowo,-6.7453,111.0893,Indonesia,ID,Jawa Tengah,minor,,
933,Kamurang,-7.6761,108.6763,Indonesia,ID,Jawa Barat,minor,,
934,Doropeti,-8.3468,117.8216,Indonesia,ID,Nusa Tenggara Barat,minor,,
935,Ngurensiti,-6.6989,111.0864,Indonesia,ID,Jawa Tengah,minor,,
936,Tepas,-8.0977,112.3945,Indonesia,ID,Jawa Timur,minor,,
937,Lobuk,-7.159078,113.51864099999999,Indonesia,ID,Jawa Timur,minor,,
938,Tandes,-7.157913000000001,113.54053799999998,Indonesia,ID,Jawa Timur,minor,,
939,Pamundayan Kaler,-6.6966,106.0251,Indonesia,ID,Banten,minor,,
940,Detuwane,-8.5137,121.79299999999999,Indonesia,ID,Nusa Tenggara Timur,minor,,
941,Nglego,-7.0013,111.4459,Indonesia,ID,Jawa Tengah,minor,,
942,Bangbayang,-7.4524,107.7259,Indonesia,ID,Jawa Barat,minor,,
943,Sarongan,-8.5416,113.9604,Indonesia,ID,Jawa Timur,minor,,
944,Dabra,-3.2453,138.5878,Indonesia,ID,Papua,minor,,
945,Kalirejo,-5.225816,104.96131299999999,Indonesia,ID,Lampung,minor,,
946,Ciwarulang,-7.412000000000001,108.3918,Indonesia,ID,Jawa Barat,minor,,
947,Maruyungsari,-7.5176,108.7307,Indonesia,ID,Jawa Barat,minor,,
948,Wairinding,-9.6739,120.1302,Indonesia,ID,Nusa Tenggara Timur,minor,,
949,Sidomukti,-6.6247,111.0526,Indonesia,ID,Jawa Tengah,minor,,
950,Sukamanah,-7.3932,107.9876,Indonesia,ID,Jawa Barat,minor,,
951,Calan,-7.0483,112.4646,Indonesia,ID,Jawa Timur,minor,,
952,Piru,-3.0618,128.1945,Indonesia,ID,Maluku,minor,,
953,Panggungwinong,-8.2394,112.2878,Indonesia,ID,Jawa Timur,minor,,
954,Sorodot,-6.3623,105.9128,Indonesia,ID,Banten,minor,,
955,Totok,-9.4828,119.306,Indonesia,ID,Nusa Tenggara Timur,minor,,
956,Huineno,-9.7372,124.2198,Indonesia,ID,Nusa Tenggara Timur,minor,,
957,Ciracap,-7.3312,106.5215,Indonesia,ID,Jawa Barat,minor,,
958,Leuwohung,-8.1732,123.7918,Indonesia,ID,Nusa Tenggara Timur,minor,,
959,Peuhaq,-8.1772,123.7975,Indonesia,ID,Nusa Tenggara Timur,minor,,
960,Tanjungluar,-8.7752,116.5177,Indonesia,ID,Nusa Tenggara Barat,minor,,
961,Habibola,-8.749,122.3704,Indonesia,ID,Nusa Tenggara Timur,minor,,
962,Kubang,-7.4585,108.1106,Indonesia,ID,Jawa Barat,minor,,
963,Cikalong,-7.6487,108.5662,Indonesia,ID,Jawa Barat,minor,,
964,Cikalong,-7.4599,108.0518,Indonesia,ID,Jawa Barat,minor,,
965,Cikalong,-7.7622990000000005,108.172701,Indonesia,ID,Jawa Barat,minor,,
966,Nasawewe,-8.8829,121.2796,Indonesia,ID,Nusa Tenggara Timur,minor,,
967,Cibinong,-7.2037,106.5251,Indonesia,ID,Jawa Barat,minor,,
968,Tirtoyudo,-8.2446,112.816,Indonesia,ID,Jawa Timur,minor,,
969,Kebunan,-7.0541,113.7081,Indonesia,ID,Jawa Timur,minor,,
970,Dajalorong,-7.0609,113.7136,Indonesia,ID,Jawa Timur,minor,,
971,Karangjati,-7.0524,113.72200000000001,Indonesia,ID,Jawa Timur,minor,,
972,Klau,-8.336,114.9882,Indonesia,ID,Bali,minor,,
973,Bantiran,-8.3095,114.9908,Indonesia,ID,Bali,minor,,
974,Cikiruh Wetan,-6.8262,105.8757,Indonesia,ID,Banten,minor,,
975,Rubaru,-6.9581,113.75299999999999,Indonesia,ID,Jawa Timur,minor,,
976,Pasirgadung Satu,-6.4919,105.9002,Indonesia,ID,Banten,minor,,
977,Tapalang,-2.8637,118.8672,Indonesia,ID,Sulawesi Barat,minor,,
978,Sumber,-6.760278,108.483056,Indonesia,ID,Jawa Barat,minor,,
979,Sumbawa Besar,-8.4901,117.4209,Indonesia,ID,Nusa Tenggara Barat,minor,,
980,Feuknoni,-9.8502,124.5163,Indonesia,ID,Nusa Tenggara Timur,minor,,
981,Ampanlolat,-8.7198,116.1983,Indonesia,ID,Nusa Tenggara Barat,minor,,
982,Pabuaran,-7.1674,108.4367,Indonesia,ID,Jawa Barat,minor,,
983,Sindangasih,-7.2432,106.4581,Indonesia,ID,Jawa Barat,minor,,
984,Watotenga,-8.2874,122.947,Indonesia,ID,Nusa Tenggara Timur,minor,,
985,Citotok,-7.8149,108.4024,Indonesia,ID,Jawa Barat,minor,,
986,Banjar Triwangsakelusa,-8.4406,115.2582,Indonesia,ID,Bali,minor,,
987,Rawaseser,-7.600833000000001,109.2475,Indonesia,ID,Jawa Tengah,minor,,
988,Sepolong Timur,-8.585,116.4539,Indonesia,ID,Nusa Tenggara Barat,minor,,
989,Oelbanu,-9.7057,123.8993,Indonesia,ID,Nusa Tenggara Timur,minor,,
990,Beting,-6.8558,115.3107,Indonesia,ID,Jawa Timur,minor,,
991,Sindangsari,-7.5062,108.6975,Indonesia,ID,Jawa Barat,minor,,
992,Semanding Barat,-6.9258,112.0648,Indonesia,ID,Jawa Timur,minor,,
993,Cikadondongdesa,-6.6609,105.6983,Indonesia,ID,Banten,minor,,
994,Kembang,-6.7712,111.4311,Indonesia,ID,Jawa Tengah,minor,,
995,Sobeok,-8.75815,117.18601799999999,Indonesia,ID,Nusa Tenggara Barat,minor,,
996,Gemulung,-6.8788,111.8083,Indonesia,ID,Jawa Timur,minor,,
997,Ngulahan,-6.8771,111.7834,Indonesia,ID,Jawa Timur,minor,,
998,Krajan Tanjungrejo,-6.6337,111.0441,Indonesia,ID,Jawa Tengah,minor,,
999,Tegalharjo,-6.6413,111.02600000000001,Indonesia,ID,Jawa Tengah,minor,,
1000,Pohijo,-6.6266,111.0717,Indonesia,ID,Jawa Tengah,minor,,
1001,Kedungsalam,-7.6098,108.7556,Indonesia,ID,Jawa Tengah,minor,,
1002,Krajan Langenharjo,-6.6296,111.085,Indonesia,ID,Jawa Tengah,minor,,
1003,Gareba,-7.2013,108.3692,Indonesia,ID,Jawa Barat,minor,,
1004,Poja Nae,-8.502464999999999,119.03866599999999,Indonesia,ID,Nusa Tenggara Barat,minor,,
1005,Baban,-6.9266,113.4911,Indonesia,ID,Jawa Timur,minor,,
1006,Pasarkuok,-1.4414,100.62200000000001,Indonesia,ID,Sumatera Barat,minor,,
1007,Kembang,-8.0652,111.50299999999999,Indonesia,ID,Jawa Timur,minor,,
1008,Citeureup,-6.5338,105.7099,Indonesia,ID,Banten,minor,,
1009,Citasuk,-6.2112,105.9606,Indonesia,ID,Banten,minor,,
1010,Mawa,-8.245792999999999,123.486476,Indonesia,ID,Nusa Tenggara Timur,minor,,
1011,Boawae,-8.7639,121.1694,Indonesia,ID,Nusa Tenggara Timur,minor,,
1012,Sumbersarikrajan,-8.2995,112.84100000000001,Indonesia,ID,Jawa Timur,minor,,
1013,Dadapan,-8.3222,114.1946,Indonesia,ID,Jawa Timur,minor,,
1014,Turus,-8.207,111.7733,Indonesia,ID,Jawa Timur,minor,,
1015,Besuki Dua,-8.2156,111.7829,Indonesia,ID,Jawa Timur,minor,,
1016,Cibalong,-7.5148,108.1812,Indonesia,ID,Jawa Barat,minor,,
1017,Cibaliung,-6.705,105.71600000000001,Indonesia,ID,Banten,minor,,
1018,Kauditan,1.3913200000000001,125.034361,Indonesia,ID,Sulawesi Utara,minor,,
1019,Banjar Ponggang,-8.3893,115.2605,Indonesia,ID,Bali,minor,,
1020,Banjar Taro Kelod,-8.3849,115.2794,Indonesia,ID,Bali,minor,,
1021,Dona,-8.9011,121.0257,Indonesia,ID,Nusa Tenggara Timur,minor,,
1022,Rutojawa,-8.9132,121.0142,Indonesia,ID,Nusa Tenggara Timur,minor,,
1023,Talok,-7.1255,111.7469,Indonesia,ID,Jawa Timur,minor,,
1024,Karangturi,-6.7016,111.4454,Indonesia,ID,Jawa Tengah,minor,,
1025,Dami,-8.0805,111.8651,Indonesia,ID,Jawa Timur,minor,,
1026,Kiping,-8.0788,111.8492,Indonesia,ID,Jawa Timur,minor,,
1027,Pakuwon,-7.2155,107.9036,Indonesia,ID,Jawa Barat,minor,,
1028,Mawar,-7.2124,107.905,Indonesia,ID,Jawa Barat,minor,,
1029,Pusu,-8.8328,121.2478,Indonesia,ID,Nusa Tenggara Timur,minor,,
1030,Krajan Gajahmati,-6.7618,111.046,Indonesia,ID,Jawa Tengah,minor,,
1031,Naensaet,-9.9865,124.3316,Indonesia,ID,Nusa Tenggara Timur,minor,,
1032,Banyuanyar,-8.2664,113.978,Indonesia,ID,Jawa Timur,minor,,
1033,Sumberpandan,-8.001,113.7848,Indonesia,ID,Jawa Timur,minor,,
1034,Pengotaan,-8.0157,113.779,Indonesia,ID,Jawa Timur,minor,,
1035,Batumandi,-2.4218,115.4409,Indonesia,ID,Kalimantan Selatan,minor,,
1036,Sekartaji,-8.801,115.5691,Indonesia,ID,Bali,minor,,
1037,Pragaan,-7.1109,113.66,Indonesia,ID,Jawa Timur,minor,,
1038,Legok,-7.0189,106.9553,Indonesia,ID,Jawa Barat,minor,,
1039,Koatas Lao,-7.1432,114.3603,Indonesia,ID,Jawa Timur,minor,,
1040,Pantai,-3.1313,116.1353,Indonesia,ID,Kalimantan Selatan,minor,,
1041,Ciburial,-6.8449,106.374,Indonesia,ID,Banten,minor,,
1042,Sukamaju,-8.9738,117.2018,Indonesia,ID,Nusa Tenggara Barat,minor,,
1043,Krida,-8.978,117.1875,Indonesia,ID,Nusa Tenggara Barat,minor,,
1044,Cipakem,-7.0755,108.5779,Indonesia,ID,Jawa Barat,minor,,
1045,Tanahsong Daya,-8.3512,116.1678,Indonesia,ID,Nusa Tenggara Barat,minor,,
1046,Leter,-8.3211,123.1202,Indonesia,ID,Nusa Tenggara Timur,minor,,
1047,Era,-8.3263,123.1107,Indonesia,ID,Nusa Tenggara Timur,minor,,
1048,Cigembong,-7.1432,106.5101,Indonesia,ID,Jawa Barat,minor,,
1049,Pedatar Timur,-6.9418,113.7391,Indonesia,ID,Jawa Timur,minor,,
1050,Binuang,-3.0707,115.1638,Indonesia,ID,Kalimantan Selatan,minor,,
1051,Bintuhan,-4.793707,103.348362,Indonesia,ID,Bengkulu,minor,,
1052,Mungkin,-8.751058,117.127051,Indonesia,ID,Nusa Tenggara Barat,minor,,
1053,Klagen,-6.999,112.3509,Indonesia,ID,Jawa Timur,minor,,
1054,Jagran,-6.9987,112.3539,Indonesia,ID,Jawa Timur,minor,,
1055,Banjaranyar,-6.8775,112.3902,Indonesia,ID,Jawa Timur,minor,,
1056,Kranji,-6.8775,112.383,Indonesia,ID,Jawa Timur,minor,,
1057,Elat,-5.6578,132.9709,Indonesia,ID,Maluku,minor,,
1058,Sangojar,-7.1667,108.0306,Indonesia,ID,Jawa Barat,minor,,
1059,Kadumula,-6.5162,105.9661,Indonesia,ID,Banten,minor,,
1060,Asan Kumbang,5.304236,96.027439,Indonesia,ID,Aceh,minor,,
1061,Kalangbret,-8.0527,111.8653,Indonesia,ID,Jawa Timur,minor,,
1062,Bindang,-6.9174,112.9614,Indonesia,ID,Jawa Timur,minor,,
1063,Cisewu,-7.3758,107.4975,Indonesia,ID,Jawa Barat,minor,,
1064,Tene,-9.8403,124.6307,Indonesia,ID,Nusa Tenggara Timur,minor,,
1065,Kampungbaru,-9.908999999999999,123.6493,Indonesia,ID,Nusa Tenggara Timur,minor,,
1066,Cisaro,-7.3531,108.1217,Indonesia,ID,Jawa Barat,minor,,
1067,Kotabumi,-4.827882,104.881809,Indonesia,ID,Lampung,minor,,
1068,Cempaka,-6.6078,106.1192,Indonesia,ID,Banten,minor,,
1069,Cangkringan,-8.1199,111.9707,Indonesia,ID,Jawa Timur,minor,,
1070,Bendilwungu Lor,-8.1197,111.9532,Indonesia,ID,Jawa Timur,minor,,
1071,Mojo,-8.1185,111.9206,Indonesia,ID,Jawa Timur,minor,,
1072,Waingapu,-9.6567,120.2641,Indonesia,ID,Nusa Tenggara Timur,minor,,
1073,Bungur,-7.1376,108.5964,Indonesia,ID,Jawa Barat,minor,,
1074,Rato,-8.4744,118.7649,Indonesia,ID,Nusa Tenggara Barat,minor,,
1075,Umbulsari,-8.3075,112.9503,Indonesia,ID,Jawa Timur,minor,,
1076,Tegalrejo,-8.3294,112.9513,Indonesia,ID,Jawa Timur,minor,,
1077,Gelang,-8.09,113.4075,Indonesia,ID,Jawa Timur,minor,,
1078,Cintasari,-7.226,107.0356,Indonesia,ID,Jawa Barat,minor,,
1079,Luan Balu,2.525817,96.331716,Indonesia,ID,Aceh,minor,,
1080,Kemirian,-8.0235,113.8342,Indonesia,ID,Jawa Timur,minor,,
1081,Kidulsawah,-8.0205,113.8262,Indonesia,ID,Jawa Timur,minor,,
1082,Jatian,-8.0196,113.7953,Indonesia,ID,Jawa Timur,minor,,
1083,Tamberu,-6.8981,113.4843,Indonesia,ID,Jawa Timur,minor,,
1084,Baanfaun,-9.586,124.5859,Indonesia,ID,Nusa Tenggara Timur,minor,,
1085,Mendogo Lor,-7.0879,112.4924,Indonesia,ID,Jawa Timur,minor,,
1086,Plosobuden,-7.099,112.4956,Indonesia,ID,Jawa Timur,minor,,
1087,Kurnia,-7.0522,108.0363,Indonesia,ID,Jawa Barat,minor,,
1088,Warugunung,-6.7076,111.45700000000001,Indonesia,ID,Jawa Tengah,minor,,
1089,Jorong,-3.986,114.9518,Indonesia,ID,Kalimantan Selatan,minor,,
1090,Banjar Dajanmargi,-8.1499,115.1236,Indonesia,ID,Bali,minor,,
1091,Mandor,0.32243299999999997,109.33794499999999,Indonesia,ID,Kalimantan Barat,minor,,
1092,Sukoreno,-8.2477,113.4003,Indonesia,ID,Jawa Timur,minor,,
1093,Tegalloa,-7.277,106.6356,Indonesia,ID,Jawa Barat,minor,,
1094,Wlingi,-8.0776,112.3311,Indonesia,ID,Jawa Timur,minor,,
1095,Jambuandap,-7.567222,109.0275,Indonesia,ID,Jawa Tengah,minor,,
1096,Weleng,-8.404997,120.52331399999998,Indonesia,ID,Nusa Tenggara Timur,minor,,
1097,Pasirpanjang,1.125946,103.350054,Indonesia,ID,Kepulauan Riau,minor,,
1098,Kota Trieng,3.598404,96.962434,Indonesia,ID,Aceh,minor,,
1099,Rengganis,-7.2127,107.8986,Indonesia,ID,Jawa Barat,minor,,
1100,Waren,-2.2645,136.3342,Indonesia,ID,Papua,minor,,
1101,Labuhantanggabesar,2.033234,100.88823199999999,Indonesia,ID,Riau,minor,,
1102,Rundeng,2.685538,97.83494,Indonesia,ID,Sumatera Utara,minor,,
1103,Tembalang,-8.0701,112.335,Indonesia,ID,Jawa Timur,minor,,
1104,Dares,-7.369,112.7624,Indonesia,ID,Jawa Timur,minor,,
1105,Desa Benteng,-7.3404,108.3488,Indonesia,ID,Jawa Barat,minor,,
1106,Terentang,-0.382328,109.620981,Indonesia,ID,Kalimantan Barat,minor,,
1107,Pantenan,-6.9199,112.4381,Indonesia,ID,Jawa Timur,minor,,
1108,Geneng,-6.9112,111.4115,Indonesia,ID,Jawa Tengah,minor,,
1109,Teluk Kuantan,-0.5283,101.581,Indonesia,ID,Riau,minor,,
1110,Tilamuta,0.5273,122.3463,Indonesia,ID,Gorontalo,minor,,
1111,Pringgowirawan,-8.1233,113.4129,Indonesia,ID,Jawa Timur,minor,,
1112,Sumur Lima,-8.4939,118.2991,Indonesia,ID,Nusa Tenggara Barat,minor,,
1113,Samangawah,-8.4955,118.2991,Indonesia,ID,Nusa Tenggara Barat,minor,,
1114,Linakelopu,-9.8067,124.6029,Indonesia,ID,Nusa Tenggara Timur,minor,,
1115,Sukaraja,-6.786881,106.024882,Indonesia,ID,Banten,minor,,
1116,Terawas,-3.0526,102.8149,Indonesia,ID,Sumatera Selatan,minor,,
1117,Rancah,-7.1969,108.5041,Indonesia,ID,Jawa Barat,minor,,
1118,Kedungwuluh,-7.5360000000000005,108.6873,Indonesia,ID,Jawa Barat,minor,,
1119,Kedungtuban,-7.164,111.494,Indonesia,ID,Jawa Tengah,minor,,
1120,Rantepang,-2.9252,119.9413,Indonesia,ID,Sulawesi Selatan,minor,,
1121,Monggo,-8.514,118.5669,Indonesia,ID,Nusa Tenggara Barat,minor,,
1122,Cibogo,-6.3788,106.12100000000001,Indonesia,ID,Banten,minor,,
1123,Cikaduen,-6.3924,106.0041,Indonesia,ID,Banten,minor,,
1124,Cinangka,-7.322,106.6296,Indonesia,ID,Jawa Barat,minor,,
1125,Sebuh,-6.9191,112.8564,Indonesia,ID,Jawa Timur,minor,,
1126,Juai,-2.3044,115.5622,Indonesia,ID,Kalimantan Selatan,minor,,
1127,Dungkek Laok,-6.9769,114.0854,Indonesia,ID,Jawa Timur,minor,,
1128,Ares Tengah,-6.9639999999999995,114.1043,Indonesia,ID,Jawa Timur,minor,,
1129,Batawa,-8.8954,121.1482,Indonesia,ID,Nusa Tenggara Timur,minor,,
1130,Sindanggalih,-7.2769,108.17299999999999,Indonesia,ID,Jawa Barat,minor,,
1131,Sumber,-6.8596,111.9831,Indonesia,ID,Jawa Timur,minor,,
1132,Mulankera,-8.5162,123.4854,Indonesia,ID,Nusa Tenggara Timur,minor,,
1133,Mukomuko,-2.5689,101.1118,Indonesia,ID,Bengkulu,minor,,
1134,Mukusaki,-8.565335000000001,121.61671100000001,Indonesia,ID,Nusa Tenggara Timur,minor,,
1135,Seuseupan,-6.5464,105.8195,Indonesia,ID,Banten,minor,,
1136,Medokanayu,-7.3256,112.7988,Indonesia,ID,Jawa Timur,minor,,
1137,Dungusiku,-7.1077,107.9323,Indonesia,ID,Jawa Barat,minor,,
1138,Galis Dua,-7.1133,113.6441,Indonesia,ID,Jawa Timur,minor,,
1139,Mrongi Daja,-7.0967,113.6588,Indonesia,ID,Jawa Timur,minor,,
1140,Ketapang Daja,-7.1131,113.6527,Indonesia,ID,Jawa Timur,minor,,
1141,Krajan,-7.6614,114.0221,Indonesia,ID,Jawa Timur,minor,,
1142,Cempaka,-7.6558,114.0212,Indonesia,ID,Jawa Timur,minor,,
1143,Krajan Olean,-7.6755,114.0147,Indonesia,ID,Jawa Timur,minor,,
1144,Tendaleo,-8.6477,121.7005,Indonesia,ID,Nusa Tenggara Timur,minor,,
1145,Kaduseeng,-6.3965,105.9693,Indonesia,ID,Banten,minor,,
1146,Legokkopra,-6.3968,105.9591,Indonesia,ID,Banten,minor,,
1147,Tambaksumur,-7.3485,112.7729,Indonesia,ID,Jawa Timur,minor,,
1148,Tambaksawah,-7.360119,112.77778400000001,Indonesia,ID,Jawa Timur,minor,,
1149,Tobadak,-2.089444,119.347222,Indonesia,ID,Sulawesi Barat,minor,,
1150,Gununglimbangan,-7.1016,107.9841,Indonesia,ID,Jawa Barat,minor,,
1151,Gadingrejo,-5.372326999999999,105.061631,Indonesia,ID,Lampung,minor,,
1152,Sidomulyo,-8.1777,111.8093,Indonesia,ID,Jawa Timur,minor,,
1153,Gombang,-8.1578,111.8044,Indonesia,ID,Jawa Timur,minor,,
1154,Sukoanyar,-8.1704,111.8064,Indonesia,ID,Jawa Timur,minor,,
1155,Sagaranten,-7.2184,106.8851,Indonesia,ID,Jawa Barat,minor,,
1156,Cidadap,-7.7721,108.1407,Indonesia,ID,Jawa Barat,minor,,
1157,Rajapolah,-7.221,108.1896,Indonesia,ID,Jawa Barat,minor,,
1158,Rejamulya,-7.4789,108.7414,Indonesia,ID,Jawa Tengah,minor,,
1159,Cikiray,-6.3794,105.9007,Indonesia,ID,Banten,minor,,
1160,Oemaulain,-10.7525,123.03299999999999,Indonesia,ID,Nusa Tenggara Timur,minor,,
1161,Idalolong,-8.5298,123.3227,Indonesia,ID,Nusa Tenggara Timur,minor,,
1162,Pantaihambawang,-2.6103,115.3696,Indonesia,ID,Kalimantan Selatan,minor,,
1163,Karangdowo,-6.7912,111.8951,Indonesia,ID,Jawa Timur,minor,,
1164,Karangdowo,-6.7377,111.0434,Indonesia,ID,Jawa Tengah,minor,,
1165,Krajan Dua,-8.025,113.2508,Indonesia,ID,Jawa Timur,minor,,
1166,Krajan,-8.0134,113.2792,Indonesia,ID,Jawa Timur,minor,,
1167,Pentil,-6.7501,111.3078,Indonesia,ID,Jawa Tengah,minor,,
1168,Sirnagalih,-6.2888,105.9973,Indonesia,ID,Banten,minor,,
1169,Tlogotunggal,-6.757000000000001,111.2971,Indonesia,ID,Jawa Tengah,minor,,
1170,Pegadungan,-7.5933,108.3714,Indonesia,ID,Jawa Barat,minor,,
1171,Long Peso,2.690277,116.784899,Indonesia,ID,Kalimantan Utara,minor,,
1172,Pasonobenu,-9.5502,119.1705,Indonesia,ID,Nusa Tenggara Timur,minor,,
1173,Sangoleng,-6.9001,113.5144,Indonesia,ID,Jawa Timur,minor,,
1174,Sakerta Timur,-7.0366,108.4159,Indonesia,ID,Jawa Barat,minor,,
1175,Ngarangiakambera,-9.671,120.0049,Indonesia,ID,Nusa Tenggara Timur,minor,,
1176,Kranggan,-8.0803,112.5692,Indonesia,ID,Jawa Timur,minor,,
1177,Permanu,-8.0637,112.5785,Indonesia,ID,Jawa Timur,minor,,
1178,Maiwal,-8.3246,124.51899999999999,Indonesia,ID,Nusa Tenggara Timur,minor,,
1179,Cigudang,-6.2442,106.1016,Indonesia,ID,Banten,minor,,
1180,Maguwon,-6.9661,111.3769,Indonesia,ID,Jawa Tengah,minor,,
1181,Daniwato,-8.4883,122.9516,Indonesia,ID,Nusa Tenggara Timur,minor,,
1182,Susoh,3.723939,96.82159300000001,Indonesia,ID,Aceh,minor,,
1183,Penfui,-10.1766,123.6581,Indonesia,ID,Nusa Tenggara Timur,minor,,
1184,Cimalati,-7.3932,107.2169,Indonesia,ID,Jawa Barat,minor,,
1185,Ciareuy,-7.0294,106.8012,Indonesia,ID,Jawa Barat,minor,,
1186,Wasogolo,-8.6268,120.4599,Indonesia,ID,Nusa Tenggara Timur,minor,,
1187,Ongalereng,-8.4447,123.0085,Indonesia,ID,Nusa Tenggara Timur,minor,,
1188,Pesisir,-7.1096,113.6912,Indonesia,ID,Jawa Timur,minor,,
1189,Gero,-8.7039,121.1881,Indonesia,ID,Nusa Tenggara Timur,minor,,
1190,Tanah Merah,-6.097564,140.306489,Indonesia,ID,Papua,minor,,
1191,Lantebaru,-8.6321,118.7736,Indonesia,ID,Nusa Tenggara Barat,minor,,
1192,Kaca,-8.7511,120.2272,Indonesia,ID,Nusa Tenggara Timur,minor,,
1193,Mliwang,-6.8337,111.891,Indonesia,ID,Jawa Timur,minor,,
1194,Merkawang,-6.8075,111.8888,Indonesia,ID,Jawa Timur,minor,,
1195,Kasiman,-6.8741,111.8862,Indonesia,ID,Jawa Timur,minor,,
1196,Besowo,-6.8508,111.6558,Indonesia,ID,Jawa Timur,minor,,
1197,Banjar Sayanbaleran,-8.506,115.1804,Indonesia,ID,Bali,minor,,
1198,Panimbang,-6.4943,105.7961,Indonesia,ID,Banten,minor,,
1199,Neglasari,-6.4951,105.7936,Indonesia,ID,Banten,minor,,
1200,Banjar Batanyuh Kaja,-8.508,115.1678,Indonesia,ID,Bali,minor,,
1201,Ngawen,-7.0032,111.3129,Indonesia,ID,Jawa Tengah,minor,,
1202,Karangnunggal,-7.6278,108.1341,Indonesia,ID,Jawa Barat,minor,,
1203,Kandayakan Satu,-7.1370000000000005,108.7827,Indonesia,ID,Jawa Tengah,minor,,
1204,Cisitu,-7.141885,108.798975,Indonesia,ID,Jawa Tengah,minor,,
1205,Sentul,-7.5591,108.7376,Indonesia,ID,Jawa Barat,minor,,
1206,Baa,-10.7263,123.0492,Indonesia,ID,Nusa Tenggara Timur,minor,,
1207,Ba,-10.4771,121.9882,Indonesia,ID,Nusa Tenggara Timur,minor,,
1208,Sambirata,-6.7859,111.5744,Indonesia,ID,Jawa Tengah,minor,,
1209,Gesikan,-6.7785,111.5712,Indonesia,ID,Jawa Tengah,minor,,
1210,Mangseng,-6.7794,111.5659,Indonesia,ID,Jawa Tengah,minor,,
1211,Mehona,-10.5951,121.8335,Indonesia,ID,Nusa Tenggara Timur,minor,,
1212,Tanjungkerta,-7.0702,108.6767,Indonesia,ID,Jawa Barat,minor,,
1213,Sambirejo,-8.1453,111.9501,Indonesia,ID,Jawa Timur,minor,,
1214,Sumuragung,-6.9641,111.7132,Indonesia,ID,Jawa Timur,minor,,
1215,Cikaramat,-6.7638,105.8275,Indonesia,ID,Banten,minor,,
1216,Sukamulya,-7.3779,108.288,Indonesia,ID,Jawa Barat,minor,,
1217,Klakeh,-6.9783,111.6852,Indonesia,ID,Jawa Timur,minor,,
1218,Tanjungsamalantakan,-2.5818,116.4099,Indonesia,ID,Kalimantan Selatan,minor,,
1219,Lawaikanal,-8.1697,124.7726,Indonesia,ID,Nusa Tenggara Timur,minor,,
1220,Jungjungan,-6.9344,113.8386,Indonesia,ID,Jawa Timur,minor,,
1221,Cangkreng,-6.9712,113.8437,Indonesia,ID,Jawa Timur,minor,,
1222,Oro,-6.9748,113.8366,Indonesia,ID,Jawa Timur,minor,,
1223,Kademangan,-8.18,111.6677,Indonesia,ID,Jawa Timur,minor,,
1224,Ngapus,-6.9426,111.2446,Indonesia,ID,Jawa Tengah,minor,,
1225,Krajan,-8.2296,114.33200000000001,Indonesia,ID,Jawa Timur,minor,,
1226,Wayangona,-8.3548,123.0695,Indonesia,ID,Nusa Tenggara Timur,minor,,
1227,Sawahrandu,-7.2603,107.0207,Indonesia,ID,Jawa Barat,minor,,
1228,Kampungpasar,-7.26,107.0315,Indonesia,ID,Jawa Barat,minor,,
1229,Kelungkung,-8.5518,117.3368,Indonesia,ID,Nusa Tenggara Barat,minor,,
1230,Slahung,-8.0349,111.4139,Indonesia,ID,Jawa Timur,minor,,
1231,Cikadu,-7.224,108.1738,Indonesia,ID,Jawa Barat,minor,,
1232,Warung Wetan,-7.3174,108.307,Indonesia,ID,Jawa Barat,minor,,
1233,Torserajah,-6.9797,112.8991,Indonesia,ID,Jawa Timur,minor,,
1234,Koronganayam,-6.9784,112.9409,Indonesia,ID,Jawa Timur,minor,,
1235,Talambung Laok,-7.039498,113.69823000000001,Indonesia,ID,Jawa Timur,minor,,
1236,Pasanggrahan,-6.6052,105.9045,Indonesia,ID,Banten,minor,,
1237,Cibeureum,-6.5991,105.9199,Indonesia,ID,Banten,minor,,
1238,Weetombo,-9.566,119.1284,Indonesia,ID,Nusa Tenggara Timur,minor,,
1239,Senadan,-8.3855,123.2579,Indonesia,ID,Nusa Tenggara Timur,minor,,
1240,Langseb,-7.0188,108.5797,Indonesia,ID,Jawa Barat,minor,,
1241,Lidang A,-8.3803,123.2581,Indonesia,ID,Nusa Tenggara Timur,minor,,
1242,Bejagung Kidul,-6.9205,112.0636,Indonesia,ID,Jawa Timur,minor,,
1243,Babat,-2.7381,103.6401,Indonesia,ID,Sumatera Selatan,minor,,
1244,Gunungempuk,-6.9106,106.4401,Indonesia,ID,Jawa Barat,minor,,
1245,Indrajaya Satu,-7.1751,108.775,Indonesia,ID,Jawa Tengah,minor,,
1246,Cileles,-7.0792,107.9812,Indonesia,ID,Jawa Barat,minor,,
1247,Gulukguluk,-7.0546,113.6754,Indonesia,ID,Jawa Timur,minor,,
1248,Tumpakjoho,-8.1864,111.9139,Indonesia,ID,Jawa Timur,minor,,
1249,Wiralaga Mulya,-3.842778,105.493889,Indonesia,ID,Lampung,minor,,
1250,Talaga,-7.1044,114.0407,Indonesia,ID,Jawa Timur,minor,,
1251,Sungai Nyamuk,4.143827,117.91086999999999,Indonesia,ID,Kalimantan Utara,minor,,
1252,Seda,-10.7694,123.2157,Indonesia,ID,Nusa Tenggara Timur,minor,,
1253,Sedanau,3.793774,108.029294,Indonesia,ID,Kepulauan Riau,minor,,
1254,Sedan,-6.7668,111.5744,Indonesia,ID,Jawa Tengah,minor,,
1255,Lubukgadang,-1.5251,101.2734,Indonesia,ID,Sumatera Barat,minor,,
1256,Singaparna,-7.3515,108.111,Indonesia,ID,Jawa Barat,minor,,
1257,Singaraja,-8.1127,115.0949,Indonesia,ID,Bali,minor,,
1258,Cipeuyeum,-7.0664,108.0889,Indonesia,ID,Jawa Barat,minor,,
1259,Marolidhong,-8.4791,121.0306,Indonesia,ID,Nusa Tenggara Timur,minor,,
1260,Mandapajaya,-7.172999999999999,108.5464,Indonesia,ID,Jawa Barat,minor,,
1261,Semiring,-7.63,114.0222,Indonesia,ID,Jawa Timur,minor,,
1262,Cigugur,-7.6347,108.4203,Indonesia,ID,Jawa Barat,minor,,
1263,Bulakgebang,-7.7431,108.4064,Indonesia,ID,Jawa Barat,minor,,
1264,Cicurug,-7.6603,108.4191,Indonesia,ID,Jawa Barat,minor,,
1265,Banakaja,-6.9758,113.8009,Indonesia,ID,Jawa Timur,minor,,
1266,Kadukandel,-6.4334,105.9098,Indonesia,ID,Banten,minor,,
1267,Karangkebon Timur,-8.62691,116.13751599999999,Indonesia,ID,Nusa Tenggara Barat,minor,,
1268,Gendingan,-8.1738,111.8375,Indonesia,ID,Jawa Timur,minor,,
1269,Margamulya,-7.51,107.7711,Indonesia,ID,Jawa Barat,minor,,
1270,Pasirporong,-7.2549,106.9377,Indonesia,ID,Jawa Barat,minor,,
1271,Timahankrajan,-8.1487,111.6539,Indonesia,ID,Jawa Timur,minor,,
1272,Sepulu,-6.8976,112.9593,Indonesia,ID,Jawa Timur,minor,,
1273,Mislak,-1.728059,105.453248,Indonesia,ID,Kepulauan Bangka Belitung,minor,,
1274,Lengkongbarang,-7.5712,108.2814,Indonesia,ID,Jawa Barat,minor,,
1275,Lubuk Basung,-0.32545,100.06461800000001,Indonesia,ID,Sumatera Barat,minor,,
1276,Kurau,-3.5658,114.5795,Indonesia,ID,Kalimantan Selatan,minor,,
1277,Sragi,-8.1134,112.2983,Indonesia,ID,Jawa Timur,minor,,
1278,Tegalrejo,-8.1125,112.3213,Indonesia,ID,Jawa Timur,minor,,
1279,Tulungrejo,-8.1116,112.3492,Indonesia,ID,Jawa Timur,minor,,
1280,Pasauran,-6.2306,105.8325,Indonesia,ID,Banten,minor,,
1281,Pasar Wajo,-5.4957,122.8447,Indonesia,ID,Sulawesi Tenggara,minor,,
1282,Bunirasa,-7.3343,108.3279,Indonesia,ID,Jawa Barat,minor,,
1283,Ciherang,-7.3365,108.3379,Indonesia,ID,Jawa Barat,minor,,
1284,Pandean,-6.7044,111.348,Indonesia,ID,Jawa Tengah,minor,,
1285,Kutoharjo,-6.7056,111.345,Indonesia,ID,Jawa Tengah,minor,,
1286,Cangkring,-7.5115,108.6319,Indonesia,ID,Jawa Barat,minor,,
1287,Neglasari,-6.5213,106.2941,Indonesia,ID,Banten,minor,,
1288,Nagrog,-6.3182,106.0342,Indonesia,ID,Banten,minor,,
1289,Jambesari,-8.0161,113.384,Indonesia,ID,Jawa Timur,minor,,
1290,Rangah,-8.7819,116.3511,Indonesia,ID,Nusa Tenggara Barat,minor,,
1291,Kepel,-7.3378,108.4863,Indonesia,ID,Jawa Barat,minor,,
1292,Mloko,-8.1684,111.57799999999999,Indonesia,ID,Jawa Timur,minor,,
1293,Krajan Pringapus,-8.1757,111.605,Indonesia,ID,Jawa Timur,minor,,
1294,Tembang,-6.9910000000000005,115.2664,Indonesia,ID,Jawa Timur,minor,,
1295,Tayu,-6.5397,111.0518,Indonesia,ID,Jawa Tengah,minor,,
1296,Lemahsari,-7.1909,107.9684,Indonesia,ID,Jawa Barat,minor,,
1297,Cimanggu,-7.251,106.6714,Indonesia,ID,Jawa Barat,minor,,
1298,Cigembor,-7.6164,108.1902,Indonesia,ID,Jawa Barat,minor,,
1299,Sukoharjo Satu,-5.300941000000001,104.983287,Indonesia,ID,Lampung,minor,,
1300,Seteluk Atas,-8.6282,116.8695,Indonesia,ID,Nusa Tenggara Barat,minor,,
1301,Rempe,-8.6472,116.8663,Indonesia,ID,Nusa Tenggara Barat,minor,,
1302,Airsuning,-8.6508,116.8547,Indonesia,ID,Nusa Tenggara Barat,minor,,
1303,Sobo,-8.8237,121.0224,Indonesia,ID,Nusa Tenggara Timur,minor,,
1304,Siwalan,-6.939,112.4343,Indonesia,ID,Jawa Timur,minor,,
1305,Ganti Dua,-8.7692,116.3953,Indonesia,ID,Nusa Tenggara Barat,minor,,
1306,Parakanhonje Wetan,-7.2801,108.1944,Indonesia,ID,Jawa Barat,minor,,
1307,Pancoran,-7.1035,113.5201,Indonesia,ID,Jawa Timur,minor,,
1308,Sukahaji,-7.2662,108.1984,Indonesia,ID,Jawa Barat,minor,,
1309,Kebonbencoy,-7.2535,108.1874,Indonesia,ID,Jawa Barat,minor,,
1310,Poteran,-7.1523,114.6001,Indonesia,ID,Jawa Timur,minor,,
1311,Banjar Pedawa,-8.2367,115.0258,Indonesia,ID,Bali,minor,,
1312,Banjar Dauhpura,-8.2019,115.0232,Indonesia,ID,Bali,minor,,
1313,Samaran,-6.7747,111.4759,Indonesia,ID,Jawa Tengah,minor,,
1314,Cayur,-7.5875,108.281,Indonesia,ID,Jawa Barat,minor,,
1315,Mbarungkeli,-8.4052,120.9965,Indonesia,ID,Nusa Tenggara Timur,minor,,
1316,Kedondong,-5.46284,105.0009,Indonesia,ID,Lampung,minor,,
1317,Parit Malintang,-0.620456,100.278848,Indonesia,ID,Sumatera Barat,minor,,
1318,Cikamunding,-6.9065,106.3858,Indonesia,ID,Banten,minor,,
1319,Salamwates,-8.226,111.565,Indonesia,ID,Jawa Timur,minor,,
1320,Pantai Ceuremen,4.369011,96.195552,Indonesia,ID,Aceh,minor,,
1321,Krajan,-8.1968,113.162,Indonesia,ID,Jawa Timur,minor,,
1322,Warmare,-1.1143,133.9361,Indonesia,ID,Papua Barat,minor,,
1323,Tenggilis Lama,-7.3166,112.7628,Indonesia,ID,Jawa Timur,minor,,
1324,Randegan,-7.3522,108.5712,Indonesia,ID,Jawa Barat,minor,,
1325,Wulublolong,-8.4391,123.042,Indonesia,ID,Nusa Tenggara Timur,minor,,
1326,Baolokan,-8.7755,121.8887,Indonesia,ID,Nusa Tenggara Timur,minor,,
1327,Sukamandi,-7.1606,108.0142,Indonesia,ID,Jawa Barat,minor,,
1328,Natar,-5.308973,105.19251100000001,Indonesia,ID,Lampung,minor,,
1329,Weekaka,-9.5662,119.2206,Indonesia,ID,Nusa Tenggara Timur,minor,,
1330,Dusun Desa Sukadana,-7.2617,108.4322,Indonesia,ID,Jawa Barat,minor,,
1331,Mangkon Daja,-6.9602,112.8521,Indonesia,ID,Jawa Timur,minor,,
1332,Panjangjiwo,-7.3129,112.7641,Indonesia,ID,Jawa Timur,minor,,
1333,Batulawang,-7.5672,108.1818,Indonesia,ID,Jawa Barat,minor,,
1334,Batutanata,-8.2148,124.5256,Indonesia,ID,Nusa Tenggara Timur,minor,,
1335,Cikomara,-6.5683,106.4116,Indonesia,ID,Banten,minor,,
1336,Talang Suko,-8.140753,112.686834,Indonesia,ID,Jawa Timur,minor,,
1337,Kedok,-8.148909,112.69485300000001,Indonesia,ID,Jawa Timur,minor,,
1338,Fukadale,-10.6818,123.3537,Indonesia,ID,Nusa Tenggara Timur,minor,,
1339,Leuweungkolot,-6.3925,105.9286,Indonesia,ID,Banten,minor,,
1340,Srunikrajan,-8.003,113.2353,Indonesia,ID,Jawa Timur,minor,,
1341,Darungan Lor,-8.0438,113.2345,Indonesia,ID,Jawa Timur,minor,,
1342,Krajan Sumberanget,-8.113,113.8437,Indonesia,ID,Jawa Timur,minor,,
1343,Krajan Ledokombo,-8.12,113.8614,Indonesia,ID,Jawa Timur,minor,,
1344,Sumberketempah,-8.1168,113.8273,Indonesia,ID,Jawa Timur,minor,,
1345,Faaming,-8.2715,124.4485,Indonesia,ID,Nusa Tenggara Timur,minor,,
1346,Blayu,-8.1119,112.7347,Indonesia,ID,Jawa Timur,minor,,
1347,Garisul,-6.5055,106.4959,Indonesia,ID,Jawa Barat,minor,,
1348,Suwaru,-8.175606,111.78079199999999,Indonesia,ID,Jawa Timur,minor,,
1349,Mulyo,-8.1714,111.7981,Indonesia,ID,Jawa Timur,minor,,
1350,Krajan Tengah,-8.2142,113.1954,Indonesia,ID,Jawa Timur,minor,,
1351,Kebonsari,-8.210982000000001,113.17019499999999,Indonesia,ID,Jawa Timur,minor,,
1352,Kandangan,-8.5415,113.9709,Indonesia,ID,Jawa Timur,minor,,
1353,Kebar,-0.8474,133.1457,Indonesia,ID,Papua Barat,minor,,
1354,Tanagara,-6.2654,106.0953,Indonesia,ID,Banten,minor,,
1355,Kalepasan,-6.26,106.0799,Indonesia,ID,Banten,minor,,
1356,Banjar Tambaksari,-8.102,115.0945,Indonesia,ID,Bali,minor,,
1357,Banjar Tegal,-8.1243,115.0891,Indonesia,ID,Bali,minor,,
1358,Kotabaru,-4.2137,120.0096,Indonesia,ID,Sulawesi Selatan,minor,,
1359,Pagarbatu,-7.1328,113.8614,Indonesia,ID,Jawa Timur,minor,,
1360,Ngkiong,-8.5675,120.6568,Indonesia,ID,Nusa Tenggara Timur,minor,,
1361,Rendole,-6.733,111.012,Indonesia,ID,Jawa Tengah,minor,,
1362,Jawa,-8.562000000000001,120.6371,Indonesia,ID,Nusa Tenggara Timur,minor,,
1363,Gunungbatu,-7.4097,107.2871,Indonesia,ID,Jawa Barat,minor,,
1364,Parumaan,-8.4546,122.4434,Indonesia,ID,Nusa Tenggara Timur,minor,,
1365,Ngepungkrajan,-6.7205,111.0717,Indonesia,ID,Jawa Tengah,minor,,
1366,Oebatu,-10.8142,123.0128,Indonesia,ID,Nusa Tenggara Timur,minor,,
1367,Krajan Satu,-8.0976,113.1867,Indonesia,ID,Jawa Timur,minor,,
1368,Pugoh,-6.8098,111.77,Indonesia,ID,Jawa Timur,minor,,
1369,Jetis,-6.9122,111.6263,Indonesia,ID,Jawa Timur,minor,,
1370,Kumanis,-0.5497,100.831,Indonesia,ID,Sumatera Barat,minor,,
1371,Cikembar,-7.3977,107.8386,Indonesia,ID,Jawa Barat,minor,,
1372,Banaran,-6.8617,111.9565,Indonesia,ID,Jawa Timur,minor,,
1373,Suwalan,-6.8428,111.98100000000001,Indonesia,ID,Jawa Timur,minor,,
1374,Fuskou,-10.2105,123.9968,Indonesia,ID,Nusa Tenggara Timur,minor,,
1375,Tegaljaya,-7.2124,106.9166,Indonesia,ID,Jawa Barat,minor,,
1376,Lalukoen Dua,-10.8632,122.9266,Indonesia,ID,Nusa Tenggara Timur,minor,,
1377,Baos,-8.0433,112.3236,Indonesia,ID,Jawa Timur,minor,,
1378,Sukosewu Satu,-8.0428,112.2958,Indonesia,ID,Jawa Timur,minor,,
1379,Sumberagung Satu,-8.0464,112.2772,Indonesia,ID,Jawa Timur,minor,,
1380,Bolangitang,0.9068,123.3067,Indonesia,ID,Sulawesi Utara,minor,,
1381,Krapyak Kidul,-8.094,112.6468,Indonesia,ID,Jawa Timur,minor,,
1382,Bantarmunding,-7.4796,107.4287,Indonesia,ID,Jawa Barat,minor,,
1383,Sampung,-6.7838,111.652,Indonesia,ID,Jawa Tengah,minor,,
1384,Krajanbonjor,-6.7839,111.6394,Indonesia,ID,Jawa Tengah,minor,,
1385,Kotabesi,-2.3715,113.0025,Indonesia,ID,Kalimantan Tengah,minor,,
1386,Durenan,-8.2441,113.6536,Indonesia,ID,Jawa Timur,minor,,
1387,Ebak,-8.238272,123.519527,Indonesia,ID,Nusa Tenggara Timur,minor,,
1388,Pakenjeng,-7.411811,107.69048899999999,Indonesia,ID,Jawa Barat,minor,,
1389,Peranap,-0.5449,101.9837,Indonesia,ID,Riau,minor,,
1390,Karanganyar,-7.7926,108.3405,Indonesia,ID,Jawa Barat,minor,,
1391,Lengkorandang,-8.347000000000001,120.7843,Indonesia,ID,Nusa Tenggara Timur,minor,,
1392,Welai,-8.2354,124.5605,Indonesia,ID,Nusa Tenggara Timur,minor,,
1393,Sumberejo,-8.0719,111.8018,Indonesia,ID,Jawa Timur,minor,,
1394,Maguan,-8.0712,112.537,Indonesia,ID,Jawa Timur,minor,,
1395,Magepanda,-8.5487,122.0486,Indonesia,ID,Nusa Tenggara Timur,minor,,
1396,Magetan,-7.656667,111.33138899999999,Indonesia,ID,Jawa Timur,minor,,
1397,Sumberan,-8.4003,114.2681,Indonesia,ID,Jawa Timur,minor,,
1398,Nangalimang,-8.6469,122.2058,Indonesia,ID,Nusa Tenggara Timur,minor,,
1399,Kutampi,-8.6742,115.5523,Indonesia,ID,Bali,minor,,
1400,Natu,-8.3401,121.7409,Indonesia,ID,Nusa Tenggara Timur,minor,,
1401,Watulimo,-8.2211,111.7155,Indonesia,ID,Jawa Timur,minor,,
1402,Bokor,-7.5248,107.6126,Indonesia,ID,Jawa Barat,minor,,
1403,Bendorubuh,-8.1377,112.0026,Indonesia,ID,Jawa Timur,minor,,
1404,Tugu,-8.1406,112.0309,Indonesia,ID,Jawa Timur,minor,,
1405,Sukomulyo,-8.2228,112.3799,Indonesia,ID,Jawa Timur,minor,,
1406,Peujeuh,-7.0152,107.978,Indonesia,ID,Jawa Barat,minor,,
1407,Dusundesa,-7.4051,108.2846,Indonesia,ID,Jawa Barat,minor,,
1408,Umakadambung,-10.2136,120.5602,Indonesia,ID,Nusa Tenggara Timur,minor,,
1409,Patawang,-9.8107,120.6225,Indonesia,ID,Nusa Tenggara Timur,minor,,
1410,Ratenggoji,-8.6851,121.9164,Indonesia,ID,Nusa Tenggara Timur,minor,,
1411,Margaharja,-7.2593,108.4503,Indonesia,ID,Jawa Barat,minor,,
1412,Pahing Margamukti,-7.013,108.6883,Indonesia,ID,Jawa Barat,minor,,
1413,Parewatana,-9.6161,119.6441,Indonesia,ID,Nusa Tenggara Timur,minor,,
1414,Salakuray,-7.2564,107.8643,Indonesia,ID,Jawa Barat,minor,,
1415,Cidolog,-7.3167,106.8395,Indonesia,ID,Jawa Barat,minor,,
1416,Selasari,-7.6203,108.5205,Indonesia,ID,Jawa Barat,minor,,
1417,Sale,-6.8619,111.6043,Indonesia,ID,Jawa Tengah,minor,,
1418,Salawu,-7.3755,108.0325,Indonesia,ID,Jawa Barat,minor,,
1419,Auona,-8.2872,123.2594,Indonesia,ID,Nusa Tenggara Timur,minor,,
1420,Lewokemie,-8.283,123.2749,Indonesia,ID,Nusa Tenggara Timur,minor,,
1421,Loga,-8.2869,123.2571,Indonesia,ID,Nusa Tenggara Timur,minor,,
1422,Petang,-8.3963,115.2187,Indonesia,ID,Bali,minor,,
1423,Karangdawa Barat,-6.131807,106.11093600000001,Indonesia,ID,Banten,minor,,
1424,Sesaot Lauq,-8.5408,116.2448,Indonesia,ID,Nusa Tenggara Barat,minor,,
1425,Ngromo,-8.2025,111.4181,Indonesia,ID,Jawa Timur,minor,,
1426,Rantaupangiang,-2.4962,102.2505,Indonesia,ID,Jambi,minor,,
1427,Dukuh Lor,-7.1629,111.6601,Indonesia,ID,Jawa Timur,minor,,
1428,Tembeling,-7.164,111.6507,Indonesia,ID,Jawa Timur,minor,,
1429,Ngayem,-8.1955,111.8734,Indonesia,ID,Jawa Timur,minor,,
1430,Wuluhan,-8.3376,113.5503,Indonesia,ID,Jawa Timur,minor,,
1431,Majasem,-6.7624,111.2559,Indonesia,ID,Jawa Tengah,minor,,
1432,Kuala Baru Sungai,2.407788,97.740465,Indonesia,ID,Aceh,minor,,
1433,Hinga,-8.3085,123.2288,Indonesia,ID,Nusa Tenggara Timur,minor,,
1434,Moru,-8.2568,124.5155,Indonesia,ID,Nusa Tenggara Timur,minor,,
1435,Desakolot,-7.4863,108.1267,Indonesia,ID,Jawa Barat,minor,,
1436,Perumahan Kopi,-6.677025,105.96086000000001,Indonesia,ID,Banten,minor,,
1437,Karipidita,-9.7138,120.0297,Indonesia,ID,Nusa Tenggara Timur,minor,,
1438,Pagaden,-7.3208,108.1566,Indonesia,ID,Jawa Barat,minor,,
1439,Prailangina,-9.64852,119.74536100000002,Indonesia,ID,Nusa Tenggara Timur,minor,,
1440,Lorejo,-8.2336,112.1191,Indonesia,ID,Jawa Timur,minor,,
1441,Kedungbanteng,-8.2381,112.0926,Indonesia,ID,Jawa Timur,minor,,
1442,Ngrejo,-8.2385,112.081,Indonesia,ID,Jawa Timur,minor,,
1443,Kadubadak,-6.6476,105.8611,Indonesia,ID,Banten,minor,,
1444,Sungaikakap,-0.05193300000000001,109.20741000000001,Indonesia,ID,Kalimantan Barat,minor,,
1445,Karang,-6.7335,111.1589,Indonesia,ID,Jawa Tengah,minor,,
1446,Bagu,-6.7262,111.1295,Indonesia,ID,Jawa Tengah,minor,,
1447,Simpang,-7.6231,108.1064,Indonesia,ID,Jawa Barat,minor,,
1448,Tluwah,-6.7309,111.1439,Indonesia,ID,Jawa Tengah,minor,,
1449,Wanga,-9.7546,120.584,Indonesia,ID,Nusa Tenggara Timur,minor,,
1450,Banjar Anyar,-8.151,115.0552,Indonesia,ID,Bali,minor,,
1451,Darunban,-8.1934,113.2618,Indonesia,ID,Jawa Timur,minor,,
1452,Ciherang,-7.4936,108.6277,Indonesia,ID,Jawa Barat,minor,,
1453,Cilegi,-7.5284,108.2718,Indonesia,ID,Jawa Barat,minor,,
1454,Sarimukti,-7.0315,108.31299999999999,Indonesia,ID,Jawa Barat,minor,,
1455,Setanggor,-8.6537,116.4812,Indonesia,ID,Nusa Tenggara Barat,minor,,
1456,Bulubrangsi,-6.9632,112.354,Indonesia,ID,Jawa Timur,minor,,
1457,Habo,-10.311,123.8371,Indonesia,ID,Nusa Tenggara Timur,minor,,
1458,Riit,-8.6553,122.1274,Indonesia,ID,Nusa Tenggara Timur,minor,,
1459,Madawat,-8.6274,122.2117,Indonesia,ID,Nusa Tenggara Timur,minor,,
1460,Eahun,-10.6146,123.3852,Indonesia,ID,Nusa Tenggara Timur,minor,,
1461,Golopau,-8.4101,120.5502,Indonesia,ID,Nusa Tenggara Timur,minor,,
1462,Tertek,-8.1224,111.8148,Indonesia,ID,Jawa Timur,minor,,
1463,Nglengkong,-8.1077,111.8347,Indonesia,ID,Jawa Timur,minor,,
1464,Ngamplang,-7.2543,107.8999,Indonesia,ID,Jawa Barat,minor,,
1465,Jajar,-8.1091,111.8192,Indonesia,ID,Jawa Timur,minor,,
1466,Wolokoli,-8.7281,122.2805,Indonesia,ID,Nusa Tenggara Timur,minor,,
1467,Golomunta,-8.4636,120.5128,Indonesia,ID,Nusa Tenggara Timur,minor,,
1468,Talagajaya,-7.4158,107.8727,Indonesia,ID,Jawa Barat,minor,,
1469,Randangan,-6.7084,110.9897,Indonesia,ID,Jawa Tengah,minor,,
1470,Sidayu,-6.9993,112.5636,Indonesia,ID,Jawa Timur,minor,,
1471,Masat,-4.380573,102.954375,Indonesia,ID,Bengkulu,minor,,
1472,Badung,-8.4355,115.2437,Indonesia,ID,Bali,minor,,
1473,Utama Wetan,-7.3216,108.3821,Indonesia,ID,Jawa Barat,minor,,
1474,Dusun Desa Handapherang,-7.3429,108.3796,Indonesia,ID,Jawa Barat,minor,,
1475,Tepal,-8.6261,117.1787,Indonesia,ID,Nusa Tenggara Barat,minor,,
1476,Daikela,-10.5684,121.8988,Indonesia,ID,Nusa Tenggara Timur,minor,,
1477,Banaran,-8.0331,111.8661,Indonesia,ID,Jawa Timur,minor,,
1478,Apuri,-8.3161,124.3651,Indonesia,ID,Nusa Tenggara Timur,minor,,
1479,Lebak,-6.6407229999999995,105.8752,Indonesia,ID,Banten,minor,,
1480,Tepas,-8.716667,116.91666699999999,Indonesia,ID,Nusa Tenggara Barat,minor,,
1481,Karangduwak,-6.9788,112.8473,Indonesia,ID,Jawa Timur,minor,,
1482,Habiwetak,-8.6547,122.2447,Indonesia,ID,Nusa Tenggara Timur,minor,,
1483,Kertosono,-8.2183,111.4504,Indonesia,ID,Jawa Timur,minor,,
1484,Burujul Tengah,-7.6286,108.073,Indonesia,ID,Jawa Barat,minor,,
1485,Krajan Satu,-8.1812,113.1486,Indonesia,ID,Jawa Timur,minor,,
1486,Rantang,-8.5485,120.7419,Indonesia,ID,Nusa Tenggara Timur,minor,,
1487,Tawali,-8.3407,118.9145,Indonesia,ID,Nusa Tenggara Barat,minor,,
