,city,lat,lng,country,iso2,admin,capital,population,population_proper
0,Mumbai,18.987807,72.83644699999999,India,IN,Mahārāshtra,admin,18978000.0,12691836.0
1,Delhi,28.651952,77.231495,India,IN,Delhi,admin,15926000.0,7633213.0
2,Kolkata,22.562627,88.36304399999999,India,IN,West Bengal,admin,14787000.0,4631392.0
3,Chennai,13.084622,80.248357,India,IN,Tamil Nādu ,admin,7163000.0,4328063.0
4,Bengalūru,12.977063000000001,77.587106,India,IN,Karnātaka,admin,6787000.0,5104047.0
5,Hyderabad,17.384052,78.456355,India,IN,Andhra Pradesh,admin,6376000.0,3597816.0
6,Ahmadābād,23.025793,72.587265,India,IN,Gujarāt,minor,5375000.0,3719710.0
7,Hāora,22.576882,88.318566,India,IN,West Bengal,,4841638.0,1027672.0
8,Pune,18.513271,73.849852,India,IN,Mahārāshtra,,4672000.0,2935744.0
9,Sūrat,21.195944,72.830232,India,IN,Gujarāt,,3842000.0,2894504.0
10,Mardānpur,26.430065999999997,80.267176,India,IN,Uttar Pradesh,,3162000.0,2823249.0
11,Rāmpura,26.884682,75.78933599999999,India,IN,Rājasthān,,2917000.0,2711758.0
12,Lucknow,26.839281,80.92313299999999,India,IN,Uttar Pradesh,admin,2695000.0,2472011.0
13,Nāra,21.203096,79.08928399999999,India,IN,Mahārāshtra,,2454000.0,2228018.0
14,Patna,25.615379,85.101027,India,IN,Bihār,admin,2158000.0,1599920.0
15,Indore,22.717736,75.85859,India,IN,Madhya Pradesh,,2026000.0,1837041.0
16,Vadodara,22.299405,73.208119,India,IN,Gujarāt,,1756000.0,1409476.0
17,Bhopal,23.254688,77.40289200000001,India,IN,Madhya Pradesh,admin,1727000.0,1599914.0
18,Coimbatore,11.005547,76.966122,India,IN,Tamil Nādu ,,1696000.0,959823.0
19,Ludhiāna,30.912042,75.853789,India,IN,Punjab,,1649000.0,1545368.0
20,Āgra,27.187934999999996,78.00394399999999,India,IN,Uttar Pradesh,,1592000.0,1430055.0
21,Kalyān,19.243703,73.135537,India,IN,Mahārāshtra,,1576614.0,1576614.0
22,Vishākhapatnam,17.704051999999997,83.297663,India,IN,Andhra Pradesh,,1529000.0,1063178.0
23,Kochi,9.947743,76.25380200000001,India,IN,Kerala,,1519000.0,604696.0
24,Nāsik,19.999963,73.776887,India,IN,Mahārāshtra,,1473000.0,1289497.0
25,Meerut,28.980017999999998,77.706356,India,IN,Uttar Pradesh,,1398000.0,1223184.0
26,Farīdābād,28.411236,77.313162,India,IN,Haryāna,,1394000.0,1394000.0
27,Vārānasi,25.31774,83.005811,India,IN,Uttar Pradesh,,1352000.0,1164404.0
28,Ghāziābād,28.665353000000003,77.439148,India,IN,Uttar Pradesh,,1341000.0,1199191.0
29,Āsansol,23.683332999999998,86.983333,India,IN,West Bengal,,1328000.0,1328000.0
30,Jamshedpur,22.802776,86.185448,India,IN,Jharkhand,,1300000.0,616338.0
31,Madurai,9.917347,78.11962199999999,India,IN,Tamil Nādu ,,1294000.0,909908.0
32,Jabalpur,23.174495,79.935903,India,IN,Madhya Pradesh,,1285000.0,1030168.0
33,Rājkot,22.291605999999998,70.793217,India,IN,Gujarāt,,1260000.0,1099882.0
34,Dhanbād,23.801988,86.44324399999999,India,IN,Jharkhand,,1246000.0,219636.0
35,Amritsar,31.622336999999998,74.87533499999999,India,IN,Punjab,,1212000.0,1092450.0
36,Warangal,17.978423,79.60020899999999,India,IN,Andhra Pradesh,,1203853.0,865527.0
37,Allahābād,25.444779999999998,81.84321700000001,India,IN,Uttar Pradesh,,1201000.0,1073438.0
38,Srīnagar,34.085652,74.805553,India,IN,Jammu and Kashmīr,admin,1140000.0,975857.0
39,Aurangābād,19.880943,75.346739,India,IN,Mahārāshtra,,1113000.0,1016441.0
40,Bhilai,21.209188,81.428497,India,IN,Chhattīsgarh,,1097000.0,1097000.0
41,Solāpur,17.671523,75.910437,India,IN,Mahārāshtra,,1057000.0,961112.0
42,Ranchi,23.347768,85.338564,India,IN,Jharkhand,admin,1044000.0,846454.0
43,Jodhpur,26.26841,73.005943,India,IN,Rājasthān,,995000.0,921476.0
44,Guwāhāti,26.176076000000002,91.76293199999999,India,IN,Assam,,983000.0,17516.0
45,Chandigarh,30.736292,76.788398,India,IN,Chandīgarh,admin,979000.0,914371.0
46,Gwalior,26.229825,78.173369,India,IN,Madhya Pradesh,,978000.0,882458.0
47,Thiruvananthapuram,8.485498,76.949238,India,IN,Kerala,admin,954000.0,784153.0
48,Tiruchchirāppalli,10.815499,78.696513,India,IN,Tamil Nādu ,,951000.0,775484.0
49,Hubli,15.349955,75.13861899999999,India,IN,Karnātaka,,890000.0,792804.0
50,Mysore,12.292664,76.638543,India,IN,Karnātaka,,887000.0,868313.0
51,Raipur,21.233333,81.633333,India,IN,Chhattīsgarh,admin,875000.0,679995.0
52,Salem,11.651164999999999,78.158672,India,IN,Tamil Nādu ,,873000.0,778396.0
53,Bhubaneshwar,20.272410999999998,85.833853,India,IN,Odisha,admin,844000.0,762243.0
54,Kota,25.182544,75.839065,India,IN,Rājasthān,,827000.0,763088.0
55,Jhānsi,25.458872,78.579943,India,IN,Uttar Pradesh,,826494.0,412927.0
56,Bareilly,28.347022999999997,79.421934,India,IN,Uttar Pradesh,,817000.0,745435.0
57,Alīgarh,27.881453000000004,78.07464,India,IN,Uttar Pradesh,,805000.0,753207.0
58,Bhiwandi,19.300229,73.058813,India,IN,Mahārāshtra,,795000.0,707035.0
59,Jammu,32.735686,74.869112,India,IN,Jammu and Kashmīr,,791000.0,465567.0
60,Morādābād,28.838931,78.776838,India,IN,Uttar Pradesh,,787000.0,721139.0
61,Mangalore,12.865371000000001,74.84243199999999,India,IN,Karnātaka,,776632.0,417387.0
62,Kolhāpur,16.695632999999997,74.231669,India,IN,Mahārāshtra,,750000.0,561841.0
63,Amrāvati,20.933272,77.75152,India,IN,Mahārāshtra,,734451.0,603837.0
64,Dehra Dūn,30.324427000000004,78.033922,India,IN,Uttarakhand,admin,714223.0,578420.0
65,Mālegaon Camp,20.569974,74.515415,India,IN,Mahārāshtra,,690844.0,435362.0
66,Nellore,14.449917999999998,79.986967,India,IN,Andhra Pradesh,,678004.0,404158.0
67,Gopālpur,26.735389,83.38064,India,IN,Uttar Pradesh,,674246.0,674246.0
68,Shimoga,13.932424,75.57255500000001,India,IN,Karnātaka,,654055.0,319550.0
69,Tiruppūr,11.104096,77.346402,India,IN,Tamil Nādu ,,650000.0,444543.0
70,Raurkela,22.224964,84.864143,India,IN,Odisha,,625831.0,483629.0
71,Nānded,19.160227,77.314971,India,IN,Mahārāshtra,,623708.0,550564.0
72,Belgaum,15.862642999999998,74.508534,India,IN,Karnātaka,,608756.0,610189.0
73,Sāngli,16.856776999999997,74.56919599999999,India,IN,Mahārāshtra,,601214.0,601214.0
74,Chānda,19.950758,79.295229,India,IN,Mahārāshtra,,595118.0,328351.0
75,Ajmer,26.452103,74.638667,India,IN,Rājasthān,,589985.0,517911.0
76,Cuttack,20.522922,85.78813000000001,India,IN,Odisha,,580000.0,580000.0
77,Bīkaner,28.017622999999997,73.314955,India,IN,Rājasthān,,576015.0,395908.0
78,Bhāvnagar,21.774455,72.152496,India,IN,Gujarāt,,554978.0,464602.0
79,Hisar,29.153938,75.722944,India,IN,Haryāna,,544829.0,301249.0
80,Bilāspur,22.080046,82.15543100000001,India,IN,Chhattīsgarh,,543454.0,330106.0
81,Tirunelveli,8.725181,77.684519,India,IN,Tamil Nādu ,,542200.0,435844.0
82,Guntūr,16.299737,80.457293,India,IN,Andhra Pradesh,,530577.0,530577.0
83,Shiliguri,26.710034999999998,88.428512,India,IN,West Bengal,,515574.0,515574.0
84,Ujjain,23.182387,75.776433,India,IN,Madhya Pradesh,,513350.0,457346.0
85,Davangere,14.469237,75.92375,India,IN,Karnātaka,,503564.0,435125.0
86,Akola,20.709569000000002,76.998103,India,IN,Mahārāshtra,,503502.0,428857.0
87,Sahāranpur,29.967896000000003,77.545221,India,IN,Uttar Pradesh,,484873.0,484873.0
88,Gulbarga,17.335827,76.83757,India,IN,Karnātaka,,483615.0,481478.0
89,Bhātpāra,22.866431,88.401129,India,IN,West Bengal,,483129.0,483129.0
90,Dhūlia,20.901298999999998,74.777373,India,IN,Mahārāshtra,,479073.0,366980.0
91,Udaipur,24.57951,73.690508,India,IN,Rājasthān,,469737.0,422784.0
92,Bellary,15.142048999999998,76.92398,India,IN,Karnātaka,,445388.0,336681.0
93,Tuticorin,8.805038,78.151884,India,IN,Tamil Nādu ,,436094.0,436094.0
94,Kurnool,15.828864999999999,78.03602099999999,India,IN,Andhra Pradesh,,424920.0,278124.0
95,Gaya,24.796858,85.003852,India,IN,Bihār,,423692.0,423692.0
96,Sīkar,27.614778,75.138671,India,IN,Rājasthān,,400000.0,237579.0
97,Tumkūr,13.341358,77.102203,India,IN,Karnātaka,,399606.0,307359.0
98,Kollam,8.881131,76.584694,India,IN,Kerala,,394163.0,394163.0
99,Ahmadnagar,19.094571,74.73843199999999,India,IN,Mahārāshtra,,391760.0,367140.0
100,Bhīlwāra,25.347071,74.640812,India,IN,Rājasthān,,389911.0,326431.0
101,Nizāmābād,18.673151,78.10008,India,IN,Andhra Pradesh,,388505.0,305438.0
102,Parbhani,19.268553,76.77080699999999,India,IN,Mahārāshtra,,378326.0,289629.0
103,Shillong,25.573987,91.896807,India,IN,Meghālaya,admin,375527.0,354325.0
104,Lātūr,18.399487,76.584252,India,IN,Mahārāshtra,,374394.0,348967.0
105,Rājapālaiyam,9.451111000000001,77.55612099999999,India,IN,Tamil Nādu ,,369991.0,307959.0
106,Bhāgalpur,25.244462,86.97183199999999,India,IN,Bihār,,361548.0,361548.0
107,Muzaffarnagar,29.470914,77.703324,India,IN,Uttar Pradesh,,349706.0,349706.0
108,Muzaffarpur,26.122593,85.390553,India,IN,Bihār,,333200.0,333200.0
109,Mathura,27.503501,77.672145,India,IN,Uttar Pradesh,,330511.0,330511.0
110,Patiāla,30.336245,76.392199,India,IN,Punjab,,329224.0,329224.0
111,Saugor,23.838766,78.738738,India,IN,Madhya Pradesh,,328240.0,247333.0
112,Brahmapur,19.311514000000003,84.79290300000001,India,IN,Odisha,,324726.0,324726.0
113,Shāhbāzpur,27.874115999999997,79.879327,India,IN,Uttar Pradesh,,320434.0,320434.0
114,New Delhi,28.6,77.2,India,IN,Delhi,primary,317797.0,317797.0
115,Rohtak,28.894472999999998,76.589166,India,IN,Haryāna,,317245.0,317245.0
116,Samlaipādar,21.478072,83.990505,India,IN,Odisha,,310852.0,162887.0
117,Ratlām,23.330331,75.040315,India,IN,Madhya Pradesh,,307229.0,236843.0
118,Fīrozābād,27.150917,78.397808,India,IN,Uttar Pradesh,,306409.0,306409.0
119,Rājahmundry,17.005171,81.777839,India,IN,Andhra Pradesh,,304804.0,304804.0
120,Barddhamān,23.255716,87.85690600000001,India,IN,West Bengal,,301725.0,301725.0
121,Bīdar,17.913308999999998,77.530105,India,IN,Karnātaka,,300136.0,204071.0
122,Bamanpurī,28.804495000000003,79.040305,India,IN,Uttar Pradesh,,296418.0,296418.0
123,Kākināda,16.960361,82.238086,India,IN,Andhra Pradesh,,292923.0,292923.0
124,Pānīpat,29.387471,76.968246,India,IN,Haryāna,,292808.0,292808.0
125,Khammam,17.247672,80.143682,India,IN,Andhra Pradesh,,290839.0,170503.0
126,Bhuj,23.253972,69.66928100000001,India,IN,Gujarāt,,289429.0,289429.0
127,Karīmnagar,18.436738000000002,79.13221999999999,India,IN,Andhra Pradesh,,288251.0,228745.0
128,Tirupati,13.635504999999998,79.419888,India,IN,Andhra Pradesh,,287035.0,250821.0
129,Hospet,15.269537,76.387103,India,IN,Karnātaka,,286007.0,197846.0
130,Chikka Mandya,12.545602,76.895078,India,IN,Karnātaka,,285034.0,134845.0
131,Alwar,27.566290999999996,76.610202,India,IN,Rājasthān,,283228.0,283228.0
132,Aizawl,23.736701,92.714596,India,IN,Mizoram,admin,283021.0,265331.0
133,Bijāpur,16.827714999999998,75.718988,India,IN,Karnātaka,,271064.0,270870.0
134,Imphal,24.808053,93.944203,India,IN,Manipur,admin,264986.0,223523.0
135,Tharati Etawah,26.758236,79.014875,India,IN,Uttar Pradesh,,257448.0,257448.0
136,Rāichūr,16.205459,77.35566999999999,India,IN,Karnātaka,,255240.0,225962.0
137,Pathānkot,32.274842,75.652865,India,IN,Punjab,,253987.0,174306.0
138,Chīrāla,15.823849,80.352187,India,IN,Andhra Pradesh,,253000.0,87001.0
139,Sonīpat,28.994778000000004,77.019375,India,IN,Haryāna,,250521.0,250521.0
140,Mirzāpur,25.144902,82.565335,India,IN,Uttar Pradesh,,245817.0,233691.0
141,Hāpur,28.729845,77.780681,India,IN,Uttar Pradesh,,242920.0,242920.0
142,Porbandar,21.641346,69.600868,India,IN,Gujarāt,,234684.0,138872.0
143,Bharatpur,27.215251000000002,77.492786,India,IN,Rājasthān,,229384.0,229384.0
144,Puducherry,11.933812,79.829792,India,IN,Puducherry,admin,227411.0,227411.0
145,Karnāl,29.691971000000002,76.984483,India,IN,Haryāna,,225049.0,225049.0
146,Nāgercoil,8.177313,77.43437,India,IN,Tamil Nādu ,,224329.0,213858.0
147,Thanjāvūr,10.785233,79.139093,India,IN,Tamil Nādu ,,219571.0,219571.0
148,Pāli,25.775125,73.320611,India,IN,Rājasthān,,210103.0,207394.0
149,Agartala,23.836049,91.279386,India,IN,Tripura,admin,203264.0,203264.0
150,Ongole,15.503565,80.04454100000001,India,IN,Andhra Pradesh,,202860.0,172872.0
151,Puri,19.798254,85.824938,India,IN,Odisha,,201026.0,201026.0
152,Dindigul,10.362853,77.975827,India,IN,Tamil Nādu ,,200797.0,200797.0
153,Haldia,22.025278,88.05833299999999,India,IN,West Bengal,,200762.0,200762.0
154,Bulandshahr,28.403921999999998,77.857731,India,IN,Uttar Pradesh,,198612.0,198612.0
155,Purnea,25.776703,87.47365500000001,India,IN,Bihār,,198453.0,198453.0
156,Proddatūr,14.7502,78.548129,India,IN,Andhra Pradesh,,197451.0,177797.0
157,Gurgaon,28.460105,77.026352,India,IN,Haryāna,,197340.0,197340.0
158,Khānāpur,21.273716,76.11737600000001,India,IN,Mahārāshtra,,197233.0,197233.0
159,Machilīpatnam,16.187466,81.13888,India,IN,Andhra Pradesh,,192827.0,192827.0
160,Bhiwāni,28.793044000000002,76.13968,India,IN,Haryāna,,190855.0,190855.0
161,Nandyāl,15.477994,78.48360500000001,India,IN,Andhra Pradesh,,188654.0,165337.0
162,Bhusāval,21.043649,75.78505799999999,India,IN,Mahārāshtra,,183001.0,172366.0
163,Bharauri,27.598203,81.694709,India,IN,Uttar Pradesh,,182218.0,182218.0
164,Tonk,26.168672,75.786111,India,IN,Rājasthān,,181734.0,151331.0
165,Sirsa,29.534893,75.028981,India,IN,Haryāna,,181639.0,160129.0
166,Vizianagaram,18.11329,83.397743,India,IN,Andhra Pradesh,,179358.0,1194.0
167,Vellore,12.905769,79.13710400000001,India,IN,Tamil Nādu ,,177081.0,177081.0
168,Alappuzha,9.494647,76.331108,India,IN,Kerala,,176783.0,176783.0
169,Shimla,31.104422999999997,77.166623,India,IN,Himāchal Pradesh,admin,173503.0,173503.0
170,Hindupur,13.828064999999999,77.491425,India,IN,Andhra Pradesh,,168312.0,133298.0
171,Bāramūla,34.209004,74.342853,India,IN,Jammu and Kashmīr,,167986.0,77276.0
172,Bakshpur,25.894282999999998,80.79210400000001,India,IN,Uttar Pradesh,,166480.0,166480.0
173,Dibrugarh,27.479888,94.90836999999999,India,IN,Assam,,166366.0,122155.0
174,Saidāpur,27.598784000000002,80.75089,India,IN,Uttar Pradesh,,164435.0,164435.0
175,Navsāri,20.85,72.916667,India,IN,Gujarāt,,163000.0,163000.0
176,Budaun,28.038114,79.126677,India,IN,Uttar Pradesh,,161555.0,161555.0
177,Cuddalore,11.746288999999999,79.764362,India,IN,Tamil Nādu ,,158569.0,158569.0
178,Harīpur,31.463217999999998,75.986418,India,IN,Punjab,,158142.0,158142.0
179,Krishnāpuram,12.869617,79.71946899999999,India,IN,Tamil Nādu ,,155029.0,155029.0
180,Fyzābād,26.775485999999997,82.150182,India,IN,Uttar Pradesh,,153047.0,153047.0
181,Silchar,24.827327,92.79786800000001,India,IN,Assam,,152393.0,152393.0
182,Ambāla,30.360993,76.79781899999999,India,IN,Haryāna,,146787.0,146787.0
183,Krishnanagar,23.405761,88.49073299999999,India,IN,West Bengal,,145926.0,145926.0
184,Kolār,13.137679,78.129989,India,IN,Karnātaka,,144625.0,126441.0
185,Kumbakonam,10.959789,79.377472,India,IN,Tamil Nādu ,,139264.0,139264.0
186,Tiruvannāmalai,12.230203999999999,79.07295400000001,India,IN,Tamil Nādu ,,138243.0,138243.0
187,Pīlibhīt,28.631245,79.804362,India,IN,Uttar Pradesh,,131008.0,131008.0
188,Abohar,30.144533000000003,74.19552,India,IN,Punjab,,130603.0,130603.0
189,Port Blair,11.666667,92.75,India,IN,Andaman and Nicobar Islands,admin,127562.0,112050.0
190,Alīpur Duār,26.4835,89.522855,India,IN,West Bengal,,127342.0,127342.0
191,Hatīsa,27.592698,78.01384300000001,India,IN,Uttar Pradesh,,126882.0,126882.0
192,Vālpārai,10.325163,76.955299,India,IN,Tamil Nādu ,,114308.0,90353.0
193,Aurangābād,24.752036999999998,84.374202,India,IN,Bihār,,95929.0,95929.0
194,Kohima,25.674673000000002,94.110988,India,IN,Nāgāland,admin,92113.0,92113.0
195,Gangtok,27.325739000000002,88.612155,India,IN,Sikkim,admin,77900.0,30700.0
196,Karūr,10.960277,78.076753,India,IN,Tamil Nādu ,,76915.0,76915.0
197,Jorhāt,26.757509000000002,94.203055,India,IN,Assam,,69033.0,69033.0
198,Panaji,15.498289000000002,73.824541,India,IN,Goa,admin,65586.0,65586.0
199,Saidpur,34.318174,74.457093,India,IN,Jammu and Kashmīr,,63035.0,58416.0
200,Tezpur,26.633333,92.8,India,IN,Assam,,58851.0,58851.0
201,Itanagar,27.102349,93.692047,India,IN,Arunāchal Pradesh,admin,44971.0,44971.0
202,Daman,20.414315,72.83236,India,IN,Damān and Diu,admin,39737.0,39737.0
203,Silvassa,20.273854999999998,72.996728,India,IN,Dādra and Nagar Haveli,admin,27359.0,27359.0
204,Diu,20.715115,70.987952,India,IN,Damān and Diu,,23779.0,23779.0
205,Dispur,26.135638,91.800688,India,IN,Assam,admin,16140.0,16140.0
206,Kavaratti,10.566667,72.616667,India,IN,Lakshadweep,admin,10688.0,10688.0
207,Calicut,11.248016,75.780402,India,IN,Kerala,minor,,
208,Kagaznāgār,19.331589,79.46605100000001,India,IN,Andhra Pradesh,minor,,
209,Jaipur,26.913312,75.787872,India,IN,Rājasthān,admin,,
210,Ghandinagar,23.216667,72.68333299999999,India,IN,Gujarāt,admin,,
211,Panchkula,30.691512,76.853736,India,IN,Haryāna,minor,,
