,city,lat,lng,country,iso2,admin,capital,population,population_proper
0,Lagos,6.454066,3.3946730000000005,Nigeria,NG,Lagos,minor,9466000.0,1536.0
1,Kano,12.002381,8.513160000000001,Nigeria,NG,Kano,admin,3140000.0,3140000.0
2,Ibadan,7.377561999999999,3.905907,Nigeria,NG,Oyo,admin,2628000.0,1814570.0
3,Abuja,9.083333,7.533333,Nigeria,NG,Federal Capital Territory,primary,1576000.0,162135.0
4,Kaduna,10.526413,7.438795,Nigeria,NG,Kaduna,admin,1442000.0,940593.0
5,Benin City,6.338153,5.625749,Nigeria,NG,Edo,admin,1190000.0,668026.0
6,Ikare,7.525913,5.753417,Nigeria,NG,Ondo,minor,1099931.0,700000.0
7,Port Harcourt,4.777423000000001,7.0134039999999995,Nigeria,NG,Rivers,admin,1020000.0,1020000.0
8,Ogbomoso,8.133725,4.240144,Nigeria,NG,Oyo,minor,951000.0,239127.0
9,Aba,5.1065760000000004,7.366667,Nigeria,NG,Abia,minor,897560.0,851210.0
10,Maiduguri,11.846924000000001,13.157122,Nigeria,NG,Borno,admin,896000.0,512460.0
11,Zaria,11.078945,7.7103589999999995,Nigeria,NG,Kaduna,minor,889000.0,620673.0
12,Warri,5.51737,5.750064,Nigeria,NG,Delta,minor,830106.0,536023.0
13,Jos,9.92849,8.892118,Nigeria,NG,Plateau,admin,816824.0,657313.0
14,Ilorin,8.496642,4.542143,Nigeria,NG,Kwara,admin,771000.0,632484.0
15,Oyo,7.852575,3.9312489999999998,Nigeria,NG,Oyo,minor,736072.0,213961.0
16,Sokoto,13.048025,5.214285,Nigeria,NG,Sokoto,,732178.0,563861.0
17,Enugu,6.441321,7.4988339999999996,Nigeria,NG,Enugu,admin,688862.0,688862.0
18,Abeokuta,7.155710000000001,3.3450860000000002,Nigeria,NG,Ogun,admin,593100.0,289362.0
19,Uyo,5.033333,7.92657,Nigeria,NG,Akwa Ibom,admin,554906.0,436606.0
20,Awka,6.21269,7.071986,Nigeria,NG,Anambra,admin,500000.0,301657.0
21,Ile-Ife,7.482405,4.560324,Nigeria,NG,Osun,minor,482365.0,482365.0
22,Calabar,4.958931,8.32695,Nigeria,NG,Cross River,admin,461796.0,247517.0
23,Ado-Ekiti,7.623289,5.22087,Nigeria,NG,Ekiti,admin,446749.0,446749.0
24,Katsina,12.990822999999999,7.601769,Nigeria,NG,Katsina,admin,432149.0,432149.0
25,Akure,7.252560000000001,5.193118,Nigeria,NG,Ondo,admin,420594.0,420594.0
26,Osogbo,7.771045,4.556979,Nigeria,NG,Osun,admin,408245.0,408245.0
27,Bauchi,10.310321,9.843883,Nigeria,NG,Bauchi,admin,316149.0,172552.0
28,Mele,5.889151999999999,5.701355,Nigeria,NG,Delta,,309162.0,161686.0
29,Makurdi North,7.7493,8.5508,Nigeria,NG,Benue,,292645.0,198090.0
30,Minna,9.615235,6.54776,Nigeria,NG,Niger,admin,291905.0,206171.0
31,Owo,7.1961949999999995,5.586806,Nigeria,NG,Ondo,minor,276574.0,125250.0
32,Gombe,10.28969,11.167288000000001,Nigeria,NG,Gombe,admin,270366.0,250258.0
33,Umuahia,5.524913,7.494613,Nigeria,NG,Abia,admin,264662.0,264662.0
34,Ondo,7.093164999999999,4.835277,Nigeria,NG,Ondo,minor,257005.0,255883.0
35,Damaturu,11.746967999999999,11.960825999999999,Nigeria,NG,Yobe,admin,255895.0,255895.0
36,Iwo,7.635267999999999,4.181556,Nigeria,NG,Osun,minor,250443.0,166934.0
37,Gusau,12.17024,6.664116,Nigeria,NG,Zamfara,admin,226857.0,144993.0
38,Mubi,10.268585,13.267013,Nigeria,NG,Adamawa,minor,225705.0,203715.0
39,Owerri,5.483626,7.0332479999999995,Nigeria,NG,Imo,admin,215038.0,215038.0
40,Ijebu-Ode,6.819444,3.917311,Nigeria,NG,Ogun,minor,209175.0,199827.0
41,Funtua,11.523505,7.311744,Nigeria,NG,Katsina,minor,180475.0,136811.0
42,Bida,9.080442,6.009901999999999,Nigeria,NG,Niger,minor,173849.0,171656.0
43,Lafia,8.493897,8.515316,Nigeria,NG,Nasarawa,admin,127236.0,31705.0
44,Gashua,12.873975999999999,11.040567999999999,Nigeria,NG,Yobe,minor,125817.0,23834.0
45,Buzawa,11.545361999999999,13.684517999999999,Nigeria,NG,Borno,,118121.0,54699.0
46,Jalingo,8.893668,11.359596,Nigeria,NG,Taraba,admin,117757.0,89789.0
47,Nsukka,6.856542999999999,7.3859770000000005,Nigeria,NG,Enugu,minor,111017.0,111017.0
48,Nguru,12.876952000000001,10.455361,Nigeria,NG,Yobe,minor,111014.0,53948.0
49,Birnin Kebbi,12.453889,4.1975,Nigeria,NG,Kebbi,admin,108164.0,96517.0
50,Azare,11.674783,10.190686999999999,Nigeria,NG,Bauchi,minor,105687.0,70138.0
51,Kontagora,10.403189,5.470797,Nigeria,NG,Niger,minor,98754.0,25534.0
52,Iseyin,7.970219999999999,3.596256,Nigeria,NG,Oyo,minor,98071.0,98071.0
53,Yola,9.208394,12.481464,Nigeria,NG,Adamawa,admin,96006.0,88500.0
54,Biu,10.612853999999999,12.194579,Nigeria,NG,Borno,minor,95005.0,34234.0
55,Wukari,7.871392999999999,9.77786,Nigeria,NG,Taraba,minor,92933.0,55828.0
56,Potiskum,11.713909,11.081077,Nigeria,NG,Yobe,minor,86002.0,79465.0
57,Keffi,8.84651,7.873539,Nigeria,NG,Nasarawa,minor,85911.0,68202.0
58,Numan,9.463742,12.030619999999999,Nigeria,NG,Adamawa,minor,77617.0,12729.0
59,Idah,7.113446000000001,6.73866,Nigeria,NG,Kogi,minor,75087.0,68703.0
60,Onitsha,6.149779,6.78569,Nigeria,NG,Anambra,minor,73374.0,73374.0
61,Otukpo,7.193963,8.134556,Nigeria,NG,Benue,minor,68220.0,68220.0
62,Lokoja,7.796882000000001,6.740481,Nigeria,NG,Kogi,admin,60579.0,44722.0
63,Kumo,10.048067,11.210555000000001,Nigeria,NG,Gombe,minor,35712.0,2786.0
64,Opobo,4.513882,7.537941,Nigeria,NG,Rivers,minor,34911.0,34911.0
65,Koko,11.421544,4.5168669999999995,Nigeria,NG,Kebbi,,25792.0,25792.0
66,Dutse,11.75618,9.338959,Nigeria,NG,Jigawa,admin,17129.0,17129.0
67,Orlu,5.7956449999999995,7.035125999999999,Nigeria,NG,Imo,minor,9351.0,9351.0
68,Kankara,11.931137,7.411149000000001,Nigeria,NG,Katsina,minor,,
69,Gwagwalada,8.943423,7.08165,Nigeria,NG,Federal Capital Territory,minor,,
70,Kebbe,12.128615,4.73433,Nigeria,NG,Sokoto,minor,,
71,Keana,8.147244,8.796008,Nigeria,NG,Nasarawa,minor,,
72,Gbajimba,7.820399,8.859544999999999,Nigeria,NG,Benue,minor,,
73,Ikot Ekpene,5.18194,7.714811999999999,Nigeria,NG,Akwa Ibom,minor,,
74,Ririwai,10.74025,8.741285000000001,Nigeria,NG,Kano,minor,,
75,Kabba,7.827192,6.075021,Nigeria,NG,Kogi,minor,,
76,Darazo,10.999201,10.410618,Nigeria,NG,Bauchi,minor,,
77,Issele-Uku,6.3158389999999995,6.47599,Nigeria,NG,Delta,minor,,
78,Makarfi,11.377342,7.880977000000001,Nigeria,NG,Kaduna,minor,,
79,Gombi,10.167556,12.736842999999999,Nigeria,NG,Adamawa,minor,,
80,Utu Etim Ekpo,5.004848,7.610283,Nigeria,NG,Akwa Ibom,minor,,
81,Katcha,8.760758000000001,6.312003,Nigeria,NG,Niger,minor,,
82,Igbara-Oke,7.411719000000001,5.058054,Nigeria,NG,Ondo,minor,,
83,Garun Malam,11.685659,8.369856,Nigeria,NG,Kano,minor,,
84,Hong,10.233044999999999,12.928052000000001,Nigeria,NG,Adamawa,minor,,
85,Ikotun,6.544333,3.263789,Nigeria,NG,Lagos,minor,,
86,Nkwerre,5.759175,7.103836,Nigeria,NG,Imo,minor,,
87,Mafa,11.924171000000001,13.600655999999999,Nigeria,NG,Borno,minor,,
88,Nasko,10.495389,4.899036,Nigeria,NG,Niger,minor,,
89,Festac Town,6.469698,3.2829879999999996,Nigeria,NG,Lagos,minor,,
90,Nguzu Edda,5.755433,7.817206,Nigeria,NG,Ebonyi,minor,,
91,Dukku,10.823794,10.772211,Nigeria,NG,Gombe,minor,,
92,Illela,13.730642000000001,5.297772,Nigeria,NG,Sokoto,minor,,
93,Effraya,5.859255999999999,8.723006,Nigeria,NG,Cross River,minor,,
94,Isinweke,5.620478,7.349854,Nigeria,NG,Imo,minor,,
95,Kiri Kasamma,12.692734,10.254557,Nigeria,NG,Jigawa,minor,,
96,Ugba,7.506997999999999,9.348042,Nigeria,NG,Benue,minor,,
97,Obiozara,6.0464400000000005,7.772727000000001,Nigeria,NG,Ebonyi,minor,,
98,Gwoza,11.083125,13.695948000000001,Nigeria,NG,Borno,minor,,
99,Mashegu,9.972126,5.7788580000000005,Nigeria,NG,Niger,minor,,
100,Yelwa,10.835048,4.742439,Nigeria,NG,Kebbi,minor,,
101,Giwa,11.315678,7.44957,Nigeria,NG,Kaduna,minor,,
102,Imeko,7.448875999999999,2.8428869999999997,Nigeria,NG,Ogun,minor,,
103,Iyara,7.843247,5.9706150000000004,Nigeria,NG,Kogi,minor,,
104,Umundugba,5.675968,7.071842,Nigeria,NG,Imo,minor,,
105,Fugar,7.090761,6.498283,Nigeria,NG,Edo,minor,,
106,Garaku,8.847168,8.130211,Nigeria,NG,Nasarawa,minor,,
107,Agenebode,7.1051210000000005,6.693810000000001,Nigeria,NG,Edo,minor,,
108,Jimeta,9.27949,12.458185,Nigeria,NG,Adamawa,minor,,
109,Oghara,5.935541000000001,5.666096,Nigeria,NG,Delta,minor,,
110,Kachia,9.873417,7.95407,Nigeria,NG,Kaduna,minor,,
111,Awgu,6.072778,7.477386,Nigeria,NG,Enugu,minor,,
112,Osisioma,5.159795,7.3223460000000005,Nigeria,NG,Abia,minor,,
113,Agege,6.615632000000001,3.3333690000000002,Nigeria,NG,Lagos,minor,,
114,Batsari,12.755508,7.248088,Nigeria,NG,Katsina,minor,,
115,Angware,9.991050999999999,9.108105,Nigeria,NG,Plateau,minor,,
116,Iragbiji,7.903998,4.6870449999999995,Nigeria,NG,Osun,minor,,
117,Ugep,5.80865,8.080976,Nigeria,NG,Cross River,minor,,
118,Ughelli,5.489555,6.004069,Nigeria,NG,Delta,minor,,
119,Wurno,13.290475,5.423729,Nigeria,NG,Sokoto,minor,,
120,Bogoro,9.669044,9.605275,Nigeria,NG,Bauchi,minor,,
121,Mabudi,8.730372000000001,9.785124,Nigeria,NG,Plateau,minor,,
122,Abakaliki,6.324851,8.11368,Nigeria,NG,Ebonyi,admin,,
123,Abak,4.982357,7.789217,Nigeria,NG,Akwa Ibom,minor,,
124,Kiru,11.702098,8.134807,Nigeria,NG,Kano,minor,,
125,Jama’are,11.669795,9.927996,Nigeria,NG,Bauchi,minor,,
126,Orerokpe,5.637471,5.890126,Nigeria,NG,Delta,minor,,
127,Uquo,4.6583190000000005,8.058684,Nigeria,NG,Akwa Ibom,minor,,
128,Song,9.826747,12.623801,Nigeria,NG,Adamawa,minor,,
129,Odeda,7.232508,3.528193,Nigeria,NG,Ogun,minor,,
130,Afor-Oru,5.541103,7.268447,Nigeria,NG,Imo,minor,,
131,Kaura Namoda,12.593715,6.586484,Nigeria,NG,Zamfara,minor,,
132,Lissam,7.196097999999999,10.046204,Nigeria,NG,Taraba,minor,,
133,Ribah,11.396367,5.486311,Nigeria,NG,Kebbi,minor,,
134,Ojota,6.578063,3.386858,Nigeria,NG,Lagos,minor,,
135,Anka,12.113466,5.9268089999999995,Nigeria,NG,Zamfara,minor,,
136,Gamawa,12.133786,10.53785,Nigeria,NG,Bauchi,minor,,
137,Gamboru,12.372995,14.206903,Nigeria,NG,Borno,minor,,
138,Okene,7.551219000000001,6.23589,Nigeria,NG,Kogi,minor,,
139,Omuo-Ekiti,7.759144,5.722496,Nigeria,NG,Ekiti,minor,,
140,Lamurde,9.608162,11.793151,Nigeria,NG,Adamawa,minor,,
141,Fika,11.286744,11.307724,Nigeria,NG,Yobe,minor,,
142,Tsafe,11.957746,6.920832000000001,Nigeria,NG,Zamfara,minor,,
143,Ugbodo,6.511548,8.129841,Nigeria,NG,Ebonyi,minor,,
144,Iyana-Ofa,7.500427,4.081036,Nigeria,NG,Oyo,minor,,
145,Okpoga,7.039108000000001,7.812253999999999,Nigeria,NG,Benue,minor,,
146,Ogbere,6.739476,4.161021,Nigeria,NG,Ogun,minor,,
147,Sule Tankarkar,12.666861,9.228278,Nigeria,NG,Jigawa,minor,,
148,Eyofin,4.751596,8.230556,Nigeria,NG,Akwa Ibom,minor,,
149,Ifon,7.859925,4.476211,Nigeria,NG,Osun,minor,,
150,Ifetedo,7.184189999999999,4.70046,Nigeria,NG,Osun,minor,,
151,Isa,13.200659,6.404873,Nigeria,NG,Sokoto,minor,,
152,Karu,9.009432,7.661472,Nigeria,NG,Nasarawa,minor,,
153,Kafin Hausa,12.239329,9.911054,Nigeria,NG,Jigawa,minor,,
154,Albasu,11.67403,9.140586,Nigeria,NG,Kano,minor,,
155,Goronyo,13.442257999999999,5.672339,Nigeria,NG,Sokoto,minor,,
156,Birniwa,12.7907,10.236144,Nigeria,NG,Jigawa,minor,,
157,Marte,12.365027,13.830184,Nigeria,NG,Borno,minor,,
158,Malumfashi,11.789346,7.6206119999999995,Nigeria,NG,Katsina,minor,,
159,Shelleng,9.896473,12.005717,Nigeria,NG,Adamawa,minor,,
160,Ikoyi,6.452539,3.4358410000000004,Nigeria,NG,Lagos,minor,,
161,Ikoyi-Ile,8.2444,4.171807,Nigeria,NG,Oyo,minor,,
162,Lapai,9.044385,6.570887,Nigeria,NG,Niger,minor,,
163,Ehor,6.615495,5.982379,Nigeria,NG,Edo,minor,,
164,Abonnema,4.731714,6.772234,Nigeria,NG,Rivers,minor,,
165,Jobele,7.763003,3.9193480000000003,Nigeria,NG,Oyo,minor,,
166,Riyom,9.636807000000001,8.756944,Nigeria,NG,Plateau,minor,,
167,Odo-Ere,8.250575,5.549792,Nigeria,NG,Kogi,minor,,
168,Kaltungo,9.819980000000001,11.308705999999999,Nigeria,NG,Gombe,minor,,
169,Otu,8.206503999999999,3.4073550000000004,Nigeria,NG,Oyo,minor,,
170,Obiaruku,5.846717,6.152899,Nigeria,NG,Delta,minor,,
171,Afuze,6.969453999999999,6.042536,Nigeria,NG,Edo,minor,,
172,Umumma,5.756899,6.946128999999999,Nigeria,NG,Imo,minor,,
173,Akpafa,7.471922999999999,6.149787,Nigeria,NG,Kogi,minor,,
174,Sagbama,5.159147,6.196661,Nigeria,NG,Bayelsa,minor,,
175,Kumbotso,11.890015,8.502998,Nigeria,NG,Kano,minor,,
176,Ingawa,12.641378,8.051623,Nigeria,NG,Katsina,minor,,
177,Abagana,6.190311,6.993566,Nigeria,NG,Anambra,minor,,
178,Kaita,13.083461,7.740916,Nigeria,NG,Katsina,minor,,
179,Saminaka,10.412266,8.687477000000001,Nigeria,NG,Kaduna,minor,,
180,Hunkuyi,11.266796000000001,7.649155,Nigeria,NG,Kaduna,minor,,
181,Anaku,6.468751999999999,6.928928,Nigeria,NG,Anambra,minor,,
182,Ijebu-Jesa,7.682671000000001,4.814356,Nigeria,NG,Osun,minor,,
183,Guri,12.728102,10.419886,Nigeria,NG,Jigawa,minor,,
184,Lessel,7.127287,9.019813000000001,Nigeria,NG,Benue,minor,,
185,Vandeikya,6.784806,9.067989,Nigeria,NG,Benue,minor,,
186,Billiri,9.890243,11.217938,Nigeria,NG,Gombe,minor,,
187,Okopedi,4.849179,8.125642,Nigeria,NG,Akwa Ibom,minor,,
188,Afaha Offiong,4.862263,7.906263,Nigeria,NG,Akwa Ibom,minor,,
189,Odukpani,5.1337459999999995,8.338144,Nigeria,NG,Cross River,minor,,
190,Nung Udoe,4.916569,7.963139999999999,Nigeria,NG,Akwa Ibom,minor,,
191,Ozubulu,5.95753,6.853046000000001,Nigeria,NG,Anambra,minor,,
192,Yusufari,13.066106,11.173478,Nigeria,NG,Yobe,minor,,
193,Garki,12.434558,9.190283,Nigeria,NG,Jigawa,minor,,
194,Sapele,5.8940529999999995,5.67666,Nigeria,NG,Delta,minor,,
195,Rijau,11.103893,5.2555629999999995,Nigeria,NG,Niger,minor,,
196,Besse,11.266757,4.431145,Nigeria,NG,Kebbi,minor,,
197,Talata Mafara,12.568411,6.062246,Nigeria,NG,Zamfara,minor,,
198,Talasse,9.968433000000001,11.679454,Nigeria,NG,Gombe,minor,,
199,Ore,6.747164,4.876103,Nigeria,NG,Ondo,minor,,
200,Okoroete,4.540765,7.748578999999999,Nigeria,NG,Akwa Ibom,minor,,
201,Shanono,12.051536,7.992000000000001,Nigeria,NG,Kano,minor,,
202,Jada,8.756817,12.155366,Nigeria,NG,Adamawa,minor,,
203,Rabah,13.122573000000001,5.5076160000000005,Nigeria,NG,Sokoto,minor,,
204,Gembu,6.719208999999999,11.253517,Nigeria,NG,Taraba,minor,,
205,Safana,12.410753999999999,7.414556,Nigeria,NG,Katsina,minor,,
206,Dekina,7.689671000000001,7.043802,Nigeria,NG,Kogi,minor,,
207,Ikeja,6.596506,3.342052,Nigeria,NG,Lagos,admin,,
208,Ode-Irele,6.494184,4.870359,Nigeria,NG,Ondo,minor,,
209,Urualla,5.8539699999999995,7.099064,Nigeria,NG,Imo,minor,,
210,Sokoto,13.062695,5.243225,Nigeria,NG,Sokoto,admin,,
211,Agbor,6.253748000000001,6.1942010000000005,Nigeria,NG,Delta,minor,,
212,Kurfi,12.6663,7.484779,Nigeria,NG,Katsina,minor,,
213,Ankpa,7.402485,7.631958999999999,Nigeria,NG,Kogi,minor,,
214,Gubio,12.497488,12.780888000000001,Nigeria,NG,Borno,minor,,
215,Ibi,8.181216000000001,9.744305,Nigeria,NG,Taraba,minor,,
216,Baap,8.943205,9.241258,Nigeria,NG,Plateau,minor,,
217,Ilaro,6.889011,3.014162,Nigeria,NG,Ogun,minor,,
218,Ise-Ekiti,7.464778,5.423328,Nigeria,NG,Ekiti,minor,,
219,Burutu,5.353283,5.508265,Nigeria,NG,Delta,minor,,
220,Nasarawa Egon,8.71226,8.540598,Nigeria,NG,Nasarawa,minor,,
221,Ungogo,12.09171,8.495307,Nigeria,NG,Kano,minor,,
222,Koko,6.000843,5.455225,Nigeria,NG,Delta,minor,,
223,Oka,7.460121000000001,5.801743,Nigeria,NG,Ondo,minor,,
224,Ogaminana,7.593825999999999,6.217976,Nigeria,NG,Kogi,minor,,
225,Iwere-Ile,7.999191000000001,3.088266,Nigeria,NG,Oyo,minor,,
226,Ahoada,5.0828050000000005,6.649813000000001,Nigeria,NG,Rivers,minor,,
227,Bunkure,11.699236,8.541266,Nigeria,NG,Kano,minor,,
228,Kunchi,12.502601,8.27092,Nigeria,NG,Kano,minor,,
229,Akwanga,8.910769,8.406552,Nigeria,NG,Nasarawa,minor,,
230,Igbo-Ora,7.433834,3.287879,Nigeria,NG,Oyo,minor,,
231,Bama,11.521339,13.689523999999999,Nigeria,NG,Borno,minor,,
232,Bajoga,10.851517999999999,11.431689,Nigeria,NG,Gombe,minor,,
233,Ganye,8.434972,12.051072999999999,Nigeria,NG,Adamawa,minor,,
234,Rimi,12.850298,7.709745,Nigeria,NG,Katsina,minor,,
235,Deba,10.211867,11.387101,Nigeria,NG,Gombe,minor,,
236,Efon-Alaaye,7.656495,4.922354,Nigeria,NG,Ekiti,minor,,
237,Effurun,5.556294,5.784591000000001,Nigeria,NG,Delta,minor,,
238,Itas,11.857505,9.963942999999999,Nigeria,NG,Bauchi,minor,,
239,Mopa,8.103872,5.892798,Nigeria,NG,Kogi,minor,,
240,Takum,7.255323,9.985512,Nigeria,NG,Taraba,minor,,
241,Aboh,5.475689,7.271605999999999,Nigeria,NG,Imo,minor,,
242,Eruwa,7.53365,3.41796,Nigeria,NG,Oyo,minor,,
243,Aboh,5.547815,6.525879,Nigeria,NG,Delta,minor,,
244,Fufore,9.221748,12.649747,Nigeria,NG,Adamawa,minor,,
245,Fufu,8.448382,4.720768,Nigeria,NG,Kwara,minor,,
246,Adikpo,6.890016999999999,9.23351,Nigeria,NG,Benue,minor,,
247,Mutum Biyu,8.641380999999999,10.773549000000001,Nigeria,NG,Taraba,minor,,
248,Odoro Ikpe,5.358349,7.751844,Nigeria,NG,Akwa Ibom,minor,,
249,Kafin Madaki,10.688558,9.760513000000001,Nigeria,NG,Bauchi,minor,,
250,Kagara,10.186622999999999,6.254852,Nigeria,NG,Niger,minor,,
251,Dambatta,12.434997000000001,8.515314,Nigeria,NG,Kano,minor,,
252,Damboa,11.155338,12.75638,Nigeria,NG,Borno,minor,,
253,Omoba,5.242684,7.406232000000001,Nigeria,NG,Abia,minor,,
254,Mani,12.854262,7.875261,Nigeria,NG,Katsina,minor,,
255,Isua,7.453608999999999,5.910472,Nigeria,NG,Ondo,minor,,
256,Babura,12.77256,9.015251,Nigeria,NG,Jigawa,minor,,
257,Ukpor,5.942113,6.9293130000000005,Nigeria,NG,Anambra,minor,,
258,Owode,6.948510000000001,3.505605,Nigeria,NG,Ogun,minor,,
259,Mgbidi,5.732361,6.888692999999999,Nigeria,NG,Imo,minor,,
260,Misau,11.313699,10.466637,Nigeria,NG,Bauchi,minor,,
261,Toto,8.387596,7.077511,Nigeria,NG,Nasarawa,minor,,
262,Ijero-Ekiti,7.815138,5.067162000000001,Nigeria,NG,Ekiti,minor,,
263,Aliero,12.288353,4.471391000000001,Nigeria,NG,Kebbi,minor,,
264,Mangu,9.520595,9.097695,Nigeria,NG,Plateau,minor,,
265,Iperindo,7.501189999999999,4.824773,Nigeria,NG,Osun,minor,,
266,Charanchi,12.671545,7.729292,Nigeria,NG,Katsina,minor,,
267,Ndeaboh,6.034054,7.568428,Nigeria,NG,Enugu,minor,,
268,Igbekebo,6.355206,4.86221,Nigeria,NG,Ondo,minor,,
269,Gulak,10.805297999999999,13.458241000000001,Nigeria,NG,Adamawa,minor,,
270,Langtang,9.141639,9.791007,Nigeria,NG,Plateau,minor,,
271,Bindawa,12.669875,7.808654,Nigeria,NG,Katsina,minor,,
272,Dapchi,12.495362,11.499775,Nigeria,NG,Yobe,minor,,
273,Ikot Ibritam,4.811712,7.614012,Nigeria,NG,Akwa Ibom,minor,,
274,Shendam,8.878658999999999,9.534645,Nigeria,NG,Plateau,minor,,
275,Iloffa,8.093428,5.142327,Nigeria,NG,Kwara,minor,,
276,Ilobu,7.84036,4.48557,Nigeria,NG,Osun,minor,,
277,Ipokia,6.524989,2.8424650000000002,Nigeria,NG,Ogun,minor,,
278,Gwiwa,12.781692999999999,8.337224,Nigeria,NG,Jigawa,minor,,
279,Obagaji,7.89169,7.909383999999999,Nigeria,NG,Benue,minor,,
280,Asaba,6.198474,6.727431,Nigeria,NG,Delta,admin,,
281,Ugwolawo,7.236723,6.923019999999999,Nigeria,NG,Kogi,minor,,
282,Nto Edino,5.25704,7.575692999999999,Nigeria,NG,Akwa Ibom,minor,,
283,Kura,11.772319,8.426307000000001,Nigeria,NG,Kano,minor,,
284,Sabuwa,11.173722,7.121127,Nigeria,NG,Katsina,minor,,
285,Kankia,12.546366,7.822544000000001,Nigeria,NG,Katsina,minor,,
286,Wara,10.228844,4.623629,Nigeria,NG,Kebbi,minor,,
287,Agwara,10.706111,4.581254,Nigeria,NG,Niger,minor,,
288,Oke-Oyi,8.582635,4.716223,Nigeria,NG,Kwara,minor,,
289,Gboko,7.322755,9.001078,Nigeria,NG,Benue,minor,,
290,Apomu,7.351560000000001,4.1833540000000005,Nigeria,NG,Osun,minor,,
291,Bagwai,12.157703999999999,8.1358,Nigeria,NG,Kano,minor,,
292,Damagum,11.678237,11.335174,Nigeria,NG,Yobe,minor,,
293,Iresa-Adu,8.087473,4.39264,Nigeria,NG,Oyo,minor,,
294,Sankwala,6.547535,9.222584,Nigeria,NG,Cross River,minor,,
295,Ilawe-Ekiti,7.598812,5.104698,Nigeria,NG,Ekiti,minor,,
296,Bode Osi,7.751030999999999,4.229796,Nigeria,NG,Osun,minor,,
297,Balle,13.470285999999998,4.681189,Nigeria,NG,Sokoto,minor,,
298,Emuoha,4.883996,6.860104,Nigeria,NG,Rivers,minor,,
299,Dange,12.853128,5.345724,Nigeria,NG,Sokoto,minor,,
300,Barkin Ladi,9.538124,8.892700999999999,Nigeria,NG,Plateau,minor,,
301,Somolu,6.538907,3.374197,Nigeria,NG,Lagos,minor,,
302,Oguta,5.7104349999999995,6.809365,Nigeria,NG,Imo,minor,,
303,Neni,6.095105,7.024255999999999,Nigeria,NG,Anambra,minor,,
304,Ogidi,6.152093,6.863435000000001,Nigeria,NG,Anambra,minor,,
305,Agaie,9.008498,6.318206,Nigeria,NG,Niger,minor,,
306,Otu-Jeremi,5.438183,5.878286,Nigeria,NG,Delta,minor,,
307,Otukpa,7.101675,7.659447,Nigeria,NG,Benue,minor,,
308,Oko Ita,5.1919949999999995,7.895308999999999,Nigeria,NG,Akwa Ibom,minor,,
309,Saki,8.667619,3.393929,Nigeria,NG,Oyo,minor,,
310,Suleja,9.180589999999999,7.179392999999999,Nigeria,NG,Niger,minor,,
311,Kabo,11.856063,8.170203,Nigeria,NG,Kano,minor,,
312,Gella,10.157378999999999,13.300035999999999,Nigeria,NG,Adamawa,minor,,
313,Igbokoda,6.352656,4.804058,Nigeria,NG,Ondo,minor,,
314,Maiyama,12.082245,4.369067,Nigeria,NG,Kebbi,minor,,
315,Obarike-Ito,7.024501,8.32358,Nigeria,NG,Benue,minor,,
316,Irrua,6.736335,6.219839,Nigeria,NG,Edo,minor,,
317,Itigidi,5.891471,8.021865,Nigeria,NG,Cross River,minor,,
318,Oron,4.821712000000001,8.235038000000001,Nigeria,NG,Akwa Ibom,minor,,
319,Akinima,5.085357,6.4663330000000006,Nigeria,NG,Rivers,minor,,
320,Nkwo Nike,6.509214,7.510064,Nigeria,NG,Enugu,minor,,
321,Gezawa,12.101573,8.750295,Nigeria,NG,Kano,minor,,
322,Dutsi,12.828624000000001,8.139804,Nigeria,NG,Katsina,minor,,
323,Mai’Adua,13.179858,8.230396,Nigeria,NG,Katsina,minor,,
324,New Bussa,9.886442,4.508545,Nigeria,NG,Niger,minor,,
325,Gwarzo,11.915973,7.933704,Nigeria,NG,Kano,minor,,
326,Bokkos,9.299209,8.994667,Nigeria,NG,Plateau,minor,,
327,Jibia,13.093783,7.226241,Nigeria,NG,Katsina,minor,,
328,Nasarawa,8.538945,7.708205,Nigeria,NG,Nasarawa,minor,,
329,Mahuta,11.553375,4.981383999999999,Nigeria,NG,Kebbi,minor,,
330,Oguma,7.896344999999999,7.062286,Nigeria,NG,Kogi,minor,,
331,Onuebonyi Echara,6.0954,8.151566,Nigeria,NG,Ebonyi,minor,,
332,Kujama,10.457664999999999,7.638076,Nigeria,NG,Kaduna,minor,,
333,Ikere-Ekiti,7.497482000000001,5.230414,Nigeria,NG,Ekiti,minor,,
334,Ayetoro,7.242808999999999,3.026386,Nigeria,NG,Ogun,minor,,
335,Ilesa,7.627891,4.7416089999999995,Nigeria,NG,Osun,minor,,
336,Gagarawa,12.40848,9.528811,Nigeria,NG,Jigawa,minor,,
337,Sabongida-Ora,6.902313,5.931175,Nigeria,NG,Edo,minor,,
338,Zing,8.990636,11.747634,Nigeria,NG,Taraba,minor,,
339,Sandamu,12.961627,8.360171000000001,Nigeria,NG,Katsina,minor,,
340,Shinkafi,13.072961,6.50574,Nigeria,NG,Zamfara,minor,,
341,Obubra,6.076719000000001,8.332414,Nigeria,NG,Cross River,minor,,
342,Obudu,6.668185,9.164528,Nigeria,NG,Cross River,minor,,
343,Rimin Gado,11.967202,8.2476,Nigeria,NG,Kano,minor,,
344,Kazaure,12.648462,8.411777,Nigeria,NG,Jigawa,minor,,
345,Karim Lamido,9.314297999999999,11.18731,Nigeria,NG,Taraba,minor,,
346,Urue Offong,4.752747,8.167705,Nigeria,NG,Akwa Ibom,minor,,
347,Egbeda,7.3772,4.049754,Nigeria,NG,Oyo,minor,,
348,Okehi,5.138952,7.1391539999999996,Nigeria,NG,Rivers,minor,,
349,Kafanchan,9.581261999999999,8.2926,Nigeria,NG,Kaduna,minor,,
350,Ile-Oluji,7.213092,4.869018,Nigeria,NG,Ondo,minor,,
351,Isu,6.150016,7.801311999999999,Nigeria,NG,Ebonyi,minor,,
352,Moniya,7.528428,3.9115629999999997,Nigeria,NG,Oyo,minor,,
353,Monguno,12.670587,13.61224,Nigeria,NG,Borno,minor,,
354,Bunza,12.088215,4.015201,Nigeria,NG,Kebbi,minor,,
355,Pantisawa,8.945043,11.511759,Nigeria,NG,Taraba,minor,,
356,Obangede,7.620658000000001,6.199285,Nigeria,NG,Kogi,minor,,
357,Bali,7.855327000000001,10.967835000000001,Nigeria,NG,Taraba,minor,,
358,Ugbokpo,7.653207000000001,7.884098,Nigeria,NG,Benue,minor,,
359,Bonny,4.451601,7.170744,Nigeria,NG,Rivers,minor,,
360,Oji River,6.255635,7.270249000000001,Nigeria,NG,Enugu,minor,,
361,Ojo,6.461165,3.16466,Nigeria,NG,Lagos,minor,,
362,Yana,11.40724,10.013454,Nigeria,NG,Bauchi,minor,,
363,Karkarna,12.766528,8.509805,Nigeria,NG,Jigawa,minor,,
364,Okpuala-Ngwa,5.357097,7.3876479999999995,Nigeria,NG,Abia,minor,,
365,Okigwe,5.829168,7.350559,Nigeria,NG,Imo,minor,,
366,Bolorunduro,7.165862,4.963698,Nigeria,NG,Ondo,minor,,
367,Serti,7.505744,11.3631,Nigeria,NG,Taraba,minor,,
368,Akwete,4.886881,7.356864,Nigeria,NG,Abia,minor,,
369,Akwukwu-Igbo,6.357532,6.590661,Nigeria,NG,Delta,minor,,
370,Nchia,4.793088,7.120605,Nigeria,NG,Rivers,minor,,
371,Wushishi,9.730355,6.073049,Nigeria,NG,Niger,minor,,
372,Dakingari,11.648094,4.061771,Nigeria,NG,Kebbi,minor,,
373,Aramoko-Ekiti,7.7048309999999995,5.040539,Nigeria,NG,Ekiti,minor,,
374,Maradun,12.567038,6.2440690000000005,Nigeria,NG,Zamfara,minor,,
375,Agbani,6.306687,7.54862,Nigeria,NG,Enugu,minor,,
376,Birnin Gwari,10.663737,6.5400279999999995,Nigeria,NG,Kaduna,minor,,
377,Bassa,9.942486,8.740421000000001,Nigeria,NG,Plateau,minor,,
378,Sunkani,8.702981,11.257568,Nigeria,NG,Taraba,minor,,
379,Oke-Ikpe,4.913015000000001,7.319358,Nigeria,NG,Abia,minor,,
380,Ota,6.688673,3.232015,Nigeria,NG,Ogun,minor,,
381,Patigi,8.72851,5.755615,Nigeria,NG,Kwara,minor,,
382,Awo-Idemili,5.826485,6.933742,Nigeria,NG,Imo,minor,,
383,Sabon Wuse,9.33424,7.2611360000000005,Nigeria,NG,Niger,minor,,
384,Mallam Sidi,10.468303,11.292939,Nigeria,NG,Gombe,minor,,
385,Gwandu,12.502042999999999,4.6429480000000005,Nigeria,NG,Kebbi,minor,,
386,Oshodi,6.5550440000000005,3.343626,Nigeria,NG,Lagos,minor,,
387,Egbema,5.544346,6.760896000000001,Nigeria,NG,Imo,minor,,
388,Tede,8.55625,3.446383,Nigeria,NG,Oyo,minor,,
389,Bagudo,11.403509,4.225712000000001,Nigeria,NG,Kebbi,minor,,
390,Surulere,6.501532,3.358076,Nigeria,NG,Lagos,minor,,
391,Ekpoma,6.743002000000001,6.140288,Nigeria,NG,Edo,minor,,
392,Warawa,11.866207000000001,8.701458,Nigeria,NG,Kano,minor,,
393,Ikot Edibon,4.770218,7.930996,Nigeria,NG,Akwa Ibom,minor,,
394,Ezillo,6.429296,7.817873,Nigeria,NG,Ebonyi,minor,,
395,Dikwa,12.036094,13.918152,Nigeria,NG,Borno,minor,,
396,Epe,6.5843169999999995,3.978511,Nigeria,NG,Lagos,minor,,
397,Bungudu,12.268483,6.552882,Nigeria,NG,Zamfara,minor,,
398,Omoku,5.343881,6.6568380000000005,Nigeria,NG,Rivers,minor,,
399,Kukawa,12.924752999999999,13.566168,Nigeria,NG,Borno,minor,,
400,Kaugama,12.474309,9.736707000000001,Nigeria,NG,Jigawa,minor,,
401,Ikom,5.962385,8.708234,Nigeria,NG,Cross River,minor,,
402,Baure,12.837716,8.74513,Nigeria,NG,Katsina,minor,,
403,Paiko,9.436855,6.633571000000001,Nigeria,NG,Niger,minor,,
404,Turunku,10.804326,7.696387,Nigeria,NG,Kaduna,minor,,
405,Okwe,5.777429,7.217944,Nigeria,NG,Imo,minor,,
406,Okpo,7.2162630000000005,7.560225,Nigeria,NG,Kogi,minor,,
407,Kuje,8.879522999999999,7.227557000000001,Nigeria,NG,Federal Capital Territory,minor,,
408,Auyo,12.333377,9.938905,Nigeria,NG,Jigawa,minor,,
409,Kajuru,10.322811,7.684617,Nigeria,NG,Kaduna,minor,,
410,Toro,10.058892,9.069096,Nigeria,NG,Bauchi,minor,,
411,Sabon Birni,13.563873999999998,6.323546,Nigeria,NG,Sokoto,minor,,
412,Ikenne,6.865789,3.715179,Nigeria,NG,Ogun,minor,,
413,Gbongan,7.477342999999999,4.353505999999999,Nigeria,NG,Osun,minor,,
414,Zuru,11.43522,5.234935,Nigeria,NG,Kebbi,minor,,
415,Alkaleri,10.266875,10.332383,Nigeria,NG,Bauchi,minor,,
416,Igbeti,8.749207,4.1311279999999995,Nigeria,NG,Oyo,minor,,
417,Ikot Abasi,4.568507,7.552616,Nigeria,NG,Akwa Ibom,minor,,
418,Eberi,5.0911669999999996,7.233700999999999,Nigeria,NG,Rivers,minor,,
419,Gwaram,11.277272,9.883849,Nigeria,NG,Jigawa,minor,,
420,Ekeremor,5.058053,5.780476999999999,Nigeria,NG,Bayelsa,minor,,
421,Maigatari,12.807831,9.445160000000001,Nigeria,NG,Jigawa,minor,,
422,Mayo-Belwa,9.054213,12.057939999999999,Nigeria,NG,Adamawa,minor,,
423,Anchau,10.962452,8.392329,Nigeria,NG,Kaduna,minor,,
424,Umulona,6.507887,7.09743,Nigeria,NG,Enugu,minor,,
425,Demsa,9.455665,12.152493,Nigeria,NG,Adamawa,minor,,
426,Lemu,9.396367,6.027908,Nigeria,NG,Niger,minor,,
427,Badagry,6.415017,2.881318,Nigeria,NG,Lagos,minor,,
428,Abejukolo,7.868077,7.509072,Nigeria,NG,Kogi,minor,,
429,Ayete,7.5428619999999995,3.2226310000000002,Nigeria,NG,Oyo,minor,,
430,Isara,6.99345,3.6814769999999997,Nigeria,NG,Ogun,minor,,
431,Maiha,9.996722,13.216651999999998,Nigeria,NG,Adamawa,minor,,
432,Kangiwa,12.553389,3.8181410000000002,Nigeria,NG,Kebbi,minor,,
433,Arochukwu,5.389405,7.912346,Nigeria,NG,Abia,minor,,
434,Takai,11.575692,9.108804,Nigeria,NG,Kano,minor,,
435,Bende,5.558741,7.633589,Nigeria,NG,Abia,minor,,
436,Nzam,6.452965,6.728825,Nigeria,NG,Anambra,minor,,
437,Aguobu-Owa,6.372286,7.271781,Nigeria,NG,Enugu,minor,,
438,Gudumbali,12.942839,13.178313000000001,Nigeria,NG,Borno,minor,,
439,Iboko,6.406552,8.233285,Nigeria,NG,Ebonyi,minor,,
440,Oju,6.845264,8.419135,Nigeria,NG,Benue,minor,,
441,Ojoto,6.0584169999999995,6.861241000000001,Nigeria,NG,Anambra,minor,,
442,Awe,8.104452,9.140113000000001,Nigeria,NG,Nasarawa,minor,,
443,Lafiagi,8.852993,5.4164129999999995,Nigeria,NG,Kwara,minor,,
444,Askira,10.650857,12.908833,Nigeria,NG,Borno,minor,,
445,Garko,11.649745,8.803281,Nigeria,NG,Kano,minor,,
446,Saakpenwa,4.7167699999999995,7.262999000000001,Nigeria,NG,Rivers,minor,,
447,Bichi,12.233853,8.240627,Nigeria,NG,Kano,minor,,
448,Umuguma,5.467834,6.965939,Nigeria,NG,Imo,minor,,
449,Wase,9.094242,9.956050999999999,Nigeria,NG,Plateau,minor,,
450,Share,8.820865,4.973418,Nigeria,NG,Kwara,minor,,
451,Kwal,9.371275,9.619202,Nigeria,NG,Plateau,minor,,
452,Igueben,6.601833999999999,6.242758,Nigeria,NG,Edo,minor,,
453,Wannune,7.563839999999999,8.885337,Nigeria,NG,Benue,minor,,
454,Amagunze,6.330629,7.652466,Nigeria,NG,Enugu,minor,,
455,Toungo,8.117331,12.046108,Nigeria,NG,Adamawa,minor,,
456,Baissa,7.230866000000001,10.624436,Nigeria,NG,Taraba,minor,,
457,Oye-Ekiti,7.799765,5.332422,Nigeria,NG,Ekiti,minor,,
458,Idi-Ayunre,7.232921000000001,3.8615199999999996,Nigeria,NG,Oyo,minor,,
459,Damasak,13.105177000000001,12.50854,Nigeria,NG,Borno,minor,,
460,Mbalano,5.734324,7.502377,Nigeria,NG,Abia,minor,,
461,Abudu,6.294886,6.029947,Nigeria,NG,Edo,minor,,
462,Katsina-Ala,7.169378,9.284646,Nigeria,NG,Benue,minor,,
463,Ila Orangun,8.017145,4.9042069999999995,Nigeria,NG,Osun,minor,,
464,Buruku,7.459606,9.204549,Nigeria,NG,Benue,minor,,
465,Kpor,4.652646,7.283967999999999,Nigeria,NG,Rivers,minor,,
466,Mushin,6.5279940000000005,3.354114,Nigeria,NG,Lagos,minor,,
467,Iho,5.582246,7.098965,Nigeria,NG,Imo,minor,,
468,Bori,4.676294,7.365189999999999,Nigeria,NG,Rivers,minor,,
469,Obi,8.369222,8.773833999999999,Nigeria,NG,Nasarawa,minor,,
470,Koton-Karfe,8.091196,6.797822999999999,Nigeria,NG,Kogi,minor,,
471,Hadejia,12.453467,10.04115,Nigeria,NG,Jigawa,minor,,
472,Ikorodu,6.615261,3.506896,Nigeria,NG,Lagos,minor,,
473,Gummi,12.144843,5.117757,Nigeria,NG,Zamfara,minor,,
474,Gumel,12.626901,9.388069,Nigeria,NG,Jigawa,minor,,
475,Augie,12.890269,4.599648999999999,Nigeria,NG,Kebbi,minor,,
476,Yabo,12.722164999999999,5.013286,Nigeria,NG,Sokoto,minor,,
477,Udi,6.315924,7.420855,Nigeria,NG,Enugu,minor,,
478,Ubiaja,6.655810000000001,6.384944,Nigeria,NG,Edo,minor,,
479,Shagari,12.627272999999999,4.992948999999999,Nigeria,NG,Sokoto,minor,,
480,Shagamu,6.848497999999999,3.646325,Nigeria,NG,Ogun,minor,,
481,Ajaawa,7.931176,4.126544,Nigeria,NG,Oyo,minor,,
482,Okpoma,6.596792999999999,8.637284,Nigeria,NG,Cross River,minor,,
483,Ago-Amodu,8.623139,3.6141919999999996,Nigeria,NG,Oyo,minor,,
484,Nnenasa,5.732621,7.013641000000001,Nigeria,NG,Imo,minor,,
485,Isanlu,8.288227000000001,5.818365,Nigeria,NG,Kogi,minor,,
486,Ikot Nakanda,4.884258,8.483788,Nigeria,NG,Cross River,minor,,
487,Gawu Babangida,9.278269,6.993352000000001,Nigeria,NG,Niger,minor,,
488,Gantsa,11.663117,9.726389,Nigeria,NG,Jigawa,minor,,
489,Sarkin Pawa,10.020944,7.112436,Nigeria,NG,Niger,minor,,
490,Ningi,11.07837,9.568859,Nigeria,NG,Bauchi,minor,,
491,Bukkuyum,12.137201,5.468214,Nigeria,NG,Zamfara,minor,,
492,Rann,12.269375,14.465520999999999,Nigeria,NG,Borno,minor,,
493,Rano,11.556838,8.580647,Nigeria,NG,Kano,minor,,
494,Yenagoa,4.926746,6.267636,Nigeria,NG,Bayelsa,admin,,
495,Binji,13.222944,4.908885,Nigeria,NG,Sokoto,minor,,
496,Briyel,10.34764,11.609896,Nigeria,NG,Borno,minor,,
497,Kamba,11.851721000000001,3.65478,Nigeria,NG,Kebbi,minor,,
498,Ifako,6.644228999999999,3.324876,Nigeria,NG,Lagos,minor,,
499,Ido-Ekiti,7.845975,5.183143,Nigeria,NG,Ekiti,minor,,
500,Ido,7.471032000000001,3.7574,Nigeria,NG,Oyo,minor,,
501,Kusada,12.465602,7.978478,Nigeria,NG,Katsina,minor,,
502,Igumale,6.7979199999999995,7.967936,Nigeria,NG,Benue,minor,,
503,Degema,4.7480709999999995,6.766181,Nigeria,NG,Rivers,minor,,
504,Argungu,12.744819999999999,4.525136,Nigeria,NG,Kebbi,minor,,
505,Iguobazuwa,6.565364999999999,5.354426999999999,Nigeria,NG,Edo,minor,,
506,Ajingi,11.968258,9.036785,Nigeria,NG,Kano,minor,,
507,Bakura,12.71141,5.873667,Nigeria,NG,Zamfara,minor,,
508,Girei,9.365259,12.546211999999999,Nigeria,NG,Adamawa,minor,,
509,Babban Gida,12.154824000000001,11.770904,Nigeria,NG,Yobe,minor,,
510,Araromi-Opin,8.065273,5.253984,Nigeria,NG,Kwara,minor,,
511,Zurmi,12.776748,6.784035,Nigeria,NG,Zamfara,minor,,
512,Uromi,6.709707000000001,6.329813,Nigeria,NG,Edo,minor,,
513,Gidan Madi,13.295754,4.974666,Nigeria,NG,Sokoto,minor,,
514,Eket,4.64231,7.9243809999999995,Nigeria,NG,Akwa Ibom,minor,,
515,Boh,9.781873,11.278816,Nigeria,NG,Gombe,minor,,
516,Makera,10.471402000000001,7.410261,Nigeria,NG,Kaduna,minor,,
517,Machina,13.136389000000001,10.04924,Nigeria,NG,Yobe,minor,,
518,Ngo,4.483885,7.414460000000001,Nigeria,NG,Rivers,minor,,
519,Tunkus,9.021673,9.613845,Nigeria,NG,Plateau,minor,,
520,Chibok,10.869489999999999,12.846575,Nigeria,NG,Borno,minor,,
521,Abaji,8.47372,6.944532000000001,Nigeria,NG,Federal Capital Territory,minor,,
522,Sabon Garin Nangere,11.849454,11.073297,Nigeria,NG,Yobe,minor,,
523,Sabon Gari,11.118385,7.733160000000001,Nigeria,NG,Kaduna,minor,,
524,Isiokolo,5.595858,6.00028,Nigeria,NG,Delta,minor,,
525,Kaiama,9.605305,3.941013,Nigeria,NG,Kwara,minor,,
526,Kaiama,5.1196980000000005,6.3010150000000005,Nigeria,NG,Bayelsa,minor,,
527,Gajiram,12.491494,13.211907,Nigeria,NG,Borno,minor,,
528,Ukpo,6.214071,6.96657,Nigeria,NG,Anambra,minor,,
529,Igede-Ekiti,7.668500999999999,5.1262739999999996,Nigeria,NG,Ekiti,minor,,
530,Iju,7.394521000000001,5.25919,Nigeria,NG,Ondo,minor,,
531,Matazu,12.235489,7.674258,Nigeria,NG,Katsina,minor,,
532,Ikirun,7.912828,4.667413,Nigeria,NG,Osun,minor,,
533,Oporoma,4.806044,6.080161,Nigeria,NG,Bayelsa,minor,,
534,Ogwashi-Uku,6.178106,6.524609,Nigeria,NG,Delta,minor,,
535,Owa-Oyibu,6.182668,6.199025,Nigeria,NG,Delta,minor,,
536,Sankera,7.535296000000001,9.652234,Nigeria,NG,Benue,minor,,
537,Warji,11.17756,9.752414,Nigeria,NG,Bauchi,minor,,
538,Madobi,11.777248,8.288012,Nigeria,NG,Kano,minor,,
539,Onyedega,6.882095,6.675847,Nigeria,NG,Kogi,minor,,
540,Lau,9.208269,11.27541,Nigeria,NG,Taraba,minor,,
541,Bwari,9.279946,7.3804490000000005,Nigeria,NG,Federal Capital Territory,minor,,
542,Tudun Wada,11.24848,8.40109,Nigeria,NG,Kano,minor,,
543,Zakirai,12.100325999999999,8.885244,Nigeria,NG,Kano,minor,,
544,Enugu-Ezike,6.982703,7.455342999999999,Nigeria,NG,Enugu,minor,,
545,Urua Inyang,5.023089,7.538947,Nigeria,NG,Akwa Ibom,minor,,
546,Afikpo,5.892576999999999,7.935336,Nigeria,NG,Ebonyi,minor,,
547,Abua,4.857626,6.645194,Nigeria,NG,Rivers,minor,,
548,Kutigi,9.201030000000001,5.594976,Nigeria,NG,Niger,minor,,
549,Doma,8.393068,8.355436,Nigeria,NG,Nasarawa,minor,,
550,Azare,10.525830000000001,12.291145,Nigeria,NG,Borno,minor,,
551,Benisheikh,11.809189,12.491506,Nigeria,NG,Borno,minor,,
552,Idogbo,6.268123999999999,5.71296,Nigeria,NG,Edo,minor,,
553,Kanamma,13.099692,12.107899,Nigeria,NG,Yobe,minor,,
554,Onueke,6.155366000000001,8.037351,Nigeria,NG,Ebonyi,minor,,
555,Ajegunle,6.451969999999999,3.331147,Nigeria,NG,Lagos,minor,,
556,Jakusko,12.370934,10.773728,Nigeria,NG,Yobe,minor,,
557,Igboho,8.837838,3.756282,Nigeria,NG,Oyo,minor,,
558,Ikem,6.779928,7.714836999999999,Nigeria,NG,Enugu,minor,,
559,Ipetumodu,7.521521000000001,4.444765,Nigeria,NG,Osun,minor,,
560,Bukuru,9.793987,8.863967,Nigeria,NG,Plateau,minor,,
561,Dawakin Tofa,12.104519999999999,8.329988,Nigeria,NG,Kano,minor,,
562,Dawakin Kudu,11.837271000000001,8.59699,Nigeria,NG,Kano,minor,,
563,Ode-Ekiti,7.6481259999999995,5.549483,Nigeria,NG,Ekiti,minor,,
564,Abigi,6.486756,4.395314,Nigeria,NG,Ogun,minor,,
565,Upenekang,4.570635,7.97955,Nigeria,NG,Akwa Ibom,minor,,
566,Guyuk,9.906628999999999,11.927527,Nigeria,NG,Adamawa,minor,,
567,Buni Yadi,11.274411,12.008517,Nigeria,NG,Yobe,minor,,
568,Amaigbo,5.730159,7.115098,Nigeria,NG,Imo,minor,,
569,Aliade,7.296269000000001,8.482775,Nigeria,NG,Benue,minor,,
570,Kware,13.219686,5.265963,Nigeria,NG,Sokoto,minor,,
571,Otun-Ekiti,7.9885839999999995,5.122911,Nigeria,NG,Ekiti,minor,,
572,Ihiala,5.8547519999999995,6.859441,Nigeria,NG,Anambra,minor,,
573,Dutsin-Ma,12.453915,7.497231,Nigeria,NG,Katsina,minor,,
574,Abat,4.61712,7.866395,Nigeria,NG,Akwa Ibom,minor,,
575,Ifo,6.814906,3.195182,Nigeria,NG,Ogun,minor,,
576,Mashi,12.980437,7.947029,Nigeria,NG,Katsina,minor,,
577,Boje,6.284278,8.920617,Nigeria,NG,Cross River,minor,,
578,Danja,11.377097000000001,7.560967,Nigeria,NG,Katsina,minor,,
579,Ogu,4.722474,7.198594,Nigeria,NG,Rivers,minor,,
580,Jega,12.222195,4.379633,Nigeria,NG,Kebbi,minor,,
581,Aguata,6.016336,7.087822,Nigeria,NG,Anambra,minor,,
582,Khaddamari,11.925894,13.230619,Nigeria,NG,Borno,minor,,
583,Gwadabawa,13.358187,5.238117,Nigeria,NG,Sokoto,minor,,
584,Ibagwa-Aka,6.918541,7.398953,Nigeria,NG,Enugu,minor,,
585,Roni,12.658619,8.265047000000001,Nigeria,NG,Jigawa,minor,,
586,Mallam Fatori,13.674595000000002,13.339517,Nigeria,NG,Borno,minor,,
587,Kaura,9.668122,8.458255,Nigeria,NG,Kaduna,minor,,
588,Bakori,11.555591,7.424188000000001,Nigeria,NG,Katsina,minor,,
589,Ilemona,8.109917,4.660591,Nigeria,NG,Kwara,minor,,
590,Pankshin,9.325409,9.435196000000001,Nigeria,NG,Plateau,minor,,
591,Ibokun,7.784919,4.726534,Nigeria,NG,Osun,minor,,
592,Kibiya,11.528004,8.661078,Nigeria,NG,Kano,minor,,
593,Dan Musa,12.261567999999999,7.334091,Nigeria,NG,Katsina,minor,,
594,Mkpat Enin,4.734780000000001,7.748975,Nigeria,NG,Akwa Ibom,minor,,
595,Odogbolu,6.840350999999999,3.7628510000000004,Nigeria,NG,Ogun,minor,,
596,Otor-Udu,5.453411,5.8693,Nigeria,NG,Delta,minor,,
597,Kagarko,9.491102,7.697709,Nigeria,NG,Kaduna,minor,,
598,Uselu,6.384291999999999,5.609839,Nigeria,NG,Edo,minor,,
599,Kwali,8.883465,7.018575,Nigeria,NG,Federal Capital Territory,minor,,
600,Kirfi,10.405558000000001,10.404508,Nigeria,NG,Bauchi,minor,,
601,Batagarawa,12.906105,7.605856,Nigeria,NG,Katsina,minor,,
602,Nafada,11.095961,11.33261,Nigeria,NG,Gombe,minor,,
603,Dandume,11.458803999999999,7.126023,Nigeria,NG,Katsina,minor,,
604,Igarra,7.293655,6.1043199999999995,Nigeria,NG,Edo,minor,,
605,Owu-Isin,8.280897999999999,5.019394999999999,Nigeria,NG,Kwara,minor,,
606,Apapa,6.4488,3.359008,Nigeria,NG,Lagos,minor,,
607,Ringim,12.151434,9.162161,Nigeria,NG,Jigawa,minor,,
608,Zonkwa,9.784533999999999,8.290560000000001,Nigeria,NG,Kaduna,minor,,
609,Ijebu-Igbo,6.971977000000001,3.9993830000000004,Nigeria,NG,Ogun,minor,,
610,Ogoja,6.658397999999999,8.799227,Nigeria,NG,Cross River,minor,,
611,Maigana,11.027074,7.938441,Nigeria,NG,Kaduna,minor,,
612,Ozoro,5.546917,6.226485,Nigeria,NG,Delta,minor,,
613,Osu,7.5858550000000005,4.6226,Nigeria,NG,Osun,minor,,
614,Abuochiche,6.691323,8.943367,Nigeria,NG,Cross River,minor,,
615,Awo,7.7676419999999995,4.395154,Nigeria,NG,Osun,minor,,
616,Ejigbo,7.902919,4.314192,Nigeria,NG,Osun,minor,,
617,Atani,6.012772,6.747685000000001,Nigeria,NG,Anambra,minor,,
618,Afam,4.790044,7.311874,Nigeria,NG,Rivers,minor,,
619,Musawa,12.129489,7.670225,Nigeria,NG,Katsina,minor,,
620,Umuelemai,5.687856,7.243335000000001,Nigeria,NG,Imo,minor,,
621,Isiala Oboro,5.406325,7.568160000000001,Nigeria,NG,Abia,minor,,
622,Auchi,7.067562,6.263601,Nigeria,NG,Edo,minor,,
623,Faskari,11.721079,7.029914999999999,Nigeria,NG,Katsina,minor,,
624,Idu,5.030053,8.017156,Nigeria,NG,Akwa Ibom,minor,,
625,Shanga,11.213744,4.579413,Nigeria,NG,Kebbi,minor,,
626,Akodo,6.437868,3.9309,Nigeria,NG,Lagos,minor,,
627,Shani,10.218239,12.060595,Nigeria,NG,Borno,minor,,
628,Akanran,7.281239,4.0255279999999996,Nigeria,NG,Oyo,minor,,
629,Akamkpa,5.31246,8.355152,Nigeria,NG,Cross River,minor,,
630,Ikara,11.175114,8.224661,Nigeria,NG,Kaduna,minor,,
631,Magumeri,12.114511,12.826197,Nigeria,NG,Borno,minor,,
632,Dambam,11.678929,10.707924,Nigeria,NG,Bauchi,minor,,
633,Nkwoagu Isuochi,5.991247,7.394446,Nigeria,NG,Abia,minor,,
634,Zango,13.053129,8.485744,Nigeria,NG,Katsina,minor,,
635,Birnin Magaji,12.559201,6.894589999999999,Nigeria,NG,Zamfara,minor,,
636,Ajaka,7.174156,6.825348,Nigeria,NG,Kogi,minor,,
637,Dikenafai,5.770149,7.1547350000000005,Nigeria,NG,Imo,minor,,
638,Enwang,4.656429,8.25206,Nigeria,NG,Akwa Ibom,minor,,
639,Umunze,5.966943,7.236642999999999,Nigeria,NG,Anambra,minor,,
640,Bara,10.936048,11.682414999999999,Nigeria,NG,Yobe,minor,,
641,Naka,7.583305,8.204399,Nigeria,NG,Benue,minor,,
642,Omu-Aran,8.138568,5.102601,Nigeria,NG,Kwara,minor,,
643,Tureta,12.593667,5.543906,Nigeria,NG,Sokoto,minor,,
644,Ikole-Ekiti,7.791481,5.508652,Nigeria,NG,Ekiti,minor,,
645,Rumuodomaya,4.893332,7.002280000000001,Nigeria,NG,Rivers,minor,,
646,Maru,12.333594999999999,6.40372,Nigeria,NG,Zamfara,minor,,
647,Miga,12.238798,9.713617,Nigeria,NG,Jigawa,minor,,
648,Adogo,7.510043,6.479796,Nigeria,NG,Kogi,minor,,
649,Patani,5.228848,6.191387000000001,Nigeria,NG,Delta,minor,,
650,Sumaila,11.53011,8.955929,Nigeria,NG,Kano,minor,,
651,Bangi,10.833680000000001,5.8268830000000005,Nigeria,NG,Niger,minor,,
652,Birnin Kudu,11.452066,9.478555,Nigeria,NG,Jigawa,minor,,
653,Isiokpo,5.002434,6.8726199999999995,Nigeria,NG,Rivers,minor,,
654,Oke-Agbe,7.643141,5.7594330000000005,Nigeria,NG,Ondo,minor,,
655,Iye-Ekiti,7.954573,5.233143,Nigeria,NG,Ekiti,minor,,
656,Ezzamgbo,6.398949,7.961553,Nigeria,NG,Ebonyi,minor,,
657,Ita-Ogbolu,7.368376,5.246839,Nigeria,NG,Ondo,minor,,
658,Tsanyawa,12.295591,7.986538,Nigeria,NG,Kano,minor,,
659,Ebem Ohafia,5.631081,7.830242,Nigeria,NG,Abia,minor,,
660,Gwantu,9.228989,8.458075,Nigeria,NG,Kaduna,minor,,
661,Silame,13.039208,4.845932,Nigeria,NG,Sokoto,minor,,
662,Nnewi,6.019625,6.917287,Nigeria,NG,Anambra,minor,,
663,Odot,4.830953,8.038395,Nigeria,NG,Akwa Ibom,minor,,
664,Konduga,11.653312,13.41787,Nigeria,NG,Borno,minor,,
665,Atan,6.894561,4.007146,Nigeria,NG,Ogun,minor,,
666,Jajimaji,12.898499000000001,10.80688,Nigeria,NG,Yobe,minor,,
667,Itu,5.2013110000000005,7.983728,Nigeria,NG,Akwa Ibom,minor,,
668,Itori,6.9312309999999995,3.221466,Nigeria,NG,Ogun,minor,,
669,Dengi,9.368723,9.962233,Nigeria,NG,Plateau,minor,,
670,Akpet Central,5.621048,8.101628,Nigeria,NG,Cross River,minor,,
671,Ibiaku Ntok Okpo,5.308572,7.711059,Nigeria,NG,Akwa Ibom,minor,,
672,Ebute-Metta,6.487988,3.3816620000000004,Nigeria,NG,Lagos,minor,,
673,Ogbe-Ijoh,5.483243,5.734605,Nigeria,NG,Delta,minor,,
674,Ogbede,6.672952,7.374409,Nigeria,NG,Enugu,minor,,
675,Bodinga,12.84413,5.150007,Nigeria,NG,Sokoto,minor,,
676,Bode Saadu,8.938996000000001,4.78227,Nigeria,NG,Kwara,minor,,
677,Ifon,6.929728999999999,5.773681,Nigeria,NG,Ondo,minor,,
678,Obollo-Afor,6.916245,7.518485000000001,Nigeria,NG,Enugu,minor,,
679,Isiaka,5.862653,7.546214999999999,Nigeria,NG,Ebonyi,minor,,
680,Giade,11.390833,10.199874000000001,Nigeria,NG,Bauchi,minor,,
681,Maikunkele,9.684301,6.478895,Nigeria,NG,Niger,minor,,
682,Koguna,12.381368,8.457325,Nigeria,NG,Kano,minor,,
683,Tse-Agberagba,7.076678,8.665508,Nigeria,NG,Benue,minor,,
684,Kwoi,9.457447,8.006841,Nigeria,NG,Kaduna,minor,,
685,Mokwa,9.294818,5.054124,Nigeria,NG,Niger,minor,,
686,Tofa,12.057886,8.273092,Nigeria,NG,Kano,minor,,
687,Tafawa Balewa,9.760172,9.551724,Nigeria,NG,Bauchi,minor,,
688,Owena,7.194135,5.022645,Nigeria,NG,Ondo,minor,,
689,Ogbia,4.688364,6.315254,Nigeria,NG,Bayelsa,minor,,
690,Ajalli,6.044268,7.208645,Nigeria,NG,Anambra,minor,,
691,Tambuwal,12.405925,4.646053,Nigeria,NG,Sokoto,minor,,
692,Karaye,11.783603,8.015039999999999,Nigeria,NG,Kano,minor,,
693,Buguma,4.736141,6.862361999999999,Nigeria,NG,Rivers,minor,,
694,Makurdi,7.733746000000001,8.52139,Nigeria,NG,Benue,admin,,
695,Nteje,6.268102,6.920617999999999,Nigeria,NG,Anambra,minor,,
696,Wudil,11.809374,8.844222,Nigeria,NG,Kano,minor,,
697,Jahun,12.076292,9.627572,Nigeria,NG,Jigawa,minor,,
698,Offa,8.149113999999999,4.720744,Nigeria,NG,Kwara,minor,,
699,Geidam,12.894389,11.926491,Nigeria,NG,Yobe,minor,,
700,Otan Ayegbaju,7.947833999999999,4.788364,Nigeria,NG,Osun,minor,,
701,Taura,12.227122,9.283062,Nigeria,NG,Jigawa,minor,,
702,Dass,10.00065,9.515963000000001,Nigeria,NG,Bauchi,minor,,
703,Kuta,9.868638,6.710425,Nigeria,NG,Niger,minor,,
704,Malam Madori,12.564729,9.880839,Nigeria,NG,Jigawa,minor,,
705,Kisi,9.082971,3.8519650000000003,Nigeria,NG,Oyo,minor,,
706,Itu,5.463951,7.330775999999999,Nigeria,NG,Imo,minor,,
707,Otuocha,6.339078,6.846358,Nigeria,NG,Anambra,minor,,
708,Okeho,8.033856,3.347589,Nigeria,NG,Oyo,minor,,
709,Oke-Ila,7.950696000000001,4.988736,Nigeria,NG,Osun,minor,,
710,Michika,10.620424,13.389282999999999,Nigeria,NG,Adamawa,minor,,
711,Ile-Ogbo,7.6212919999999995,4.245314,Nigeria,NG,Osun,minor,,
712,Katagum,12.285071,10.350265,Nigeria,NG,Bauchi,minor,,
713,Gaya,11.860636999999999,9.002702000000001,Nigeria,NG,Kano,minor,,
714,Afaha Ikot Ebak,5.125042,7.657164999999999,Nigeria,NG,Akwa Ibom,minor,,
715,Kwaya Kusar,10.502964,11.843311,Nigeria,NG,Borno,minor,,
716,Kwale,5.7077290000000005,6.434017,Nigeria,NG,Delta,minor,,
717,Okada,6.734686,5.390833,Nigeria,NG,Edo,minor,,
718,Oleh,5.461857,6.206239,Nigeria,NG,Delta,minor,,
719,Gada,13.754303,5.657227,Nigeria,NG,Sokoto,minor,,
720,Emure-Ekiti,7.436356,5.45925,Nigeria,NG,Ekiti,minor,,
721,Enagi,9.127336,5.543868,Nigeria,NG,Niger,minor,,
722,Afon,8.313129,4.527384,Nigeria,NG,Kwara,minor,,
723,Okrika,4.742154,7.083678,Nigeria,NG,Rivers,minor,,
724,Twon-Brass,4.3123059999999995,6.240906,Nigeria,NG,Bayelsa,minor,,
725,Nembe,4.536734,6.403325,Nigeria,NG,Bayelsa,minor,,
726,Kosubosu,9.551067999999999,3.228411,Nigeria,NG,Kwara,minor,,
727,Donga,7.721744999999999,10.045261,Nigeria,NG,Taraba,minor,,
728,Etinan,4.842617,7.852523,Nigeria,NG,Akwa Ibom,minor,,
729,Okitipupa,6.505503,4.779565,Nigeria,NG,Ondo,minor,,
730,Ede,7.736347,4.435363,Nigeria,NG,Osun,minor,,
731,Bebeji,11.667684,8.261997000000001,Nigeria,NG,Kano,minor,,
732,Sakaba,11.06513,5.596099,Nigeria,NG,Kebbi,minor,,
733,Okuku,8.018073,4.67253,Nigeria,NG,Osun,minor,,
734,Rogo,11.552374,7.822532000000001,Nigeria,NG,Kano,minor,,
735,Daura,13.032992,8.32351,Nigeria,NG,Katsina,minor,,
736,Achalla,6.334651,6.988630000000001,Nigeria,NG,Anambra,minor,,
737,Kauru,10.576008,8.150955999999999,Nigeria,NG,Kaduna,minor,,
738,Nwaorieubi,5.581818,7.016505,Nigeria,NG,Imo,minor,,
739,Umuneke-Ngor,5.335579,7.1518690000000005,Nigeria,NG,Imo,minor,,
740,Kiyawa,11.784422,9.606904,Nigeria,NG,Jigawa,minor,,
741,Bomadi,5.160727,5.9237470000000005,Nigeria,NG,Delta,minor,,
742,Ikot Akpa Nkuk,4.872307,7.564585000000001,Nigeria,NG,Akwa Ibom,minor,,
743,Mgboko,5.1695519999999995,7.358621,Nigeria,NG,Abia,minor,,
744,Kafur,11.645892,7.690677,Nigeria,NG,Katsina,minor,,
745,Ikire,7.372414,4.187394,Nigeria,NG,Osun,minor,,
746,Kalgo,12.326664,4.2004,Nigeria,NG,Kebbi,minor,,
747,Wamba,8.941532,8.603154,Nigeria,NG,Nasarawa,minor,,
748,Wamako,13.030541,5.104326,Nigeria,NG,Sokoto,minor,,
749,Minjibir,12.177652,8.657817999999999,Nigeria,NG,Kano,minor,,
