,city,lat,lng,country,iso2,admin,capital,population,population_proper
0,Oslo,59.916667000000004,10.75,Norway,NO,Oslo,primary,835000.0,580000.0
1,Bergen,60.391110999999995,5.324722,Norway,NO,Hordaland,admin,213585.0,187194.0
2,Stavanger,58.966667,5.75,Norway,NO,Rogaland,admin,173132.0,100866.0
3,Trondheim,63.416667000000004,10.416667,Norway,NO,Sør-Trøndelag,admin,147139.0,141533.0
4,Drammen,59.7425,10.211667,Norway,NO,Buskerud,admin,90722.0,80153.0
5,Skyer,59.2,9.683333,Norway,NO,Telemark,,73330.0,73330.0
6,Kristiansand,58.166667000000004,8.0,Norway,NO,Vest-Agder,admin,63814.0,52770.0
7,Tomasjorda,69.666667,19.016667,Norway,NO,Troms,,52436.0,45365.0
8,Ålesund,62.47276,6.15346,Norway,NO,Møre og Romsdal,minor,47772.0,42982.0
9,Sandnes,58.85,5.733333,Norway,NO,Rogaland,minor,46911.0,46911.0
10,Haugesund,59.41194399999999,5.2775,Norway,NO,Rogaland,minor,40321.0,32118.0
11,Tønsberg,59.285833,10.418056,Norway,NO,Vestfold,admin,38914.0,38914.0
12,Moss,59.43666700000001,10.669167,Norway,NO,Østfold,minor,36901.0,34492.0
13,Bodø,67.283333,14.383332999999999,Norway,NO,Nordland,admin,34073.0,28694.0
14,Arendal,58.460278,8.766667,Norway,NO,Aust-Agder,admin,30916.0,30916.0
15,Hamar,60.8,11.1,Norway,NO,Hedmark,admin,29479.0,29479.0
16,Gjøvik,60.8,10.7,Norway,NO,Oppland,minor,22719.0,17596.0
17,Mo i Rana,66.31666700000001,14.166667000000002,Norway,NO,Nordland,minor,20409.0,17853.0
18,Narvik,68.435556,17.437222,Norway,NO,Nordland,minor,20000.0,18473.0
19,Lillehammer,61.13333299999999,10.5,Norway,NO,Oppland,admin,19542.0,19096.0
20,Harstad,68.8025,16.545556,Norway,NO,Troms,minor,19433.0,18973.0
21,Molde,62.733332999999995,7.183333,Norway,NO,Møre og Romsdal,admin,18594.0,13749.0
22,Alta,69.966667,23.241667,Norway,NO,Finnmark,minor,12077.0,12077.0
23,Steinkjer,64.016667,11.5,Norway,NO,Nord-Trøndelag,admin,11274.0,11113.0
24,Hammerfest,70.66166700000001,23.688333,Norway,NO,Finnmark,minor,10000.0,9934.0
25,Namsos,64.483333,11.5,Norway,NO,Nord-Trøndelag,minor,9035.0,9035.0
26,Vossevangen,60.63333299999999,6.433333,Norway,NO,Hordaland,,5571.0,5571.0
27,Vadsø,70.07305600000001,29.769721999999998,Norway,NO,Finnmark,admin,5139.0,5139.0
28,Svolvær,68.233333,14.566667,Norway,NO,Nordland,minor,4197.0,4197.0
29,Finnsnes,69.233333,17.983333,Norway,NO,Troms,minor,3907.0,3315.0
30,Kirkenes,69.725,30.051667,Norway,NO,Finnmark,minor,3282.0,2174.0
31,Rørvik,64.85,11.233333,Norway,NO,Nord-Trøndelag,minor,2615.0,2615.0
32,Hermansverk,61.183333,6.85,Norway,NO,Sogn og Fjordane,admin,1965.0,1965.0
33,Skogsvåg,60.255590000000005,5.1016699999999995,Norway,NO,Hordaland,minor,,
34,Noresund,60.166667000000004,9.616667,Norway,NO,Buskerud,minor,,
35,Sandnessjøen,66.016667,12.633333,Norway,NO,Nordland,minor,,
36,Hansnes,69.966667,19.6,Norway,NO,Troms,minor,,
37,Råde,59.35,10.85,Norway,NO,Østfold,minor,,
38,Tingvoll,62.913056000000005,8.205556,Norway,NO,Møre og Romsdal,minor,,
39,Årdalstangen,61.233332999999995,7.716667,Norway,NO,Sogn og Fjordane,minor,,
40,Rosendal,59.983332999999995,6.016667,Norway,NO,Hordaland,minor,,
41,Batnfjordsøra,62.88333299999999,7.7,Norway,NO,Møre og Romsdal,minor,,
42,Namdalseid,64.22287,11.22102,Norway,NO,Nord-Trøndelag,minor,,
43,Jaren,60.38333299999999,10.55,Norway,NO,Oppland,minor,,
44,Hov,60.7,10.35,Norway,NO,Oppland,minor,,
45,Kragerø,58.86666700000001,9.416667,Norway,NO,Telemark,minor,,
46,Stranda,62.316667,6.9,Norway,NO,Møre og Romsdal,minor,,
47,Gratangen,68.65,17.683332999999998,Norway,NO,Troms,minor,,
48,Valldal,62.333332999999996,7.35,Norway,NO,Møre og Romsdal,minor,,
49,Ulefoss,59.283333,9.266667,Norway,NO,Telemark,minor,,
50,Våler,60.666667000000004,11.833333,Norway,NO,Hedmark,minor,,
51,Drøbak,59.663332999999994,10.631111,Norway,NO,Akershus,minor,,
52,Hokksund,59.77186999999999,9.88385,Norway,NO,Buskerud,minor,,
53,Lurøy,66.417,12.84472,Norway,NO,Nordland,minor,,
54,Vik,65.3,12.15,Norway,NO,Nordland,minor,,
55,Tysse,60.370833,5.756111,Norway,NO,Hordaland,minor,,
56,Kleppe,58.766667000000005,5.6666669999999995,Norway,NO,Rogaland,minor,,
57,Skjåk,61.88105,8.36928,Norway,NO,Oppland,minor,,
58,Vågå,61.86877,9.12332,Norway,NO,Oppland,minor,,
59,Åseral,58.61666700000001,7.4166669999999995,Norway,NO,Vest-Agder,minor,,
60,Langesund,59.0,9.75,Norway,NO,Telemark,minor,,
61,Sørumsand,59.966667,11.25,Norway,NO,Akershus,minor,,
62,Randaberg,59.0,5.6,Norway,NO,Rogaland,minor,,
63,Treungen,59.033333,8.55,Norway,NO,Telemark,minor,,
64,Ølen,59.603611,5.8075,Norway,NO,Rogaland,minor,,
65,Sykkylven,62.39723000000001,6.58321,Norway,NO,Møre og Romsdal,minor,,
66,Ål,60.63333299999999,8.566667,Norway,NO,Buskerud,minor,,
67,Kongsberg,59.65,9.65,Norway,NO,Buskerud,minor,,
68,Ski,59.716667,10.833333,Norway,NO,Akershus,minor,,
69,Dale,60.583332999999996,5.816667,Norway,NO,Hordaland,minor,,
70,Lyngdal,58.13333299999999,7.0833330000000005,Norway,NO,Vest-Agder,minor,,
71,Kongsvinger,60.2,12.0,Norway,NO,Hedmark,minor,,
72,Brøstadbotn,69.079444,17.701389000000002,Norway,NO,Troms,minor,,
73,Sør-Fron,61.566667,9.933333,Norway,NO,Oppland,minor,,
74,Oppdal,62.6,9.666667,Norway,NO,Sør-Trøndelag,minor,,
75,Bjørkelangen,59.88333299999999,11.566667,Norway,NO,Akershus,minor,,
76,Alvdal,62.11666700000001,10.65,Norway,NO,Hedmark,minor,,
77,Brekstad,63.683333,9.683333,Norway,NO,Sør-Trøndelag,minor,,
78,Iveland,58.447269999999996,7.91631,Norway,NO,Aust-Agder,minor,,
79,Storslett,69.766667,21.016667,Norway,NO,Troms,minor,,
80,Søgne,58.083332999999996,7.816667,Norway,NO,Vest-Agder,minor,,
81,Rena,61.13333299999999,11.366667,Norway,NO,Hedmark,minor,,
82,Evje,58.6,7.85,Norway,NO,Aust-Agder,minor,,
83,Brønnøysund,65.466667,12.216667,Norway,NO,Nordland,minor,,
84,Selbu,63.21654,11.039539999999999,Norway,NO,Sør-Trøndelag,minor,,
85,Nesna,66.2,13.033333,Norway,NO,Nordland,minor,,
86,Nannestad,60.212364,11.004408,Norway,NO,Akershus,minor,,
87,Andenes,69.320278,16.142778,Norway,NO,Nordland,minor,,
88,Borkenes,68.783333,16.183332999999998,Norway,NO,Troms,minor,,
89,Bremnes,59.795278,5.175278,Norway,NO,Hordaland,minor,,
90,Jevnaker,60.25,10.466667,Norway,NO,Oppland,minor,,
91,Bruflat,60.88333299999999,9.616667,Norway,NO,Oppland,minor,,
92,Stokmarknes,68.561944,14.908610999999999,Norway,NO,Nordland,minor,,
93,Kjøllefjord,70.93333299999999,27.35,Norway,NO,Finnmark,minor,,
94,Røyrvik,64.883333,13.55,Norway,NO,Nord-Trøndelag,minor,,
95,Fiskå,62.099880000000006,5.55656,Norway,NO,Møre og Romsdal,minor,,
96,Rognan,67.1,15.383332999999999,Norway,NO,Nordland,minor,,
97,Hommelvik,63.416667000000004,10.8,Norway,NO,Sør-Trøndelag,minor,,
98,Volda,62.15,6.1,Norway,NO,Møre og Romsdal,minor,,
99,Alstad,63.585190000000004,10.737689999999999,Norway,NO,Nord-Trøndelag,minor,,
100,Valderhaug,62.49853,6.12775,Norway,NO,Møre og Romsdal,minor,,
101,Surnadal,62.97544,8.72457,Norway,NO,Møre og Romsdal,minor,,
102,Hauge,58.35,6.283333,Norway,NO,Rogaland,minor,,
103,Bø,59.416667000000004,9.066667,Norway,NO,Telemark,minor,,
104,Gryllefjord,69.366667,17.016667,Norway,NO,Troms,minor,,
105,Kopervik,59.283333,5.3,Norway,NO,Rogaland,minor,,
106,Gjerstad,58.86666700000001,9.0,Norway,NO,Aust-Agder,minor,,
107,Leksvik,63.67267,10.629480000000001,Norway,NO,Nord-Trøndelag,minor,,
108,Kvalsund,70.5025,23.988056,Norway,NO,Finnmark,minor,,
109,Ås,63.05,11.65,Norway,NO,Sør-Trøndelag,minor,,
110,Reine,67.93372,13.089139999999999,Norway,NO,Nordland,minor,,
111,Brattvåg,62.6,6.45,Norway,NO,Møre og Romsdal,minor,,
112,Støren,63.037180000000006,10.28558,Norway,NO,Sør-Trøndelag,minor,,
113,Meldal,63.046130000000005,9.71033,Norway,NO,Sør-Trøndelag,minor,,
114,Larsnes,62.216667,5.6,Norway,NO,Møre og Romsdal,minor,,
115,Lena,60.666667000000004,10.8,Norway,NO,Oppland,minor,,
116,Sørland,67.666667,12.7,Norway,NO,Nordland,minor,,
117,Steinshamn,62.783333,6.483333,Norway,NO,Møre og Romsdal,minor,,
118,Skjervøy,70.033333,20.983333,Norway,NO,Troms,minor,,
119,Skarnes,60.25,11.683333,Norway,NO,Hedmark,minor,,
120,Dokka,60.833332999999996,10.083333,Norway,NO,Oppland,minor,,
121,Masfjordnes,60.8,5.3,Norway,NO,Hordaland,minor,,
122,Kvinesdal,58.316667,6.95,Norway,NO,Vest-Agder,minor,,
123,Bruhagen,63.05331999999999,7.6322600000000005,Norway,NO,Møre og Romsdal,minor,,
124,Isdalstø,60.555556,5.2691669999999995,Norway,NO,Hordaland,minor,,
125,Falkhytta,62.805780000000006,6.88576,Norway,NO,Møre og Romsdal,minor,,
126,Flekkefjord,58.283333,6.683333,Norway,NO,Vest-Agder,minor,,
127,Kolvereid,64.85,11.6,Norway,NO,Nord-Trøndelag,minor,,
128,Øksfjord,70.23916700000001,22.371389,Norway,NO,Finnmark,minor,,
129,Oteren,69.25538399999999,19.881581,Norway,NO,Troms,minor,,
130,Honningsvåg,70.983333,25.983333,Norway,NO,Finnmark,minor,,
131,Sunndalsøra,62.666667000000004,8.55,Norway,NO,Møre og Romsdal,minor,,
132,Tynset,62.283333,10.783333,Norway,NO,Hedmark,minor,,
133,Granvin,60.55,6.716667,Norway,NO,Hordaland,minor,,
134,Sørreisa,69.13873199999999,18.17983,Norway,NO,Troms,minor,,
135,Årnes,63.966667,10.233333,Norway,NO,Sør-Trøndelag,minor,,
136,Hareid,62.36666700000001,6.033333,Norway,NO,Møre og Romsdal,minor,,
137,Tromsø,69.666667,18.966667,Norway,NO,Troms,admin,,
138,Terråk,65.083333,12.416667,Norway,NO,Nordland,minor,,
139,Lom,61.833332999999996,8.55,Norway,NO,Oppland,minor,,
140,Trysil,61.316667,12.266667,Norway,NO,Hedmark,minor,,
141,Bardu,68.86563000000001,18.34735,Norway,NO,Troms,minor,,
142,Bogen,68.52619,16.9945,Norway,NO,Nordland,minor,,
143,Rong,60.513332999999996,4.903333,Norway,NO,Hordaland,minor,,
144,Burfjord,69.93333299999999,22.05,Norway,NO,Troms,minor,,
145,Koppang,61.566667,11.066667,Norway,NO,Hedmark,minor,,
146,Eidsvåg,62.781943999999996,8.071111,Norway,NO,Møre og Romsdal,minor,,
147,Eidsvoll,60.316667,11.233333,Norway,NO,Akershus,minor,,
148,Sagstua,60.388459999999995,11.53763,Norway,NO,Hedmark,minor,,
149,Flå,60.416667000000004,9.466667,Norway,NO,Buskerud,minor,,
150,Rjukan,59.88333299999999,8.6,Norway,NO,Telemark,minor,,
151,Sveio,59.544722,5.349167,Norway,NO,Hordaland,minor,,
152,Karasjok,69.45,25.5,Norway,NO,Finnmark,minor,,
153,Vikevåg,59.09805600000001,5.698055999999999,Norway,NO,Rogaland,minor,,
154,Vågaholmen,66.70914,13.2693,Norway,NO,Nordland,minor,,
155,Ramberg,68.083333,13.233332999999998,Norway,NO,Nordland,minor,,
156,Hamnvik,68.783333,17.183332999999998,Norway,NO,Troms,minor,,
157,Midsund,62.683333,6.683333,Norway,NO,Møre og Romsdal,minor,,
158,Skien,59.2,9.6,Norway,NO,Telemark,admin,,
159,Enebakk,59.756127,11.136371,Norway,NO,Akershus,minor,,
160,Birkeland,58.333332999999996,8.233333,Norway,NO,Aust-Agder,minor,,
161,Flisa,60.60781,12.05206,Norway,NO,Hedmark,minor,,
162,Raufoss,60.716667,10.616667,Norway,NO,Oppland,minor,,
163,Ørnes,66.866667,13.7,Norway,NO,Nordland,minor,,
164,Krokstadøra,63.4,9.5,Norway,NO,Sør-Trøndelag,minor,,
165,Olderdalen,69.616667,20.533333,Norway,NO,Troms,minor,,
166,Eivinvik,60.983332999999995,5.066667,Norway,NO,Sogn og Fjordane,minor,,
167,Høyanger,61.216667,6.0833330000000005,Norway,NO,Sogn og Fjordane,minor,,
168,Manger,60.641667000000005,5.039167,Norway,NO,Hordaland,minor,,
169,Balestrand,61.2,6.533333,Norway,NO,Sogn og Fjordane,minor,,
170,Liabøen,63.11666700000001,8.3,Norway,NO,Møre og Romsdal,minor,,
171,Inndyr,67.033333,14.033332999999999,Norway,NO,Nordland,minor,,
172,Breivikbotn,70.59264399999999,22.297676,Norway,NO,Finnmark,minor,,
173,Tana Bru,70.20238,28.173309999999997,Norway,NO,Finnmark,minor,,
174,Hemsedal,60.86666700000001,8.566667,Norway,NO,Buskerud,minor,,
175,Rømskog,59.712676,11.841647,Norway,NO,Østfold,minor,,
176,Dale,61.36666700000001,5.4166669999999995,Norway,NO,Sogn og Fjordane,minor,,
177,Røyken,59.7475,10.393611,Norway,NO,Buskerud,minor,,
178,Bryne,58.733332999999995,5.65,Norway,NO,Rogaland,minor,,
179,Os,62.5,11.2,Norway,NO,Hedmark,minor,,
180,Hol,60.62003000000001,8.297178,Norway,NO,Buskerud,minor,,
181,Rygge,59.38333299999999,10.716667,Norway,NO,Østfold,minor,,
182,Verdal,63.8,11.483333,Norway,NO,Nord-Trøndelag,minor,,
183,Lyngseidet,69.583333,20.216667,Norway,NO,Troms,minor,,
184,Mandal,58.033333,7.45,Norway,NO,Vest-Agder,minor,,
185,Sætre,59.681667000000004,10.524722,Norway,NO,Buskerud,minor,,
186,Utsira,59.3,4.9,Norway,NO,Rogaland,minor,,
187,Fagernes,60.983332999999995,9.25,Norway,NO,Oppland,minor,,
188,Sandane,61.766667000000005,6.216667,Norway,NO,Sogn og Fjordane,minor,,
189,Heggenes,61.15,9.083333,Norway,NO,Oppland,minor,,
190,Odda,60.066667,6.55,Norway,NO,Hordaland,minor,,
191,Fetsund,59.933333,11.166667,Norway,NO,Akershus,minor,,
192,Naustdal,61.516667000000005,5.716667,Norway,NO,Sogn og Fjordane,minor,,
193,Rissa,63.58324,9.95911,Norway,NO,Sør-Trøndelag,minor,,
194,Våler,59.487373999999996,10.852732000000001,Norway,NO,Østfold,minor,,
195,Hobøl,59.598415,10.942048,Norway,NO,Østfold,minor,,
196,Elnesvågen,62.85381999999999,7.153630000000001,Norway,NO,Møre og Romsdal,minor,,
197,Frekhaug,60.517222,5.246111,Norway,NO,Hordaland,minor,,
198,Straumen,67.35,15.6,Norway,NO,Nordland,minor,,
199,Tvedestrand,58.624444,8.928611,Norway,NO,Aust-Agder,minor,,
200,Ålen,62.85,11.283333,Norway,NO,Sør-Trøndelag,minor,,
201,Fauske,67.25,15.4,Norway,NO,Nordland,minor,,
202,Grong,64.45,12.333333,Norway,NO,Nord-Trøndelag,minor,,
203,Sjøvegan,68.873333,17.864444,Norway,NO,Troms,minor,,
204,Høylandet,64.62775,12.29996,Norway,NO,Nord-Trøndelag,minor,,
205,Kyrksæterøra,63.283333,9.1,Norway,NO,Sør-Trøndelag,minor,,
206,Judaberg,59.183333,5.85,Norway,NO,Rogaland,minor,,
207,Norheimsund,60.36666700000001,6.133333,Norway,NO,Hordaland,minor,,
208,Ulvik,60.566667,6.9,Norway,NO,Hordaland,minor,,
209,Berlevåg,70.85,29.1,Norway,NO,Finnmark,minor,,
210,Østre Gausdal,61.25812,10.153939999999999,Norway,NO,Oppland,minor,,
211,Ålgård,58.766667000000005,5.85,Norway,NO,Rogaland,minor,,
212,Orkanger,63.316667,9.866667,Norway,NO,Sør-Trøndelag,minor,,
213,Ørje,59.483332999999995,11.65,Norway,NO,Østfold,minor,,
214,Førde,61.45,5.866667,Norway,NO,Sogn og Fjordane,minor,,
215,Årnes,60.15,11.466667,Norway,NO,Akershus,minor,,
216,Vestby,59.6,10.75,Norway,NO,Akershus,minor,,
217,Otta,61.766667000000005,9.533333,Norway,NO,Oppland,minor,,
218,Røyse,60.07685,10.19652,Norway,NO,Buskerud,minor,,
219,Rødberg,60.271069999999995,8.953669999999999,Norway,NO,Buskerud,minor,,
220,Lampeland,59.834219999999995,9.57586,Norway,NO,Buskerud,minor,,
221,Vang,61.124480000000005,8.57399,Norway,NO,Oppland,minor,,
222,Lauvsnes,64.5,10.916667,Norway,NO,Nord-Trøndelag,minor,,
223,Aurlandsvangen,60.906259999999996,7.18635,Norway,NO,Sogn og Fjordane,minor,,
224,Gaupne,61.40481,7.29415,Norway,NO,Sogn og Fjordane,minor,,
225,Korgen,66.083333,13.833332999999998,Norway,NO,Nordland,minor,,
226,Spydeberg,59.6,11.083333,Norway,NO,Østfold,minor,,
227,Asker,59.833332999999996,10.433333,Norway,NO,Akershus,minor,,
228,Namsskogan,64.916667,13.166667000000002,Norway,NO,Nord-Trøndelag,minor,,
229,Mosjøen,65.833333,13.2,Norway,NO,Nordland,minor,,
230,Fredrikstad,59.216667,10.95,Norway,NO,Østfold,minor,,
231,Grimstad,58.34055600000001,8.588611,Norway,NO,Aust-Agder,minor,,
232,Langevåg,62.443419999999996,6.188359999999999,Norway,NO,Møre og Romsdal,minor,,
233,Mjøndalen,59.75,10.016667,Norway,NO,Buskerud,minor,,
234,Fillan,63.6,8.983333,Norway,NO,Sør-Trøndelag,minor,,
235,Uggdal,60.008889,5.512222,Norway,NO,Hordaland,minor,,
236,Dovre,61.983332999999995,9.25,Norway,NO,Oppland,minor,,
237,Drangedal,59.1,9.066667,Norway,NO,Telemark,minor,,
238,Malm,64.06666700000001,11.216667,Norway,NO,Nord-Trøndelag,minor,,
239,Stordal,62.38203000000001,6.98608,Norway,NO,Møre og Romsdal,minor,,
240,Leknes,65.1,11.7,Norway,NO,Nord-Trøndelag,minor,,
241,Varhaug,58.61666700000001,5.65,Norway,NO,Rogaland,minor,,
242,Konsmo,58.3,7.4,Norway,NO,Vest-Agder,minor,,
243,Mo,60.816667,5.8,Norway,NO,Hordaland,minor,,
244,Bagn,60.816667,9.566667,Norway,NO,Oppland,minor,,
245,Kirkenær,60.466667,12.05,Norway,NO,Hedmark,minor,,
246,Ringebu,61.516667000000005,10.166667,Norway,NO,Oppland,minor,,
247,Øyer,61.26715,10.424439999999999,Norway,NO,Oppland,minor,,
248,Straume,60.35578,5.1196,Norway,NO,Hordaland,minor,,
249,Austrheim,60.764430000000004,4.91349,Norway,NO,Hordaland,minor,,
250,Kinsarvik,60.37583000000001,6.72593,Norway,NO,Hordaland,minor,,
251,Voss,60.63182,6.41669,Norway,NO,Hordaland,minor,,
252,Stord,59.77384,5.49028,Norway,NO,Hordaland,minor,,
253,Os,60.18346,5.46663,Norway,NO,Hordaland,minor,,
254,Slidre,61.08825,8.98076,Norway,NO,Oppland,minor,,
255,Eikelandsosen,60.23944399999999,5.753889,Norway,NO,Hordaland,minor,,
256,Lesja,62.121230000000004,8.8457,Norway,NO,Oppland,minor,,
257,Ørskog,62.47886,6.81155,Norway,NO,Møre og Romsdal,minor,,
258,Bykle,59.35,7.3333330000000005,Norway,NO,Aust-Agder,minor,,
259,Bygland,58.85,7.85,Norway,NO,Aust-Agder,minor,,
260,Skodje,62.516667000000005,6.716667,Norway,NO,Møre og Romsdal,minor,,
261,Storsteinnes,69.233333,19.25,Norway,NO,Troms,minor,,
262,Lonevåg,60.533333,5.5,Norway,NO,Hordaland,minor,,
263,Evenskjer,68.583333,16.566667000000002,Norway,NO,Troms,minor,,
264,Tennevoll,68.75,17.8,Norway,NO,Troms,minor,,
265,Marnardal,58.212419999999995,7.51168,Norway,NO,Vest-Agder,minor,,
266,Sandvika,59.891667000000005,10.524722,Norway,NO,Akershus,minor,,
267,Selje,62.049167000000004,5.348056,Norway,NO,Sogn og Fjordane,minor,,
268,Løten,60.816667,11.316667,Norway,NO,Hedmark,minor,,
269,Nodeland,58.15,7.85,Norway,NO,Vest-Agder,minor,,
270,Lensvik,63.516667000000005,9.816667,Norway,NO,Sør-Trøndelag,minor,,
271,Skaland,69.45,17.3,Norway,NO,Troms,minor,,
272,Vennesla,58.283333,7.983333,Norway,NO,Vest-Agder,minor,,
273,Nittedal,60.022466,10.923943,Norway,NO,Akershus,minor,,
274,Notodden,59.566667,9.283333,Norway,NO,Telemark,minor,,
275,Leland,66.06666700000001,12.95,Norway,NO,Nordland,minor,,
276,Sauda,59.65,6.3333330000000005,Norway,NO,Rogaland,minor,,
277,Halden,59.15,11.383333,Norway,NO,Østfold,minor,,
278,Fedje,60.781110999999996,4.713056,Norway,NO,Hordaland,minor,,
279,Aksdal,59.42588000000001,5.42903,Norway,NO,Rogaland,minor,,
280,Snåsa,64.25,12.366667,Norway,NO,Nord-Trøndelag,minor,,
281,Lærdalsøyri,61.1,7.483333,Norway,NO,Sogn og Fjordane,minor,,
282,Myre,68.9,15.083332999999998,Norway,NO,Nordland,minor,,
283,Fyresdal,59.18849,8.089739999999999,Norway,NO,Telemark,minor,,
284,Klæbu,63.29886,10.48054,Norway,NO,Sør-Trøndelag,minor,,
285,Vestnes,62.63333299999999,7.0833330000000005,Norway,NO,Møre og Romsdal,minor,,
286,Sarpsborg,59.283333,11.116667,Norway,NO,Østfold,admin,,
287,Seljord,59.483332999999995,8.616667,Norway,NO,Telemark,minor,,
288,Åndalsnes,62.566667,7.7,Norway,NO,Møre og Romsdal,minor,,
289,Sand,59.48234,6.27883,Norway,NO,Rogaland,minor,,
290,Gjerdrum,60.083332999999996,11.1,Norway,NO,Akershus,minor,,
291,Berkåk,62.833332999999996,10.0,Norway,NO,Sør-Trøndelag,minor,,
292,Jondal,60.283333,6.283333,Norway,NO,Hordaland,minor,,
293,Tonstad,58.666667000000004,6.716667,Norway,NO,Vest-Agder,minor,,
294,Trofors,65.56666700000001,13.416667000000002,Norway,NO,Nordland,minor,,
295,Farsund,58.083332999999996,6.8,Norway,NO,Vest-Agder,minor,,
296,Sande,61.333332999999996,5.8,Norway,NO,Sogn og Fjordane,minor,,
297,Florø,61.6,5.0,Norway,NO,Sogn og Fjordane,minor,,
298,Mysen,59.55,11.333333,Norway,NO,Østfold,minor,,
299,Etne,59.666667000000004,5.933333,Norway,NO,Hordaland,minor,,
300,Eide,62.916667000000004,7.433333,Norway,NO,Møre og Romsdal,minor,,
301,Kautokeino,68.983333,23.133333,Norway,NO,Finnmark,minor,,
302,Brumunddal,60.88333299999999,10.933333,Norway,NO,Hedmark,minor,,
303,Kristiansund,63.11666700000001,7.75,Norway,NO,Møre og Romsdal,minor,,
304,Botngard,63.766667000000005,9.816667,Norway,NO,Sør-Trøndelag,minor,,
305,Fosnavåg,62.35,5.65,Norway,NO,Møre og Romsdal,minor,,
306,Nordli,64.46533000000001,13.59341,Norway,NO,Nord-Trøndelag,minor,,
307,Meråker,63.433333,11.75,Norway,NO,Nord-Trøndelag,minor,,
308,Sola,58.88333299999999,5.6,Norway,NO,Rogaland,minor,,
309,Svelgen,61.766667000000005,5.3,Norway,NO,Sogn og Fjordane,minor,,
310,Jessheim,60.15,11.183333,Norway,NO,Akershus,minor,,
311,Kviteseid,59.4,8.5,Norway,NO,Telemark,minor,,
312,Røst,67.516667,12.116667,Norway,NO,Nordland,minor,,
313,Froland,58.533333,8.65,Norway,NO,Aust-Agder,minor,,
314,Ås,59.666667000000004,10.8,Norway,NO,Akershus,minor,,
315,Eidfjord,60.466667,7.0833330000000005,Norway,NO,Hordaland,minor,,
316,Skjærhalden,59.033333,11.033333,Norway,NO,Østfold,minor,,
317,Lakselv,70.05,24.933332999999998,Norway,NO,Finnmark,minor,,
318,Siljan,59.3,9.7,Norway,NO,Telemark,minor,,
319,Hønefoss,60.166667000000004,10.3,Norway,NO,Buskerud,minor,,
320,Rakkestad,59.433333,11.35,Norway,NO,Østfold,minor,,
321,Måløy,61.93833299999999,5.113333,Norway,NO,Sogn og Fjordane,minor,,
322,Hardbakke,61.083332999999996,4.85,Norway,NO,Sogn og Fjordane,minor,,
323,Mehamn,71.033333,27.85,Norway,NO,Finnmark,minor,,
324,Aure,63.266667000000005,8.533333,Norway,NO,Møre og Romsdal,minor,,
325,Vinstra,61.6,9.75,Norway,NO,Oppland,minor,,
326,Ranemsletta,64.5,11.95,Norway,NO,Nord-Trøndelag,minor,,
327,Leknes,68.14524,13.599279999999998,Norway,NO,Nordland,minor,,
328,Straumsjøen,68.6944,14.4718,Norway,NO,Nordland,minor,,
329,Vangsvik,69.166667,17.733333,Norway,NO,Troms,minor,,
330,Risør,58.716667,9.233333,Norway,NO,Aust-Agder,minor,,
331,Tolga,62.416667000000004,11.0,Norway,NO,Hedmark,minor,,
332,Dalen,59.45,8.0,Norway,NO,Telemark,minor,,
333,Leinesfjord,67.77654,15.0147,Norway,NO,Nordland,minor,,
334,Træna,66.50166999999999,12.09632,Norway,NO,Nordland,minor,,
335,Stange,60.716667,11.183333,Norway,NO,Hedmark,minor,,
336,Porsgrunn,59.15,9.666667,Norway,NO,Telemark,minor,,
337,Nesbyen,60.566667,9.1,Norway,NO,Buskerud,minor,,
338,Nordfjordeid,61.9,6.0,Norway,NO,Sogn og Fjordane,minor,,
339,Fitjar,59.9175,5.322778,Norway,NO,Hordaland,minor,,
340,Båtsfjord,70.632222,29.699721999999998,Norway,NO,Finnmark,minor,,
341,Prestfoss,60.033333,9.633333,Norway,NO,Buskerud,minor,,
342,Dun,64.666667,11.25,Norway,NO,Nord-Trøndelag,minor,,
343,Melhus,63.283333,10.266667,Norway,NO,Sør-Trøndelag,minor,,
344,Hopen,63.466667,8.016667,Norway,NO,Møre og Romsdal,minor,,
345,Sistranda,63.716667,8.833333,Norway,NO,Sør-Trøndelag,minor,,
346,Rindal,63.05,9.216667,Norway,NO,Møre og Romsdal,minor,,
347,Kjøpsvik,68.1025,16.350556,Norway,NO,Nordland,minor,,
348,Lier,59.792530000000006,10.252460000000001,Norway,NO,Buskerud,minor,,
349,Bokn,59.22356,5.44522,Norway,NO,Rogaland,minor,,
350,Kvitsøy,59.063190000000006,5.41613,Norway,NO,Rogaland,minor,,
351,Forsand,58.90241999999999,6.09638,Norway,NO,Rogaland,minor,,
352,Skotterud,59.983332999999995,12.116667,Norway,NO,Hedmark,minor,,
353,Hyllestad,61.166667000000004,5.3,Norway,NO,Sogn og Fjordane,minor,,
354,Moldjord,67.0,14.583332999999998,Norway,NO,Nordland,minor,,
355,Engerdal,61.758359999999996,11.95937,Norway,NO,Hedmark,minor,,
356,Bergset,61.8897,11.07732,Norway,NO,Hedmark,minor,,
357,Jørpeland,59.016667000000005,6.05,Norway,NO,Rogaland,minor,,
358,Stjørdal,63.47025,10.91215,Norway,NO,Nord-Trøndelag,minor,,
359,Sogndal,61.23155,7.10268,Norway,NO,Sogn og Fjordane,minor,,
360,Askvoll,61.346509999999995,5.05971,Norway,NO,Sogn og Fjordane,minor,,
361,Hornindal,61.969269999999995,6.52245,Norway,NO,Sogn og Fjordane,minor,,
362,Skei,61.57156,6.47895,Norway,NO,Sogn og Fjordane,minor,,
363,Stryn,61.916667000000004,6.783333,Norway,NO,Sogn og Fjordane,minor,,
364,Lørenskog,59.940794,10.960957,Norway,NO,Akershus,minor,,
365,Trøgstad,59.64589,11.294485,Norway,NO,Østfold,minor,,
366,Skiptvet,59.460016,11.160108000000001,Norway,NO,Østfold,minor,,
367,Folldal,62.13333299999999,10.05,Norway,NO,Hedmark,minor,,
368,Straumen,63.86666700000001,11.3,Norway,NO,Nord-Trøndelag,minor,,
369,Hurdal,60.396226,11.027743,Norway,NO,Akershus,minor,,
370,Storebø,60.1,5.233333,Norway,NO,Hordaland,minor,,
371,Røros,62.583332999999996,11.4,Norway,NO,Sør-Trøndelag,minor,,
372,Nesoddtangen,59.86666700000001,10.65,Norway,NO,Akershus,minor,,
373,Ørsta,62.2,6.15,Norway,NO,Møre og Romsdal,minor,,
374,Åmli,58.783333,8.5,Norway,NO,Aust-Agder,minor,,
375,Havøysund,71.000556,24.696111,Norway,NO,Finnmark,minor,,
376,Vikøyri,61.083332999999996,6.5833330000000005,Norway,NO,Sogn og Fjordane,minor,,
377,Egersund,58.45,6.0,Norway,NO,Rogaland,minor,,
378,Vardø,70.366667,31.1,Norway,NO,Finnmark,minor,,
379,Solfjellsjøen,66.116667,12.483333,Norway,NO,Nordland,minor,,
380,Tingvatn,58.4,7.233333,Norway,NO,Vest-Agder,minor,,
381,Moi,58.466667,6.533333,Norway,NO,Rogaland,minor,,
382,Elverum,60.88333299999999,11.566667,Norway,NO,Hedmark,minor,,
383,Roan,64.17286,10.22503,Norway,NO,Sør-Trøndelag,minor,,
384,Steinsdalen,64.24292,10.69261,Norway,NO,Sør-Trøndelag,minor,,
385,Fossby,59.216667,11.7,Norway,NO,Østfold,minor,,
386,Roa,60.283333,10.616667,Norway,NO,Oppland,minor,,
387,Børsa,63.32768000000001,10.06833,Norway,NO,Sør-Trøndelag,minor,,
388,Vinje,59.620090000000005,7.841260000000001,Norway,NO,Telemark,minor,,
389,Sauland,59.62027,8.927810000000001,Norway,NO,Telemark,minor,,
390,Akkerhaugen,59.39399,9.24708,Norway,NO,Telemark,minor,,
391,Vigeland,58.083332999999996,7.3,Norway,NO,Vest-Agder,minor,,
392,Oppeid,68.08555600000001,15.611667,Norway,NO,Nordland,minor,,
393,Kolbotn,59.811389,10.798333,Norway,NO,Akershus,minor,,
394,Lødingen,68.40722199999999,15.991944,Norway,NO,Nordland,minor,,
395,Ballangen,68.335278,16.821111,Norway,NO,Nordland,minor,,
396,Hattfjelldal,65.59768000000001,13.98925,Norway,NO,Nordland,minor,,
397,Ulsteinvik,62.333332999999996,5.883333,Norway,NO,Møre og Romsdal,minor,,
398,Gol,60.7,8.95,Norway,NO,Buskerud,minor,,
399,Varangerbotn,70.166667,28.55,Norway,NO,Finnmark,minor,,
400,Rollag,60.02268,9.26946,Norway,NO,Buskerud,minor,,
401,Vikeså,58.63333299999999,6.1,Norway,NO,Rogaland,minor,,
402,Vikersund,59.983332999999995,10.033333,Norway,NO,Buskerud,minor,,
403,Hol,68.533333,16.4,Norway,NO,Nordland,minor,,
404,Moen,69.133333,18.616667,Norway,NO,Troms,minor,,
405,Levanger,63.75,11.3,Norway,NO,Nord-Trøndelag,minor,,
406,Hjelmeland,59.233332999999995,6.183333,Norway,NO,Rogaland,minor,,
407,Vegårshei,58.766667000000005,8.8,Norway,NO,Aust-Agder,minor,,
408,Lillestrøm,59.95,11.083333,Norway,NO,Akershus,minor,,
409,Lillesand,58.252221999999996,8.378333,Norway,NO,Aust-Agder,minor,,
410,Vevelstad,65.716667,12.466667,Norway,NO,Nordland,minor,,
411,Askim,59.583332999999996,11.166667,Norway,NO,Østfold,minor,,
412,Sortland,68.701944,15.423889,Norway,NO,Nordland,minor,,
413,Valle,59.2,7.533333,Norway,NO,Aust-Agder,minor,,
414,Fjerdingby,59.925506000000006,11.086483,Norway,NO,Akershus,minor,,
415,Kleppestø,60.40944399999999,5.228611,Norway,NO,Hordaland,minor,,
