,city,lat,lng,country,iso2,admin,capital,population,population_proper
0,Stockholm,59.333332999999996,18.05,Sweden,SE,Stockholm,primary,1264000.0,1253309.0
1,Glöstorp,57.75,11.933333,Sweden,SE,Västra Götaland,,537797.0,504084.0
2,Malmö,55.6,13.0,Sweden,SE,Skåne,admin,269349.0,261548.0
3,Uppsala,59.85,17.633333,Sweden,SE,Uppsala,admin,133117.0,127734.0
4,Västerås,59.61666700000001,16.55,Sweden,SE,Västmanland,admin,107194.0,93179.0
5,Örebro,59.283333,15.216667000000001,Sweden,SE,Örebro,admin,98573.0,93291.0
6,Linköping,58.416667000000004,15.616667000000001,Sweden,SE,Östergötland,admin,96732.0,91491.0
7,Helsingborg,56.05,12.7,Sweden,SE,Skåne,minor,91304.0,91025.0
8,Jönköping,57.783333,14.183333,Sweden,SE,Jönköping,admin,89780.0,83202.0
9,Norrköping,58.6,16.183332999999998,Sweden,SE,Östergötland,minor,88639.0,82903.0
10,Umeå,63.833332999999996,20.25,Sweden,SE,Västerbotten,admin,78197.0,74005.0
11,Bärstad,59.333332999999996,13.55,Sweden,SE,Värmland,,74141.0,59266.0
12,Tunadal,62.414167000000006,17.379444,Sweden,SE,Västernorrland,,73389.0,48463.0
13,Gävle,60.666667000000004,17.166667,Sweden,SE,Gävleborg,admin,68635.0,67836.0
14,Borås,57.716667,12.916667,Sweden,SE,Västra Götaland,minor,65008.0,63223.0
15,Växjö,56.88333299999999,14.816667,Sweden,SE,Kronoberg,admin,59600.0,46535.0
16,Halmstad,56.671389000000005,12.855556,Sweden,SE,Halland,admin,55657.0,55209.0
17,Luleå,65.583333,22.15,Sweden,SE,Norrbotten,admin,48638.0,45551.0
18,Östersund,63.183333,14.65,Sweden,SE,Jämtland,admin,46178.0,42940.0
19,Trollhättan,58.266667000000005,12.3,Sweden,SE,Västra Götaland,minor,44543.0,44522.0
20,Borlänge,60.483332999999995,15.416667000000002,Sweden,SE,Dalarna,minor,39422.0,38527.0
21,Falun,60.6,15.633332999999999,Sweden,SE,Dalarna,admin,36477.0,36477.0
22,Kalmar,56.666667000000004,16.366667,Sweden,SE,Kalmar,admin,35024.0,34744.0
23,Kristianstad,56.033333,14.133332999999999,Sweden,SE,Skåne,minor,32188.0,21339.0
24,Skellefteå,64.766667,20.95,Sweden,SE,Västerbotten,minor,31311.0,30839.0
25,Örnsköldsvik,63.3,18.716667,Sweden,SE,Västernorrland,minor,27749.0,25063.0
26,Nyköping,58.75,17.0,Sweden,SE,Södermanland,admin,27582.0,27582.0
27,Visby,57.639617,18.298582,Sweden,SE,Gotland,admin,22593.0,21970.0
28,Vänersborg,58.36666700000001,12.316667,Sweden,SE,Västra Götaland,minor,21835.0,21835.0
29,Kirunavaara,67.81666700000001,20.2,Sweden,SE,Norrbotten,,18154.0,8450.0
30,Fröland,62.61666700000001,17.883333,Sweden,SE,Västernorrland,,17016.0,17016.0
31,Mariestad,58.7,13.816667,Sweden,SE,Västra Götaland,minor,14891.0,14891.0
32,Bollnäs,61.35,16.366667,Sweden,SE,Gävleborg,minor,13398.0,12145.0
33,Älvsbyn,65.666667,21.0,Sweden,SE,Norrbotten,minor,,
34,Forshaga,59.533333,13.466667000000001,Sweden,SE,Värmland,minor,,
35,Lomma,55.683333,13.083333,Sweden,SE,Skåne,minor,,
36,Henån,58.233332999999995,11.683333,Sweden,SE,Västra Götaland,minor,,
37,Kopparberg,59.86666700000001,14.983332999999998,Sweden,SE,Örebro,minor,,
38,Tibro,58.416667000000004,14.166667000000002,Sweden,SE,Västra Götaland,minor,,
39,Tidaholm,58.183333,13.95,Sweden,SE,Västra Götaland,minor,,
40,Broby,56.25,14.083332999999998,Sweden,SE,Skåne,minor,,
41,Södertälje,59.2,17.616667,Sweden,SE,Stockholm,minor,,
42,Tierp,60.333332999999996,17.5,Sweden,SE,Uppsala,minor,,
43,Hammarstrand,63.1,16.35,Sweden,SE,Jämtland,minor,,
44,Motala,58.55,15.05,Sweden,SE,Östergötland,minor,,
45,Hagfors,60.033333,13.65,Sweden,SE,Värmland,minor,,
46,Filipstad,59.716667,14.166667000000002,Sweden,SE,Värmland,minor,,
47,Hallsberg,59.066667,15.116667000000001,Sweden,SE,Örebro,minor,,
48,Arjeplog,66.048563,17.884984,Sweden,SE,Norrbotten,minor,,
49,Arvika,59.666667000000004,12.566667,Sweden,SE,Värmland,minor,,
50,Tanumshede,58.733332999999995,11.316667,Sweden,SE,Västra Götaland,minor,,
51,Kalix,65.85,23.133333,Sweden,SE,Norrbotten,minor,,
52,Hedemora,60.283333,15.983332999999998,Sweden,SE,Dalarna,minor,,
53,Nossebro,58.183333,12.716667,Sweden,SE,Västra Götaland,minor,,
54,Hallstahammar,59.61666700000001,16.216667,Sweden,SE,Västmanland,minor,,
55,Skurup,55.466667,13.5,Sweden,SE,Skåne,minor,,
56,Vetlanda,57.433333,15.066667,Sweden,SE,Jönköping,minor,,
57,Ronneby,56.2,15.3,Sweden,SE,Blekinge,minor,,
58,Kungsör,59.416667000000004,16.083333,Sweden,SE,Västmanland,minor,,
59,Hova,58.86666700000001,14.183333,Sweden,SE,Västra Götaland,minor,,
60,Eksjö,57.666667000000004,14.95,Sweden,SE,Jönköping,minor,,
61,Eslöv,55.833332999999996,13.333332999999998,Sweden,SE,Skåne,minor,,
62,Höganäs,56.2,12.55,Sweden,SE,Skåne,minor,,
63,Sölvesborg,56.05,14.55,Sweden,SE,Blekinge,minor,,
64,Norsjö,64.916667,19.483333,Sweden,SE,Västerbotten,minor,,
65,Vaxholm,59.4,18.333333,Sweden,SE,Stockholm,minor,,
66,Perstorp,56.13333299999999,13.383332999999999,Sweden,SE,Skåne,minor,,
67,Leksand,60.733332999999995,15.016667000000002,Sweden,SE,Dalarna,minor,,
68,Ludvika,60.15,15.183333,Sweden,SE,Dalarna,minor,,
69,Vilhelmina,64.616667,16.65,Sweden,SE,Västerbotten,minor,,
70,Alvesta,56.9,14.55,Sweden,SE,Kronoberg,minor,,
71,Valdemarsvik,58.2,16.6,Sweden,SE,Östergötland,minor,,
72,Skillingaryd,57.433333,14.083332999999998,Sweden,SE,Jönköping,minor,,
73,Alafors,57.933333,12.083333,Sweden,SE,Västra Götaland,minor,,
74,Tranås,58.05,14.983332999999998,Sweden,SE,Jönköping,minor,,
75,Nykvarn,59.183333,17.433332999999998,Sweden,SE,Stockholm,minor,,
76,Upplands Väsby,59.516667000000005,17.9,Sweden,SE,Stockholm,minor,,
77,Bjurholm,63.933333,19.216667,Sweden,SE,Västerbotten,minor,,
78,Degerfors,59.233332999999995,14.433333,Sweden,SE,Örebro,minor,,
79,Sundsvall,62.38333299999999,17.3,Sweden,SE,Västernorrland,minor,,
80,Ystad,55.416667000000004,13.816667,Sweden,SE,Skåne,minor,,
81,Jakobsberg,59.416667000000004,17.833333,Sweden,SE,Stockholm,minor,,
82,Knivsta,59.716667,17.8,Sweden,SE,Uppsala,minor,,
83,Vallentuna,59.533333,18.083333,Sweden,SE,Stockholm,minor,,
84,Strängnäs,59.38333299999999,17.033333,Sweden,SE,Södermanland,minor,,
85,Östhammar,60.266667000000005,18.366667,Sweden,SE,Uppsala,minor,,
86,Hofors,60.55,16.283333,Sweden,SE,Gävleborg,minor,,
87,Mölndal,57.65,12.016667,Sweden,SE,Västra Götaland,minor,,
88,Simrishamn,55.55,14.333332999999998,Sweden,SE,Skåne,minor,,
89,Bräcke,62.75,15.416667000000002,Sweden,SE,Jämtland,minor,,
90,Vansbro,60.516667000000005,14.216667000000001,Sweden,SE,Dalarna,minor,,
91,Lerum,57.766667000000005,12.266667,Sweden,SE,Västra Götaland,minor,,
92,Götene,58.533333,13.483332999999998,Sweden,SE,Västra Götaland,minor,,
93,Sollefteå,63.166667000000004,17.266667,Sweden,SE,Västernorrland,minor,,
94,Boden,65.833333,21.7,Sweden,SE,Norrbotten,minor,,
95,Ed,58.916667000000004,11.916667,Sweden,SE,Västra Götaland,minor,,
96,Kungsbacka,57.483332999999995,12.066667,Sweden,SE,Halland,minor,,
97,Åstorp,56.13333299999999,12.95,Sweden,SE,Skåne,minor,,
98,Skärhamn,57.996667,11.556111,Sweden,SE,Västra Götaland,minor,,
99,Karlskrona,56.166667000000004,15.583332999999998,Sweden,SE,Blekinge,admin,,
100,Mörbylånga,56.516667000000005,16.383333,Sweden,SE,Kalmar,minor,,
101,Tomelilla,55.55,13.95,Sweden,SE,Skåne,minor,,
102,Vingåker,59.033333,15.866667000000001,Sweden,SE,Södermanland,minor,,
103,Lysekil,58.283333,11.433333,Sweden,SE,Västra Götaland,minor,,
104,Säffle,59.13333299999999,12.9,Sweden,SE,Värmland,minor,,
105,Norberg,60.066667,15.933333,Sweden,SE,Västmanland,minor,,
106,Skinnskatteberg,59.833332999999996,15.683333,Sweden,SE,Västmanland,minor,,
107,Falkenberg,56.898056000000004,12.501944,Sweden,SE,Halland,minor,,
108,Söderköping,58.483332999999995,16.3,Sweden,SE,Östergötland,minor,,
109,Surahammar,59.716667,16.216667,Sweden,SE,Västmanland,minor,,
110,Munkfors,59.833332999999996,13.533332999999999,Sweden,SE,Värmland,minor,,
111,Bollebygd,57.666667000000004,12.55,Sweden,SE,Västra Götaland,minor,,
112,Gagnef,60.583332999999996,15.066667,Sweden,SE,Dalarna,minor,,
113,Hyltebruk,57.0,13.233332999999998,Sweden,SE,Halland,minor,,
114,Ödeshög,58.233332999999995,14.65,Sweden,SE,Östergötland,minor,,
115,Torsås,56.4,16.0,Sweden,SE,Kalmar,minor,,
116,Nynäshamn,58.90444399999999,17.946389,Sweden,SE,Stockholm,minor,,
117,Djursholm,59.4,18.083333,Sweden,SE,Stockholm,minor,,
118,Boxholm,58.2,15.05,Sweden,SE,Östergötland,minor,,
119,Bengtsfors,59.033333,12.216667,Sweden,SE,Västra Götaland,minor,,
120,Båstad,56.432221999999996,12.833333,Sweden,SE,Skåne,minor,,
121,Österbymo,57.833332999999996,15.266667000000002,Sweden,SE,Östergötland,minor,,
122,Kungsängen,59.483332999999995,17.75,Sweden,SE,Stockholm,minor,,
123,Kungälv,57.86666700000001,11.966667,Sweden,SE,Västra Götaland,minor,,
124,Älmhult,56.55,14.133332999999999,Sweden,SE,Kronoberg,minor,,
125,Sorsele,65.53239,17.543098,Sweden,SE,Västerbotten,minor,,
126,Smedjebacken,60.13333299999999,15.416667000000002,Sweden,SE,Dalarna,minor,,
127,Uddevalla,58.36666700000001,11.933333,Sweden,SE,Västra Götaland,minor,,
128,Oxelösund,58.666667000000004,17.1,Sweden,SE,Södermanland,minor,,
129,Överkalix,66.31666700000001,22.833333,Sweden,SE,Norrbotten,minor,,
130,Laholm,56.516667000000005,13.033333,Sweden,SE,Halland,minor,,
131,Svalöv,55.916667000000004,13.1,Sweden,SE,Skåne,minor,,
132,Sandviken,60.61666700000001,16.766667,Sweden,SE,Gävleborg,minor,,
133,Nacka,59.3,18.166667,Sweden,SE,Stockholm,minor,,
134,Enköping,59.63333299999999,17.066667000000002,Sweden,SE,Uppsala,minor,,
135,Älvdalen,61.233332999999995,14.033332999999999,Sweden,SE,Dalarna,minor,,
136,Katrineholm,59.0,16.2,Sweden,SE,Södermanland,minor,,
137,Rättvik,60.88333299999999,15.1,Sweden,SE,Dalarna,minor,,
138,Skoghall,59.333332999999996,13.433333,Sweden,SE,Värmland,minor,,
139,Sunne,59.833332999999996,13.15,Sweden,SE,Värmland,minor,,
140,Gislaved,57.3,13.533332999999999,Sweden,SE,Jönköping,minor,,
141,Tumba,59.2,17.816667000000002,Sweden,SE,Stockholm,minor,,
142,Ulricehamn,57.783333,13.416667000000002,Sweden,SE,Västra Götaland,minor,,
143,Osby,56.36666700000001,13.983332999999998,Sweden,SE,Skåne,minor,,
144,Högsby,57.166667000000004,16.033333,Sweden,SE,Kalmar,minor,,
145,Munkedal,58.483332999999995,11.683333,Sweden,SE,Västra Götaland,minor,,
146,Järpen,63.35,13.483332999999998,Sweden,SE,Jämtland,minor,,
147,Lycksele,64.6,18.666667,Sweden,SE,Västerbotten,minor,,
148,Ljungby,56.833332999999996,13.933333,Sweden,SE,Kronoberg,minor,,
149,Vara,58.266667000000005,12.95,Sweden,SE,Västra Götaland,minor,,
150,Värnamo,57.183333,14.033332999999999,Sweden,SE,Jönköping,minor,,
151,Emmaboda,56.63333299999999,15.533332999999999,Sweden,SE,Kalmar,minor,,
152,Nässjö,57.65,14.683333,Sweden,SE,Jönköping,minor,,
153,Haparanda,65.829729,24.147,Sweden,SE,Norrbotten,minor,,
154,Västerhaninge,59.11666700000001,18.1,Sweden,SE,Stockholm,minor,,
155,Herrljunga,58.083332999999996,13.033333,Sweden,SE,Västra Götaland,minor,,
156,Tranemo,57.483332999999995,13.35,Sweden,SE,Västra Götaland,minor,,
157,Laxå,58.983332999999995,14.616667000000001,Sweden,SE,Örebro,minor,,
158,Mölnlycke,57.65,12.133333,Sweden,SE,Västra Götaland,minor,,
159,Storuman,65.1,17.1,Sweden,SE,Västerbotten,minor,,
160,Skara,58.36666700000001,13.416667000000002,Sweden,SE,Västra Götaland,minor,,
161,Hudiksvall,61.733332999999995,17.1125,Sweden,SE,Gävleborg,minor,,
162,Ljusdal,61.833332999999996,16.1,Sweden,SE,Gävleborg,minor,,
163,Huddinge,59.233332999999995,17.983333,Sweden,SE,Stockholm,minor,,
164,Töreboda,58.716667,14.133332999999999,Sweden,SE,Västra Götaland,minor,,
165,Svenljunga,57.5,13.116667000000001,Sweden,SE,Västra Götaland,minor,,
166,Lidingö,59.36666700000001,18.133333,Sweden,SE,Stockholm,minor,,
167,Solna,59.36666700000001,18.016667,Sweden,SE,Stockholm,minor,,
168,Tyresö,59.233332999999995,18.3,Sweden,SE,Stockholm,minor,,
169,Vännäs,63.916667000000004,19.75,Sweden,SE,Västerbotten,minor,,
170,Örkelljunga,56.283333,13.283332999999999,Sweden,SE,Skåne,minor,,
171,Kil,59.516667000000005,13.316667,Sweden,SE,Värmland,minor,,
172,Fagersta,60.0,15.783332999999999,Sweden,SE,Västmanland,minor,,
173,Åsele,64.166667,17.333333,Sweden,SE,Västerbotten,minor,,
174,Åseda,57.166667000000004,15.333332999999998,Sweden,SE,Kronoberg,minor,,
175,Staffanstorp,55.63333299999999,13.216667000000001,Sweden,SE,Skåne,minor,,
176,Ekerö,59.266667000000005,17.733333,Sweden,SE,Stockholm,minor,,
177,Norrtälje,59.766667000000005,18.7,Sweden,SE,Stockholm,minor,,
178,Märsta,59.61666700000001,17.85,Sweden,SE,Stockholm,minor,,
179,Markaryd,56.433333,13.6,Sweden,SE,Kronoberg,minor,,
180,Hällefors,59.783333,14.5,Sweden,SE,Örebro,minor,,
181,Vimmerby,57.666667000000004,15.85,Sweden,SE,Kalmar,minor,,
182,Mönsterås,57.033333,16.433332999999998,Sweden,SE,Kalmar,minor,,
183,Fjugesta,59.166667000000004,14.866667000000001,Sweden,SE,Örebro,minor,,
184,Åtvidaberg,58.2,16.0,Sweden,SE,Östergötland,minor,,
185,Kristinehamn,59.333332999999996,14.116667000000001,Sweden,SE,Värmland,minor,,
186,Arboga,59.4,15.833332999999998,Sweden,SE,Västmanland,minor,,
187,Alingsås,57.933333,12.516667,Sweden,SE,Västra Götaland,minor,,
188,Hässleholm,56.15,13.766667000000002,Sweden,SE,Skåne,minor,,
189,Edsbyn,61.38333299999999,15.816667,Sweden,SE,Gävleborg,minor,,
190,Strömstad,58.933333,11.183333,Sweden,SE,Västra Götaland,minor,,
191,Strömsund,63.85,15.583332999999998,Sweden,SE,Jämtland,minor,,
192,Storfors,59.533333,14.266667000000002,Sweden,SE,Värmland,minor,,
193,Årjäng,59.38333299999999,12.133333,Sweden,SE,Värmland,minor,,
194,Karlsborg,58.533333,14.516667000000002,Sweden,SE,Västra Götaland,minor,,
195,Rönninge,59.2,17.733333,Sweden,SE,Stockholm,minor,,
196,Göteborg,57.716667,11.966667,Sweden,SE,Västra Götaland,admin,,
197,Vadstena,58.45,14.9,Sweden,SE,Östergötland,minor,,
198,Bergsjö,61.983332999999995,17.066667000000002,Sweden,SE,Gävleborg,minor,,
199,Karlskoga,59.333332999999996,14.516667000000002,Sweden,SE,Örebro,minor,,
200,Sollentuna,59.466667,17.9,Sweden,SE,Stockholm,minor,,
201,Säter,60.35,15.75,Sweden,SE,Dalarna,minor,,
202,Gnosjö,57.36666700000001,13.733332999999998,Sweden,SE,Jönköping,minor,,
203,Gnesta,59.05,17.3,Sweden,SE,Södermanland,minor,,
204,Bromölla,56.066667,14.466667000000001,Sweden,SE,Skåne,minor,,
205,Nora,59.516667000000005,15.033332999999999,Sweden,SE,Örebro,minor,,
206,Gällivare,67.133333,20.7,Sweden,SE,Norrbotten,minor,,
207,Varberg,57.108585999999995,12.266099,Sweden,SE,Halland,minor,,
208,Ockelbo,60.88333299999999,16.716667,Sweden,SE,Gävleborg,minor,,
209,Öckerö,57.708096999999995,11.641297999999999,Sweden,SE,Västra Götaland,minor,,
210,Ängelholm,56.25,12.866667,Sweden,SE,Skåne,minor,,
211,Vindeln,64.2,19.733333,Sweden,SE,Västerbotten,minor,,
212,Timrå,62.477778,17.306944,Sweden,SE,Västernorrland,minor,,
213,Hörby,55.85,13.65,Sweden,SE,Skåne,minor,,
214,Höör,55.933333,13.533332999999999,Sweden,SE,Skåne,minor,,
215,Sundbyberg,59.36666700000001,17.966667,Sweden,SE,Stockholm,minor,,
216,Vårgårda,58.033333,12.8,Sweden,SE,Västra Götaland,minor,,
217,Bjuv,56.083332999999996,12.9,Sweden,SE,Skåne,minor,,
218,Svedala,55.5,13.233332999999998,Sweden,SE,Skåne,minor,,
219,Orsa,61.11666700000001,14.616667000000001,Sweden,SE,Dalarna,minor,,
220,Piteå,65.333333,21.5,Sweden,SE,Norrbotten,minor,,
221,Arvidsjaur,65.583333,19.166667,Sweden,SE,Norrbotten,minor,,
222,Aneby,57.833332999999996,14.8,Sweden,SE,Jönköping,minor,,
223,Falköping,58.166667000000004,13.55,Sweden,SE,Västra Götaland,minor,,
224,Lund,55.7,13.183333,Sweden,SE,Skåne,minor,,
225,Olofström,56.266667000000005,14.5,Sweden,SE,Blekinge,minor,,
226,Habo,57.916667000000004,14.066667,Sweden,SE,Jönköping,minor,,
227,Pajala,67.2,23.366667,Sweden,SE,Norrbotten,minor,,
228,Skutskär,60.63333299999999,17.416667,Sweden,SE,Uppsala,minor,,
229,Täby,59.5,18.05,Sweden,SE,Stockholm,minor,,
230,Kävlinge,55.8,13.1,Sweden,SE,Skåne,minor,,
231,Hultsfred,57.483332999999995,15.833332999999998,Sweden,SE,Kalmar,minor,,
232,Avesta,60.15,16.2,Sweden,SE,Dalarna,minor,,
233,Ånge,62.516667000000005,15.616667000000001,Sweden,SE,Västernorrland,minor,,
234,Malå,65.18333299999999,18.75,Sweden,SE,Västerbotten,minor,,
235,Finspång,58.716667,15.783332999999999,Sweden,SE,Östergötland,minor,,
236,Borgholm,56.88333299999999,16.65,Sweden,SE,Kalmar,minor,,
237,Gustavsberg,59.316667,18.383333,Sweden,SE,Stockholm,minor,,
238,Mullsjö,57.916667000000004,13.883332999999999,Sweden,SE,Jönköping,minor,,
239,Grästorp,58.333332999999996,12.683333,Sweden,SE,Västra Götaland,minor,,
240,Åmål,59.05,12.7,Sweden,SE,Västra Götaland,minor,,
241,Lindesberg,59.583332999999996,15.25,Sweden,SE,Örebro,minor,,
242,Kinna,57.5,12.683333,Sweden,SE,Västra Götaland,minor,,
243,Sveg,62.033333,14.35,Sweden,SE,Jämtland,minor,,
244,Eskilstuna,59.36666700000001,16.5,Sweden,SE,Södermanland,minor,,
245,Kumla,59.13333299999999,15.133332999999999,Sweden,SE,Örebro,minor,,
246,Köping,59.516667000000005,16.0,Sweden,SE,Västmanland,minor,,
247,Trelleborg,55.36666700000001,13.166667000000002,Sweden,SE,Skåne,minor,,
248,Grums,59.316667,13.1,Sweden,SE,Värmland,minor,,
249,Mellerud,58.7,12.466667,Sweden,SE,Västra Götaland,minor,,
250,Sala,59.916667000000004,16.6,Sweden,SE,Västmanland,minor,,
251,Partille,57.733332999999995,12.116667,Sweden,SE,Västra Götaland,minor,,
252,Kramfors,62.933333,17.7925,Sweden,SE,Västernorrland,minor,,
253,Sävsjö,57.4,14.666667000000002,Sweden,SE,Jönköping,minor,,
254,Härnösand,62.636111,17.941111,Sweden,SE,Västernorrland,admin,,
255,Skövde,58.4,13.85,Sweden,SE,Västra Götaland,minor,,
256,Jokkmokk,66.604995,19.832866,Sweden,SE,Norrbotten,minor,,
257,Askersund,58.88333299999999,14.9,Sweden,SE,Örebro,minor,,
258,Robertsfors,64.18333299999999,20.85,Sweden,SE,Västerbotten,minor,,
259,Kiruna,67.85,20.216667,Sweden,SE,Norrbotten,minor,,
260,Stenungsund,58.083332999999996,11.816667,Sweden,SE,Västra Götaland,minor,,
261,Bålsta,59.583332999999996,17.5,Sweden,SE,Uppsala,minor,,
262,Tingsryd,56.533333,14.983332999999998,Sweden,SE,Kronoberg,minor,,
263,Charlottenberg,59.88333299999999,12.283333,Sweden,SE,Värmland,minor,,
264,Lidköping,58.5,13.166667000000002,Sweden,SE,Västra Götaland,minor,,
265,Kungshamn,58.35,11.25,Sweden,SE,Västra Götaland,minor,,
266,Heby,59.933333,16.883333,Sweden,SE,Uppsala,minor,,
267,Färgelanda,58.566667,12.0,Sweden,SE,Västra Götaland,minor,,
268,Mjölby,58.316667,15.133332999999999,Sweden,SE,Östergötland,minor,,
269,Åkersberga,59.483332999999995,18.3,Sweden,SE,Stockholm,minor,,
270,Lilla Edet,58.13333299999999,12.133333,Sweden,SE,Västra Götaland,minor,,
271,Karlstad,59.36666700000001,13.5,Sweden,SE,Värmland,admin,,
272,Lessebo,56.75,15.266667000000002,Sweden,SE,Kronoberg,minor,,
273,Flen,59.066667,16.583333,Sweden,SE,Södermanland,minor,,
274,Dorotea,64.266667,16.4,Sweden,SE,Västerbotten,minor,,
275,Mora,61.0,14.55,Sweden,SE,Dalarna,minor,,
276,Arlöv,55.63333299999999,13.066667,Sweden,SE,Skåne,minor,,
277,Krokom,63.333332999999996,14.45,Sweden,SE,Jämtland,minor,,
278,Svenstavik,62.766667000000005,14.45,Sweden,SE,Jämtland,minor,,
279,Malung,60.666667000000004,13.7,Sweden,SE,Dalarna,minor,,
280,Sjöbo,55.63333299999999,13.7,Sweden,SE,Skåne,minor,,
281,Landskrona,55.86666700000001,12.833333,Sweden,SE,Skåne,minor,,
282,Nordmaling,63.566667,19.5,Sweden,SE,Västerbotten,minor,,
283,Västervik,57.75,16.633333,Sweden,SE,Kalmar,minor,,
284,Övertorneå,66.38658000000001,23.661818,Sweden,SE,Norrbotten,minor,,
285,Nybro,56.75,15.9,Sweden,SE,Kalmar,minor,,
286,Söderhamn,61.3,17.05,Sweden,SE,Gävleborg,minor,,
287,Kisa,57.983332999999995,15.616667000000001,Sweden,SE,Östergötland,minor,,
288,Hjo,58.3,14.283332999999999,Sweden,SE,Västra Götaland,minor,,
289,Oskarshamn,57.266667000000005,16.433332999999998,Sweden,SE,Kalmar,minor,,
290,Torsby,60.13333299999999,13.0,Sweden,SE,Värmland,minor,,
291,Vellinge,55.466667,13.016667,Sweden,SE,Skåne,minor,,
292,Klippan,56.13333299999999,13.133332999999999,Sweden,SE,Skåne,minor,,
293,Trosa,58.9,17.55,Sweden,SE,Södermanland,minor,,
