,city,lat,lng,country,iso2,admin,capital,population,population_proper
0,Bang Rak,13.730579,100.523884,Thailand,TH,Krung Thep Maha Nakhon,minor,6704000.0,5104476.0
1,Chiang Mai,18.790376000000002,98.98468299999999,Thailand,TH,Chiang Mai,admin,397211.0,200952.0
2,Samut Prakan,13.600417000000002,100.596778,Thailand,TH,Samut Prakan,admin,388920.0,388920.0
3,Nakhon Ratchasima,14.971596,102.08255,Thailand,TH,Nakhon Ratchasima,admin,334984.0,208781.0
4,Hat Yai,7.008359,100.476682,Thailand,TH,Songkhla,minor,317954.0,191696.0
5,Ubon Ratchathani,15.238439999999999,104.848659,Thailand,TH,Ubon Ratchathani,admin,273893.0,122533.0
6,Nonthaburi,13.862167000000001,100.513417,Thailand,TH,Nonthaburi,admin,258550.0,258550.0
7,Khon Kaen,16.446710999999997,102.832999,Thailand,TH,Khon Kaen,admin,251056.0,147579.0
8,Udon Thani,17.415667000000003,102.785889,Thailand,TH,Udon Thani,admin,247231.0,231153.0
9,Nakhon Si Thammarat,8.433333,99.966667,Thailand,TH,Nakhon Si Thammarat,admin,232335.0,120836.0
10,Chon Buri,13.362198999999999,100.98345400000001,Thailand,TH,Chon Buri,admin,226618.0,216063.0
11,Lampang,18.292317999999998,99.49277,Thailand,TH,Lampang,admin,204081.0,156139.0
12,Si Racha,13.173722,100.931111,Thailand,TH,Chon Buri,minor,178916.0,9493.0
13,Phitsanulok,16.824806,100.258584,Thailand,TH,Phitsanulok,admin,164017.0,103427.0
14,Surat Thani,9.140108999999999,99.333114,Thailand,TH,Surat Thani,admin,157627.0,127201.0
15,Pathum Thani,14.013460999999998,100.530488,Thailand,TH,Pathum Thani,admin,154412.0,154412.0
16,Pattani,6.8749,101.254851,Thailand,TH,Pattani,admin,150000.0,43631.0
17,Yala,6.539946,101.281284,Thailand,TH,Yala,admin,148140.0,93558.0
18,Trang,7.558167,99.610528,Thailand,TH,Trang,admin,147820.0,59637.0
19,Phuket,7.8333330000000005,98.383333,Thailand,TH,Phuket,admin,141618.0,75573.0
20,Nakhon Pathom,13.819602,100.044274,Thailand,TH,Nakhon Pathom,admin,117927.0,117927.0
21,Ban Wiang Wai,19.871334,99.82419499999999,Thailand,TH,Chiang Rai,,117127.0,78756.0
22,Nakhon Sawan,15.704722,100.137167,Thailand,TH,Nakhon Sawan,admin,111915.0,111915.0
23,Ratchaburi,13.536710999999999,99.81711700000001,Thailand,TH,Ratchaburi,admin,106996.0,92448.0
24,Ban Nong Kham,17.845056,102.741139,Thailand,TH,Nong Khai,,104505.0,63609.0
25,Chanthaburi,12.609611,102.104472,Thailand,TH,Chanthaburi,admin,99819.0,90082.0
26,Phetchaburi,13.111889000000001,99.94466700000001,Thailand,TH,Phetchaburi,admin,90497.0,46601.0
27,Chumphon,10.495697999999999,99.179714,Thailand,TH,Chumphon,admin,85686.0,55835.0
28,Nan,18.783778,100.778993,Thailand,TH,Nan,admin,82483.0,24670.0
29,Prachin Buri,14.049917,101.368639,Thailand,TH,Prachin Buri,admin,79757.0,32600.0
30,Uttaradit,17.625572000000002,100.09420899999999,Thailand,TH,Uttaradit,admin,76630.0,58313.0
31,Sakon Nakhon,17.161157,104.147254,Thailand,TH,Sakon Nakhon,admin,76237.0,59274.0
32,Sara Buri,14.525228,100.910389,Thailand,TH,Sara Buri,admin,70769.0,70769.0
33,Narathiwat,6.426389,101.823084,Thailand,TH,Narathiwat,admin,68112.0,47771.0
34,Kanchanaburi,14.003195000000002,99.55005600000001,Thailand,TH,Kanchanaburi,admin,63699.0,63699.0
35,Samut Sakhon,13.547529999999998,100.273622,Thailand,TH,Samut Sakhon,admin,63498.0,63498.0
36,Surin,14.881806,103.493639,Thailand,TH,Surin,admin,62536.0,46673.0
37,Kamphaeng Phet,16.483442,99.521534,Thailand,TH,Kamphaeng Phet,admin,58787.0,58787.0
38,Chaiyaphum,15.81047,102.028812,Thailand,TH,Chaiyaphum,admin,58350.0,52032.0
39,Lop Buri,14.798084,100.653972,Thailand,TH,Lop Buri,admin,57761.0,26500.0
40,Nakhon Phanom,17.410806,104.77855600000001,Thailand,TH,Nakhon Phanom,admin,55377.0,34595.0
41,Kalasin,16.432806,103.506584,Thailand,TH,Kalasin,admin,55102.0,55102.0
42,Suphan Buri,14.474178,100.122178,Thailand,TH,Suphan Buri,admin,53399.0,53399.0
43,Maha Sarakham,16.184834,103.300667,Thailand,TH,Maha Sarakham,admin,51584.0,51584.0
44,Phetchabun,16.443306,101.14752800000001,Thailand,TH,Phetchabun,admin,50656.0,50656.0
45,Hua Hin,12.568997999999999,99.959011,Thailand,TH,Prachuap Khiri Khan,minor,50456.0,17470.0
46,Chachoengsao,13.688195,101.071556,Thailand,TH,Chachoengsao,admin,49741.0,49741.0
47,Songkhla,7.198822,100.595098,Thailand,TH,Songkhla,admin,48616.0,48616.0
48,Buriram,14.994334,103.10391700000001,Thailand,TH,Buriram,admin,47292.0,47292.0
49,Mae Sot,16.716667,98.56666700000001,Thailand,TH,Tak,minor,45781.0,44563.0
50,Si Sa Ket,15.114806,104.32938,Thailand,TH,Sisaket,admin,44751.0,40961.0
51,Phatthalung,7.617861,100.077917,Thailand,TH,Phatthalung,admin,43522.0,43522.0
52,Roi Et,16.053306,103.65386099999999,Thailand,TH,Roi Et,admin,39328.0,39328.0
53,Phrae,18.145889,100.141028,Thailand,TH,Phrae,admin,38538.0,17971.0
54,Rayong,12.668462,101.275503,Thailand,TH,Rayong,admin,37035.0,37035.0
55,Phichit,16.441842,100.348793,Thailand,TH,Phichit,admin,35760.0,35760.0
56,Loei,17.490517999999998,101.727488,Thailand,TH,Loei,admin,35273.0,24543.0
57,Samut Songkhram,13.414556,100.002639,Thailand,TH,Samut Songkhram,admin,35065.0,35065.0
58,Satun,6.623142,100.066758,Thailand,TH,Satun,admin,34544.0,34544.0
59,Prachuap Khiri Khan,11.810946000000001,99.793953,Thailand,TH,Prachuap Khiri Khan,admin,33521.0,33521.0
60,Tak,16.869684,99.128979,Thailand,TH,Tak,admin,33146.0,24149.0
61,Krabi,8.072574000000001,98.910516,Thailand,TH,Krabi,admin,31219.0,31219.0
62,Thung Song,8.164528,99.680389,Thailand,TH,Nakhon Si Thammarat,minor,28223.0,23852.0
63,Ranong,9.965834,98.634761,Thailand,TH,Ranong,admin,24561.0,24561.0
64,Aranyaprathet,13.692764000000002,102.501283,Thailand,TH,Sa Kaeo,minor,22472.0,20236.0
65,Uthai Thani,15.379389000000002,100.0245,Thailand,TH,Uthai Thani,admin,22219.0,16247.0
66,Yasothon,15.794079,104.145104,Thailand,TH,Yasothon,admin,21643.0,21643.0
67,Trat,12.241028,102.515472,Thailand,TH,Trat,admin,21590.0,21590.0
68,Nakhon Nayok,14.204631,101.212948,Thailand,TH,Nakhon Nayok,admin,21309.0,21309.0
69,Phayao,19.192028,99.878834,Thailand,TH,Phayao,admin,21058.0,19118.0
70,Sing Buri,14.887861,100.404639,Thailand,TH,Sing Buri,admin,20046.0,20046.0
71,Bua Yai,15.585516,102.425866,Thailand,TH,Nakhon Ratchasima,minor,18269.0,16832.0
72,Chai Nat,15.186360999999998,100.12352800000001,Thailand,TH,Chai Nat,admin,15469.0,15469.0
73,Lamphun,18.580537,99.007446,Thailand,TH,Lamphun,admin,14030.0,14030.0
74,Ang Thong,14.588389000000001,100.452834,Thailand,TH,Ang Thong,admin,13738.0,13738.0
75,Sukhothai,17.007778,99.823,Thailand,TH,Sukhothai,admin,10276.0,10276.0
76,Phangnga,8.450905,98.52985,Thailand,TH,Phangnga,admin,9676.0,9676.0
77,Mae Hong Son,19.308543,97.96530200000001,Thailand,TH,Mae Hong Son,admin,9109.0,9109.0
78,Ron Phibun,8.179111,99.85425,Thailand,TH,Nakhon Si Thammarat,minor,,
79,Prawet,13.717353,100.694524,Thailand,TH,Krung Thep Maha Nakhon,minor,,
80,Kantharalak,14.640556,104.649917,Thailand,TH,Sisaket,minor,,
81,Kantang,7.405417,99.51561099999999,Thailand,TH,Trang,minor,,
82,Kanthararom,15.103229,104.573427,Thailand,TH,Sisaket,minor,,
83,Lat Bua Luang,14.165722,100.307889,Thailand,TH,Phra Nakhon Si Ayutthaya,minor,,
84,Pom Prap Sattru Phai,13.758219,100.513246,Thailand,TH,Krung Thep Maha Nakhon,minor,,
85,Na Klang,17.307195,102.188861,Thailand,TH,Nong Bua Lamphu,minor,,
86,Chum Ta Bong,15.631945000000002,99.552306,Thailand,TH,Nakhon Sawan,minor,,
87,Mae Wong,15.781639000000002,99.51863900000001,Thailand,TH,Nakhon Sawan,minor,,
88,Don Sak,9.316763,99.691836,Thailand,TH,Surat Thani,minor,,
89,Chatturat,15.565417000000002,101.845472,Thailand,TH,Chaiyaphum,minor,,
90,Chaturaphak Phiman,15.845722,103.557195,Thailand,TH,Roi Et,minor,,
91,Chat Trakan,17.276056,100.600222,Thailand,TH,Phitsanulok,minor,,
92,Kong Krailat,16.951972,99.977695,Thailand,TH,Sukhothai,minor,,
93,Mueang Chan,15.159512,104.036149,Thailand,TH,Sisaket,minor,,
94,Kao Liao,15.850528,100.079139,Thailand,TH,Nakhon Sawan,minor,,
95,Khon Sawan,15.931917000000002,102.281028,Thailand,TH,Chaiyaphum,minor,,
96,Khon San,16.612861,101.919445,Thailand,TH,Chaiyaphum,minor,,
97,Phu Kam Yao,19.2705,99.970111,Thailand,TH,Phayao,minor,,
98,Sop Pong,19.518806,98.260417,Thailand,TH,Mae Hong Son,minor,,
99,Kaeng Krachan,12.907419,99.647948,Thailand,TH,Phetchaburi,minor,,
100,Na Bon,8.261667,99.59472199999999,Thailand,TH,Nakhon Si Thammarat,minor,,
101,Si Somdet,15.997972,103.487889,Thailand,TH,Roi Et,minor,,
102,Na Chaluai,14.520457999999998,105.24478300000001,Thailand,TH,Ubon Ratchathani,minor,,
103,Na Chueak,15.793385,103.031835,Thailand,TH,Maha Sarakham,minor,,
104,Thawi Watthana,13.78851,100.33333499999999,Thailand,TH,Krung Thep Maha Nakhon,minor,,
105,Thung Khru,13.628746,100.509638,Thailand,TH,Krung Thep Maha Nakhon,minor,,
106,Lam Plai Mat,15.025195000000002,102.838945,Thailand,TH,Buriram,minor,,
107,Thung Fon,17.471667,103.260334,Thailand,TH,Udon Thani,minor,,
108,Charoen Sin,17.579251,103.54033299999999,Thailand,TH,Sakon Nakhon,minor,,
109,Nikhom Kham Soi,16.371667000000002,104.551472,Thailand,TH,Mukdahan,minor,,
110,Nikhom Nam Un,17.183139,103.718417,Thailand,TH,Sakon Nakhon,minor,,
111,Sai Noi,13.979147,100.312087,Thailand,TH,Nonthaburi,minor,,
112,Sai Ngam,16.468619,99.888434,Thailand,TH,Kamphaeng Phet,minor,,
113,Sattahip,12.666438000000001,100.900727,Thailand,TH,Chon Buri,minor,,
114,Sawang Arom,15.583945000000002,99.860889,Thailand,TH,Uthai Thani,minor,,
115,Chom Thong,13.677169000000001,100.484073,Thailand,TH,Krung Thep Maha Nakhon,minor,,
116,Chatuchak,13.828929,100.559851,Thailand,TH,Krung Thep Maha Nakhon,minor,,
117,Song Khwae,19.359639,100.700417,Thailand,TH,Nan,minor,,
118,In Buri,15.007869,100.32690600000001,Thailand,TH,Sing Buri,minor,,
119,Mueang Pan,18.768027,99.502503,Thailand,TH,Lampang,minor,,
120,Thung Saliam,17.321056,99.560917,Thailand,TH,Sukhothai,minor,,
121,Bung Khla,18.302319,103.974181,Thailand,TH,Bueng Kan,minor,,
122,Si Wilai,18.181881,103.747934,Thailand,TH,Bueng Kan,minor,,
123,Phu Sing,14.547445000000002,104.13166700000001,Thailand,TH,Sisaket,minor,,
124,Ban Nang Sata,6.266385,101.264606,Thailand,TH,Yala,minor,,
125,Phra Yuen,16.329302,102.651818,Thailand,TH,Khon Kaen,minor,,
126,Wang Hin,14.947834,104.230972,Thailand,TH,Sisaket,minor,,
127,Sam Sung,16.543195,103.07991700000001,Thailand,TH,Khon Kaen,minor,,
128,Chuen Chom,16.554882,103.176608,Thailand,TH,Maha Sarakham,minor,,
129,Ku Kaeo,17.172139,103.153028,Thailand,TH,Udon Thani,minor,,
130,Pa Mok,14.489889000000002,100.448472,Thailand,TH,Ang Thong,minor,,
131,Huai Phueng,16.650376,103.910046,Thailand,TH,Kalasin,minor,,
132,Khun Han,14.617389000000001,104.42505600000001,Thailand,TH,Sisaket,minor,,
133,Pang Sila Thong,16.096306,99.489056,Thailand,TH,Kamphaeng Phet,minor,,
134,Kosamphi Nakhon,16.631306,99.34975,Thailand,TH,Kamphaeng Phet,minor,,
135,Mae Poen,15.657889,99.469806,Thailand,TH,Nakhon Sawan,minor,,
136,Khura Buri,9.193972,98.415139,Thailand,TH,Phangnga,minor,,
137,Bang Sao Thong,13.595,100.83041700000001,Thailand,TH,Samut Prakan,minor,,
138,Phanom Phrai,15.677833999999999,104.11025,Thailand,TH,Roi Et,minor,,
139,Phanom Thuan,14.130306,99.698584,Thailand,TH,Kanchanaburi,minor,,
140,Phanom Sarakham,13.747873,101.3553,Thailand,TH,Chachoengsao,minor,,
141,Bang Sue,13.810027999999999,100.537139,Thailand,TH,Krung Thep Maha Nakhon,minor,,
142,Tha Phae,6.790143,99.970052,Thailand,TH,Satun,minor,,
143,Khiri Ratthanikhom,9.030194999999999,98.952861,Thailand,TH,Surat Thani,minor,,
144,Khiri Mat,16.833333,99.8,Thailand,TH,Sukhothai,minor,,
145,Bamnet Narong,15.501894,101.689818,Thailand,TH,Chaiyaphum,minor,,
146,Phipun,8.560361,99.607028,Thailand,TH,Nakhon Si Thammarat,minor,,
147,Phra Samut Chedi,13.602224,100.572096,Thailand,TH,Samut Prakan,minor,,
148,Bang Klam,7.089528,100.41075,Thailand,TH,Songkhla,minor,,
149,Ban Phraek,14.64681,100.576166,Thailand,TH,Phra Nakhon Si Ayutthaya,minor,,
150,Amphawa,13.424356,99.956876,Thailand,TH,Samut Songkhram,minor,,
151,Khlung,12.454667,102.221417,Thailand,TH,Chanthaburi,minor,,
152,Na Yung,17.897472,102.14980600000001,Thailand,TH,Udon Thani,minor,,
153,Siao,14.795834,104.670167,Thailand,TH,Sisaket,minor,,
154,Sao Hai,14.550834,100.84436099999999,Thailand,TH,Sara Buri,minor,,
155,Sap Yai,15.637387,101.61670600000001,Thailand,TH,Chaiyaphum,minor,,
156,Ban Khai,12.782611,101.296389,Thailand,TH,Rayong,minor,,
157,Chon Daen,16.189528,100.859584,Thailand,TH,Phetchabun,minor,,
158,Pa Sang,18.526167,98.939361,Thailand,TH,Lamphun,minor,,
159,Mae Tha,18.464564000000003,99.140258,Thailand,TH,Lamphun,minor,,
160,Mae Tha,18.134110999999997,99.513889,Thailand,TH,Lampang,minor,,
161,Non Daeng,15.410611,102.54025,Thailand,TH,Nakhon Ratchasima,minor,,
162,Chaloem Phra Kiat,14.558389000000002,102.92475,Thailand,TH,Buriram,minor,,
163,Lam Thamen Chai,15.3535,102.918028,Thailand,TH,Nakhon Ratchasima,minor,,
164,Khuean Ubonrat,16.752695000000003,102.63244499999999,Thailand,TH,Khon Kaen,minor,,
165,Non Thai,15.195798000000002,102.07145,Thailand,TH,Nakhon Ratchasima,minor,,
166,Mae Rim,18.910642000000003,98.94800699999999,Thailand,TH,Chiang Mai,minor,,
167,Mae Ramat,16.984032,98.516646,Thailand,TH,Tak,minor,,
168,Mae Sai,20.433528,99.87616700000001,Thailand,TH,Chiang Rai,minor,,
169,Wang Saphung,17.300972,101.7685,Thailand,TH,Loei,minor,,
170,Khai Bang Rachan,14.799833999999999,100.310222,Thailand,TH,Sing Buri,minor,,
171,Wiang Haeng,19.557000000000002,98.6425,Thailand,TH,Chiang Mai,minor,,
172,Wiang Pa Pao,19.347777999999998,99.507224,Thailand,TH,Chiang Rai,minor,,
173,Wiang Sa,8.635849,99.36659499999999,Thailand,TH,Surat Thani,minor,,
174,Wiang Sa,18.598556,100.741028,Thailand,TH,Nan,minor,,
175,Phai Sali,15.600025,100.649372,Thailand,TH,Nakhon Sawan,minor,,
176,Bang Saphan Noi,11.075351,99.441519,Thailand,TH,Prachuap Khiri Khan,minor,,
177,Nong Khae,14.340618,100.86733100000001,Thailand,TH,Sara Buri,minor,,
178,Thung Sai,16.314889,99.832667,Thailand,TH,Kamphaeng Phet,minor,,
179,Kui Buri,12.082834,99.85430600000001,Thailand,TH,Prachuap Khiri Khan,minor,,
180,Dan Chang,14.841834,99.697556,Thailand,TH,Suphan Buri,minor,,
181,Phrao,19.365859,99.201874,Thailand,TH,Chiang Mai,minor,,
182,Saba Yoi,6.6175,100.95188900000001,Thailand,TH,Songkhla,minor,,
183,Don Mot Daeng,15.379028,105.02786100000002,Thailand,TH,Ubon Ratchathani,minor,,
184,Khian Sa,8.84295,99.198562,Thailand,TH,Surat Thani,minor,,
185,Thung Wa,7.109574,99.75585699999999,Thailand,TH,Satun,minor,,
186,Om Koi,17.801222,98.35933399999999,Thailand,TH,Chiang Mai,minor,,
187,Mukdahan,16.545310999999998,104.723512,Thailand,TH,Mukdahan,admin,,
188,Tha Khantho,16.939528,103.245861,Thailand,TH,Kalasin,minor,,
189,Yarang,6.759861,101.293389,Thailand,TH,Pattani,minor,,
190,Wang Thonglang,13.785464000000001,100.611648,Thailand,TH,Krung Thep Maha Nakhon,minor,,
191,Muang Sam Sip,15.513074,104.725647,Thailand,TH,Ubon Ratchathani,minor,,
192,Chian Yai,8.169361,100.144695,Thailand,TH,Nakhon Si Thammarat,minor,,
193,Phu Kradueng,16.88425,101.88466700000001,Thailand,TH,Loei,minor,,
194,Krasae Sin,7.615477,100.328423,Thailand,TH,Songkhla,minor,,
195,Krasang,14.923747,103.303685,Thailand,TH,Buriram,minor,,
196,Pathum Wan,13.736485,100.523896,Thailand,TH,Krung Thep Maha Nakhon,minor,,
197,Khlong Yai,11.776444999999999,102.885667,Thailand,TH,Trat,minor,,
198,Loeng Nok Tha,16.2075,104.555278,Thailand,TH,Yasothon,minor,,
199,Samoeng,18.848056,98.732417,Thailand,TH,Chiang Mai,minor,,
200,Khu Khan,14.713583999999999,104.198361,Thailand,TH,Sisaket,minor,,
201,Phon Sai,15.487972000000001,103.99641700000001,Thailand,TH,Roi Et,minor,,
202,Phon Sawan,17.45625,104.468778,Thailand,TH,Nakhon Phanom,minor,,
203,Waeng,16.300056,103.977861,Thailand,TH,Roi Et,minor,,
204,Ratchathewi,13.759,100.533583,Thailand,TH,Krung Thep Maha Nakhon,minor,,
205,Sai Mai,13.920684,100.645524,Thailand,TH,Krung Thep Maha Nakhon,minor,,
206,Saphan Sung,13.770194,100.68530600000001,Thailand,TH,Krung Thep Maha Nakhon,minor,,
207,Chonnabot,16.088611,102.621778,Thailand,TH,Khon Kaen,minor,,
208,Hang Chat,18.328832000000002,99.34620600000001,Thailand,TH,Lampang,minor,,
209,Hang Dong,18.687028,98.919389,Thailand,TH,Chiang Mai,minor,,
210,Na Pho,15.641126000000002,102.95461999999999,Thailand,TH,Buriram,minor,,
211,Na Noi,18.326389000000002,100.714167,Thailand,TH,Nan,minor,,
212,Takua Pa,8.8705,98.343834,Thailand,TH,Phangnga,minor,,
213,Takua Thung,8.392222,98.452278,Thailand,TH,Phangnga,minor,,
214,Bang Bua Thong,13.9102,100.425814,Thailand,TH,Nonthaburi,minor,,
215,Dok Kham Tai,19.162417,99.99341700000001,Thailand,TH,Phayao,minor,,
216,Nong Sung,16.482991000000002,104.347117,Thailand,TH,Mukdahan,minor,,
217,Klaeng,12.779722,101.648309,Thailand,TH,Rayong,minor,,
218,Phatthana Nikhom,14.856465,100.984592,Thailand,TH,Lop Buri,minor,,
219,Bang Len,14.021885000000001,100.17182700000001,Thailand,TH,Nakhon Pathom,minor,,
220,Nong Bua Daeng,16.079778,101.802246,Thailand,TH,Chaiyaphum,minor,,
221,Renu Nakhon,17.05157,104.677092,Thailand,TH,Nakhon Phanom,minor,,
222,Pha Khao,17.065073,102.029653,Thailand,TH,Loei,minor,,
223,Mae Wang,18.616037,98.77291600000001,Thailand,TH,Chiang Mai,minor,,
224,Ban Mo,14.615445000000001,100.727306,Thailand,TH,Sara Buri,minor,,
225,Phachi,14.449139,100.728334,Thailand,TH,Phra Nakhon Si Ayutthaya,minor,,
226,Huai Thap Than,15.053327,104.027541,Thailand,TH,Sisaket,minor,,
227,Kham Khuean Kaeo,15.652334,104.308611,Thailand,TH,Yasothon,minor,,
228,Bo Rai,12.572834,102.537139,Thailand,TH,Trat,minor,,
229,Borabue,16.041792,103.115062,Thailand,TH,Maha Sarakham,minor,,
230,Yaha,6.479704,101.132,Thailand,TH,Yala,minor,,
231,Phlapphla Chai,14.730110999999999,103.167278,Thailand,TH,Buriram,minor,,
232,Sa Khrai,17.675445,102.750695,Thailand,TH,Nong Khai,minor,,
233,Pla Pak,17.180639000000003,104.52605600000001,Thailand,TH,Nakhon Phanom,minor,,
234,Mae Chan,20.14675,99.852556,Thailand,TH,Chiang Rai,minor,,
235,Mae Chaem,18.499264,98.364941,Thailand,TH,Chiang Mai,minor,,
236,Nong Hi,15.611170999999999,103.994842,Thailand,TH,Roi Et,minor,,
237,Huai Khot,15.290945,99.61661099999999,Thailand,TH,Uthai Thani,minor,,
238,Nong Muang,15.245917000000002,100.655556,Thailand,TH,Lop Buri,minor,,
239,Thai Charoen,16.06645,104.44018,Thailand,TH,Yasothon,minor,,
240,Khuan Don,6.787584,100.07777800000001,Thailand,TH,Satun,minor,,
241,Khueang Nai,15.389889000000002,104.550834,Thailand,TH,Ubon Ratchathani,minor,,
242,Tha Ruea,14.567387,100.72597900000001,Thailand,TH,Phra Nakhon Si Ayutthaya,minor,,
243,Kamalasai,16.338389000000003,103.575639,Thailand,TH,Kalasin,minor,,
244,Wat Bot,16.981139000000002,100.33194499999999,Thailand,TH,Phitsanulok,minor,,
245,Phra Thong Kham,15.266856,102.020238,Thailand,TH,Nakhon Ratchasima,minor,,
246,Chanae,6.099142,101.69353100000001,Thailand,TH,Narathiwat,minor,,
247,Sam Roi Yot,12.270806,99.872028,Thailand,TH,Prachuap Khiri Khan,minor,,
248,Banphot Phisai,15.935584,99.98129300000001,Thailand,TH,Nakhon Sawan,minor,,
249,Khok Pho,6.730639,101.096195,Thailand,TH,Pattani,minor,,
250,Yan Ta Khao,7.386222,99.666917,Thailand,TH,Trang,minor,,
251,Phu Phiang,18.738028,100.800306,Thailand,TH,Nan,minor,,
252,Don Mueang,13.913924,100.58994,Thailand,TH,Krung Thep Maha Nakhon,minor,,
253,Kae Dam,16.023972,103.384445,Thailand,TH,Maha Sarakham,minor,,
254,Waeng Yai,15.955466,102.5469,Thailand,TH,Khon Kaen,minor,,
255,Waeng Noi,15.8035,102.416139,Thailand,TH,Khon Kaen,minor,,
256,Ban Kha,13.430472,99.409667,Thailand,TH,Ratchaburi,minor,,
257,Pa Daet,19.50489,99.99241500000001,Thailand,TH,Chiang Rai,minor,,
258,Phu Pha Man,16.648881,101.900966,Thailand,TH,Khon Kaen,minor,,
259,Phunphin,9.110722,99.232084,Thailand,TH,Surat Thani,minor,,
260,Sung Noen,14.899195,101.82075,Thailand,TH,Nakhon Ratchasima,minor,,
261,Rueso,6.393639,101.518472,Thailand,TH,Narathiwat,minor,,
262,Laem Sing,12.481639,102.07375,Thailand,TH,Chanthaburi,minor,,
263,Ban Na San,8.800361,99.363722,Thailand,TH,Surat Thani,minor,,
264,Wiang Nuea,19.379722,98.446445,Thailand,TH,Mae Hong Son,minor,,
265,Nong Yasai,14.779879999999999,99.910728,Thailand,TH,Suphan Buri,minor,,
266,Chana,6.915417,100.74038900000001,Thailand,TH,Songkhla,minor,,
267,Kong Ra,7.402722,99.949722,Thailand,TH,Phatthalung,minor,,
268,Kaeng Sanam Nang,15.749542000000002,102.254837,Thailand,TH,Nakhon Ratchasima,minor,,
269,Na Tan,15.897492000000002,105.293176,Thailand,TH,Ubon Ratchathani,minor,,
270,Tao Ngoi,16.996889000000003,104.166722,Thailand,TH,Sakon Nakhon,minor,,
271,Bang Khun Thian,13.663025,100.43416500000001,Thailand,TH,Krung Thep Maha Nakhon,minor,,
272,Sai Mun,15.944947,104.20812099999999,Thailand,TH,Yasothon,minor,,
273,Sathing Phra,7.473028,100.439084,Thailand,TH,Songkhla,minor,,
274,Bueng Kum,13.785275,100.669578,Thailand,TH,Krung Thep Maha Nakhon,minor,,
275,Khao Chakan,13.653501,102.08825,Thailand,TH,Sa Kaeo,minor,,
276,Thung Tako,10.110222,99.083056,Thailand,TH,Chumphon,minor,,
277,Thung Yai,8.301191000000001,99.366105,Thailand,TH,Nakhon Si Thammarat,minor,,
278,Pakham,14.438167000000002,102.725584,Thailand,TH,Buriram,minor,,
279,Nong Hong,14.847821,102.68401,Thailand,TH,Buriram,minor,,
280,Chai Badan,15.206139000000002,101.136834,Thailand,TH,Lop Buri,minor,,
281,Chai Buri,8.462222,99.076306,Thailand,TH,Surat Thani,minor,,
282,Phutthaisong,15.547834,103.02466700000001,Thailand,TH,Buriram,minor,,
283,Phu Wiang,16.652589000000003,102.375547,Thailand,TH,Khon Kaen,minor,,
284,Khlong San,13.730864000000002,100.509033,Thailand,TH,Krung Thep Maha Nakhon,minor,,
285,Phibun Rak,17.553122000000002,103.05794399999999,Thailand,TH,Udon Thani,minor,,
286,Panare,6.861917,101.491028,Thailand,TH,Pattani,minor,,
287,Thap Put,8.51625,98.63972199999999,Thailand,TH,Phangnga,minor,,
288,Hua Taphan,15.697103,104.491599,Thailand,TH,Amnat Charoen,minor,,
289,Song Dao,17.336278,103.475472,Thailand,TH,Sakon Nakhon,minor,,
290,Lao Khwan,14.595222,99.77430600000001,Thailand,TH,Kanchanaburi,minor,,
291,Sa Kaeo,13.814110999999999,102.072222,Thailand,TH,Sa Kaeo,admin,,
292,Thap Khlo,16.160028,100.596556,Thailand,TH,Phichit,minor,,
293,Bang Phli,13.606269000000001,100.70579599999999,Thailand,TH,Samut Prakan,minor,,
294,Mae Fa Luang,20.266284,99.798457,Thailand,TH,Chiang Rai,minor,,
295,Hankha,14.981222,100.01469499999999,Thailand,TH,Chai Nat,minor,,
296,Khlong Toei,13.716685,100.571591,Thailand,TH,Krung Thep Maha Nakhon,minor,,
297,Phimai,15.223235,102.494725,Thailand,TH,Nakhon Ratchasima,minor,,
298,Min Buri,13.814070999999998,100.73135,Thailand,TH,Krung Thep Maha Nakhon,minor,,
299,Thep Sathit,15.392472,101.450611,Thailand,TH,Chaiyaphum,minor,,
300,Khok Charoen,15.379266000000001,100.818699,Thailand,TH,Lop Buri,minor,,
301,Phichai,17.287639000000002,100.08669499999999,Thailand,TH,Uttaradit,minor,,
302,Phibun Mangsahan,15.244667000000002,105.22908400000001,Thailand,TH,Ubon Ratchathani,minor,,
303,Sanom,15.203597,103.760543,Thailand,TH,Surin,minor,,
304,San Pa Tong,18.628277999999998,98.89572199999999,Thailand,TH,Chiang Mai,minor,,
305,Nong Khai,17.878472,102.742,Thailand,TH,Nong Khai,admin,,
306,Rasi Salai,15.344660000000001,104.154758,Thailand,TH,Sisaket,minor,,
307,Khao Chamao,12.975861,101.68511099999999,Thailand,TH,Rayong,minor,,
308,Wang Nam Khiao,14.418014000000001,101.861129,Thailand,TH,Nakhon Ratchasima,minor,,
309,Tha Takiap,13.445472,101.611334,Thailand,TH,Chachoengsao,minor,,
310,Thung Chang,19.387860999999997,100.876195,Thailand,TH,Nan,minor,,
311,Trakan Phut Phon,15.611834,105.021472,Thailand,TH,Ubon Ratchathani,minor,,
312,Wang Chan,12.936459,101.523032,Thailand,TH,Rayong,minor,,
313,Mae Suai,19.656334,99.543667,Thailand,TH,Chiang Rai,minor,,
314,Mae Sariang,18.161695,97.935445,Thailand,TH,Mae Hong Son,minor,,
315,Somdet,16.704619,103.74934499999999,Thailand,TH,Kalasin,minor,,
316,Pong,19.149306,100.275222,Thailand,TH,Phayao,minor,,
317,Non Suwan,14.580441,102.596886,Thailand,TH,Buriram,minor,,
318,Lak Si,13.887235,100.579199,Thailand,TH,Krung Thep Maha Nakhon,minor,,
319,Chanuman,16.233556,105.0005,Thailand,TH,Amnat Charoen,minor,,
320,Ban Bueng,13.311,101.112139,Thailand,TH,Chon Buri,minor,,
321,Kosum Phisai,16.248584,103.067389,Thailand,TH,Maha Sarakham,minor,,
322,Lat Lum Kaeo,14.037278,100.404861,Thailand,TH,Pathum Thani,minor,,
323,Wang Sam Mo,16.952939,103.43649599999999,Thailand,TH,Udon Thani,minor,,
324,Huai Rat,14.960389000000001,103.189111,Thailand,TH,Buriram,minor,,
325,Mae Chai,19.345972,99.814,Thailand,TH,Phayao,minor,,
326,Ta Phraya,14.003084,102.80540699999999,Thailand,TH,Sa Kaeo,minor,,
327,Chai Prakan,19.731361,99.139972,Thailand,TH,Chiang Mai,minor,,
328,Ban Chang,12.725427999999999,101.055305,Thailand,TH,Rayong,minor,,
329,Bang Saphan,11.214513,99.51144000000001,Thailand,TH,Prachuap Khiri Khan,minor,,
330,Kut Bak,17.088820000000002,103.818753,Thailand,TH,Sakon Nakhon,minor,,
331,Saraphi,18.714167,99.035278,Thailand,TH,Chiang Mai,minor,,
332,Khok Sung,13.838237,102.622539,Thailand,TH,Sa Kaeo,minor,,
333,Kut Rang,16.09398,103.009984,Thailand,TH,Maha Sarakham,minor,,
334,Singhanakhon,7.239032000000001,100.552718,Thailand,TH,Songkhla,minor,,
335,Sadao,6.638833,100.423417,Thailand,TH,Songkhla,minor,,
336,Pathum Ratchawongsa,15.892242999999999,104.90563300000001,Thailand,TH,Amnat Charoen,minor,,
337,Sankhaburi,15.047334,100.161778,Thailand,TH,Chai Nat,minor,,
338,San Kamphaeng,18.744861,99.119528,Thailand,TH,Chiang Mai,minor,,
339,Wang Muang,14.842278,101.125498,Thailand,TH,Sara Buri,minor,,
340,Chiang Yuen,16.410421,103.097675,Thailand,TH,Maha Sarakham,minor,,
341,Kranuan,16.706722,103.078778,Thailand,TH,Khon Kaen,minor,,
342,Ban Lueam,15.609160000000001,102.129284,Thailand,TH,Nakhon Ratchasima,minor,,
343,Tham Phannara,8.420444999999999,99.395167,Thailand,TH,Nakhon Si Thammarat,minor,,
344,Nong Na Kham,16.804303,102.336474,Thailand,TH,Khon Kaen,minor,,
345,Khuan Niang,7.191378,100.353551,Thailand,TH,Songkhla,minor,,
346,Khuan Kalong,6.845378999999999,100.071483,Thailand,TH,Satun,minor,,
347,Khuan Khanun,7.734694999999999,100.00930600000001,Thailand,TH,Phatthalung,minor,,
348,Phang Khon,17.390504999999997,103.716921,Thailand,TH,Sakon Nakhon,minor,,
349,Bueng Na Rang,16.171195,100.12530600000001,Thailand,TH,Phichit,minor,,
350,Wapi Pathum,15.845229000000002,103.376785,Thailand,TH,Maha Sarakham,minor,,
351,Warin Chamrap,15.193187,104.86280500000001,Thailand,TH,Ubon Ratchathani,minor,,
352,Warichaphum,17.294091,103.638159,Thailand,TH,Sakon Nakhon,minor,,
353,Sak Lek,16.505278,100.471028,Thailand,TH,Phichit,minor,,
354,Na Duang,17.478191,101.973618,Thailand,TH,Loei,minor,,
355,Ban Na Doem,8.883611,99.310139,Thailand,TH,Surat Thani,minor,,
356,Dong Luang,16.815889000000002,104.538,Thailand,TH,Mukdahan,minor,,
357,Don Chedi,14.634972,100.020972,Thailand,TH,Suphan Buri,minor,,
358,Cho-airong,6.225529,101.81128000000001,Thailand,TH,Narathiwat,minor,,
359,Nong Suea,14.134778,100.825028,Thailand,TH,Pathum Thani,minor,,
360,Nong Song Hong,15.733584,102.795722,Thailand,TH,Khon Kaen,minor,,
361,Chaem Luang,19.031929,98.287674,Thailand,TH,Chiang Mai,minor,,
362,Phayakkhaphum Phisai,15.516306,103.193667,Thailand,TH,Maha Sarakham,minor,,
363,Bang Kho Laem,13.693473999999998,100.502204,Thailand,TH,Krung Thep Maha Nakhon,minor,,
364,Ban Lat,13.051501,99.917012,Thailand,TH,Phetchaburi,minor,,
365,Nong Bun Nak,14.739472,102.365639,Thailand,TH,Nakhon Ratchasima,minor,,
366,Nong Bua Rawe,15.753136999999999,101.763959,Thailand,TH,Chaiyaphum,minor,,
367,Nong Bua Lamphu,17.204056,102.440679,Thailand,TH,Nong Bua Lamphu,admin,,
368,Nong Chang,15.391472,99.841472,Thailand,TH,Uthai Thani,minor,,
369,Buntharik,14.756389000000002,105.411472,Thailand,TH,Ubon Ratchathani,minor,,
370,Ban Mi,15.044278,100.536806,Thailand,TH,Lop Buri,minor,,
371,Khemarat,16.042523000000003,105.21836,Thailand,TH,Ubon Ratchathani,minor,,
372,Phran Kratai,16.665111,99.588945,Thailand,TH,Kamphaeng Phet,minor,,
373,Si Songkhram,17.627446,104.250695,Thailand,TH,Nakhon Phanom,minor,,
374,Si That,16.973611,103.216445,Thailand,TH,Udon Thani,minor,,
375,Si Thep,15.452139,101.06666700000001,Thailand,TH,Phetchabun,minor,,
376,Khong Chai,16.26025,103.458278,Thailand,TH,Kalasin,minor,,
377,Uthai,14.362778,100.672028,Thailand,TH,Phra Nakhon Si Ayutthaya,minor,,
378,Plai Phraya,8.532778,98.86369499999999,Thailand,TH,Krabi,minor,,
379,Mae Charim,18.706139,101.00569499999999,Thailand,TH,Nan,minor,,
380,Ban Rai,15.084167,99.521084,Thailand,TH,Uthai Thani,minor,,
381,Phra Nakhon,13.765117000000002,100.498637,Thailand,TH,Krung Thep Maha Nakhon,minor,,
382,Tha Tako,15.642182,100.478389,Thailand,TH,Nakhon Sawan,minor,,
383,Si Narong,14.767361,103.873917,Thailand,TH,Surin,minor,,
384,Ban Haet,16.196482,102.759586,Thailand,TH,Khon Kaen,minor,,
385,Bang Kapi,13.765298000000001,100.647003,Thailand,TH,Krung Thep Maha Nakhon,minor,,
386,Ban Phaeo,13.590724,100.107483,Thailand,TH,Samut Sakhon,minor,,
387,Wat Phleng,13.454073000000001,99.886367,Thailand,TH,Ratchaburi,minor,,
388,Pho Thong,14.667306,100.408778,Thailand,TH,Ang Thong,minor,,
389,Bang Sai,14.212395,100.496566,Thailand,TH,Phra Nakhon Si Ayutthaya,minor,,
390,Bang Sai,14.334334,100.30377800000001,Thailand,TH,Phra Nakhon Si Ayutthaya,minor,,
391,Khao Kho,16.657913,101.022075,Thailand,TH,Phetchabun,minor,,
392,At Samat,15.843079000000001,103.87839,Thailand,TH,Roi Et,minor,,
393,Kut Chum,16.032889,104.339361,Thailand,TH,Yasothon,minor,,
394,Kut Chap,17.425695,102.566917,Thailand,TH,Udon Thani,minor,,
395,Kut Khaopun,15.792667000000002,104.998139,Thailand,TH,Ubon Ratchathani,minor,,
396,Moeiwadi,16.389445000000002,104.157195,Thailand,TH,Roi Et,minor,,
397,Mae Taeng,19.117122,98.94176,Thailand,TH,Chiang Mai,minor,,
398,Mae Ai,20.028834,99.298334,Thailand,TH,Chiang Mai,minor,,
399,Bua Chet,14.528139000000001,103.945667,Thailand,TH,Surin,minor,,
400,Khon Buri,14.525407000000001,102.245908,Thailand,TH,Nakhon Ratchasima,minor,,
401,Sahatsakhan,16.712360999999998,103.520195,Thailand,TH,Kalasin,minor,,
402,Kaeng Khoi,14.586167000000001,100.997584,Thailand,TH,Sara Buri,minor,,
403,Kaeng Khro,16.108639,102.258084,Thailand,TH,Chaiyaphum,minor,,
404,Khao Suan Kwang,16.858889,102.86125,Thailand,TH,Khon Kaen,minor,,
405,Tha Li,17.62355,101.42099,Thailand,TH,Loei,minor,,
406,Sung Men,18.049401,100.114573,Thailand,TH,Phrae,minor,,
407,Su-ngai Kolok,6.029774,101.965855,Thailand,TH,Narathiwat,minor,,
408,Kanchanadit,9.166111,99.470139,Thailand,TH,Surat Thani,minor,,
409,Lom Sak,16.779834,101.24225,Thailand,TH,Phetchabun,minor,,
410,Suwannaphum,15.60348,103.80206700000001,Thailand,TH,Roi Et,minor,,
411,Suwannakhuha,17.562917000000002,102.279889,Thailand,TH,Nong Bua Lamphu,minor,,
412,Mueang Yang,15.420603,102.89282299999999,Thailand,TH,Nakhon Ratchasima,minor,,
413,Phana,15.682306,104.846028,Thailand,TH,Amnat Charoen,minor,,
414,Phan,19.55395,99.74045500000001,Thailand,TH,Chiang Rai,minor,,
415,Samrong Thap,15.022584,103.936306,Thailand,TH,Surin,minor,,
416,Kapong,8.696972,98.409139,Thailand,TH,Phangnga,minor,,
417,Kapoe,9.585222,98.596111,Thailand,TH,Ranong,minor,,
418,Pua,19.175028,100.91622199999999,Thailand,TH,Nan,minor,,
419,Pueai Noi,15.869778,102.907667,Thailand,TH,Khon Kaen,minor,,
420,Li,17.802695,98.950972,Thailand,TH,Lamphun,minor,,
421,Wang Nam Yen,13.503252,102.181151,Thailand,TH,Sa Kaeo,minor,,
422,Wang Noi,14.226889000000002,100.7155,Thailand,TH,Phra Nakhon Si Ayutthaya,minor,,
423,Wang Nuea,19.146778,99.619334,Thailand,TH,Lampang,minor,,
424,Tan Sum,15.315695000000002,105.15463899999999,Thailand,TH,Ubon Ratchathani,minor,,
425,Sam Ngam,16.506528,100.204972,Thailand,TH,Phichit,minor,,
426,Kho Wang,15.369983,104.352314,Thailand,TH,Yasothon,minor,,
427,Thung Hua Chang,18.003009,99.02780200000001,Thailand,TH,Lamphun,minor,,
428,Bo Kluea,19.150289,101.155598,Thailand,TH,Nan,minor,,
429,Nong Prue,14.60784,99.457833,Thailand,TH,Kanchanaburi,minor,,
430,Tha Muang,13.961179000000001,99.641223,Thailand,TH,Kanchanaburi,minor,,
431,Ratchasan,13.782110999999999,101.281334,Thailand,TH,Chachoengsao,minor,,
432,Bang Bon,13.661851,100.395667,Thailand,TH,Krung Thep Maha Nakhon,minor,,
433,Taphan Hin,16.220945,100.41977800000001,Thailand,TH,Phichit,minor,,
434,Bangkok Noi,13.762660999999998,100.47798,Thailand,TH,Krung Thep Maha Nakhon,minor,,
435,Bangkok Yai,13.723189999999999,100.476,Thailand,TH,Krung Thep Maha Nakhon,minor,,
436,Fao Rai,18.017915,103.303876,Thailand,TH,Nong Khai,minor,,
437,Don Tan,16.316972,104.92,Thailand,TH,Mukdahan,minor,,
438,Ka Bang,6.415361,101.054556,Thailand,TH,Yala,minor,,
439,Lam Luk Ka,13.932260999999999,100.74937,Thailand,TH,Pathum Thani,minor,,
440,Prachantakham,14.064417,101.515028,Thailand,TH,Prachin Buri,minor,,
441,Lamae,9.767889,99.092556,Thailand,TH,Chumphon,minor,,
442,Hat Samran,7.240336,99.57620899999999,Thailand,TH,Trang,minor,,
443,Pran Buri,12.384867999999999,99.901575,Thailand,TH,Prachuap Khiri Khan,minor,,
444,Nong Mamong,15.276128,99.866398,Thailand,TH,Chai Nat,minor,,
445,Pak Kret,13.913014000000002,100.498828,Thailand,TH,Nonthaburi,minor,,
446,Khlong Khlung,16.216334,99.71905600000001,Thailand,TH,Kamphaeng Phet,minor,,
447,Khlong Lan,16.203306,99.31997199999999,Thailand,TH,Kamphaeng Phet,minor,,
448,Pak Chom,18.020606,101.898279,Thailand,TH,Loei,minor,,
449,Kra Buri,10.404288000000001,98.772662,Thailand,TH,Ranong,minor,,
450,Chang Klang,8.37094,99.56249100000001,Thailand,TH,Nakhon Si Thammarat,minor,,
451,Chulabhorn,8.075972,99.869472,Thailand,TH,Nakhon Si Thammarat,minor,,
452,Phra Phrom,8.339111,99.90091600000001,Thailand,TH,Nakhon Si Thammarat,minor,,
453,Na Yong,7.561667,99.694834,Thailand,TH,Trang,minor,,
454,Ratsada,7.974667,99.633528,Thailand,TH,Trang,minor,,
455,Ban Fang,16.453306,102.638917,Thailand,TH,Khon Kaen,minor,,
456,Na Muen,18.18931,100.66046800000001,Thailand,TH,Nan,minor,,
457,Nam Khun,14.583860999999999,104.924806,Thailand,TH,Ubon Ratchathani,minor,,
458,Phon Na Kaeo,17.221222,104.28994499999999,Thailand,TH,Sakon Nakhon,minor,,
459,Wang Yang,17.057515,104.453325,Thailand,TH,Nakhon Phanom,minor,,
460,Bang Kaeo,7.4294720000000005,100.178028,Thailand,TH,Phatthalung,minor,,
461,La-ngu,6.884917,99.788361,Thailand,TH,Satun,minor,,
462,Kaeng Hang Maeo,13.00825,101.90608399999999,Thailand,TH,Chanthaburi,minor,,
463,Phanom Dong Rak,14.44575,103.305084,Thailand,TH,Surin,minor,,
464,Fang,19.916889,99.2145,Thailand,TH,Chiang Mai,minor,,
465,Ra-ngae,6.296778,101.728445,Thailand,TH,Narathiwat,minor,,
466,Noen Kham,14.950101,99.938988,Thailand,TH,Chai Nat,minor,,
467,Lan Saka,8.370972,99.805639,Thailand,TH,Nakhon Si Thammarat,minor,,
468,Si Maha Phot,13.965972,101.513028,Thailand,TH,Prachin Buri,minor,,
469,Doi Lo,18.460983,98.77767,Thailand,TH,Chiang Mai,minor,,
470,Akat Amnuai,17.596387,103.9816,Thailand,TH,Sakon Nakhon,minor,,
471,Na Haeo,17.485360999999997,101.068084,Thailand,TH,Loei,minor,,
472,Suk Samran,9.344584,98.429028,Thailand,TH,Ranong,minor,,
473,Bang Pakong,13.542972,100.99333299999999,Thailand,TH,Chachoengsao,minor,,
474,Bang Pa-in,14.227828,100.57589399999999,Thailand,TH,Phra Nakhon Si Ayutthaya,minor,,
475,Bang Pahan,14.462167,100.54477800000001,Thailand,TH,Phra Nakhon Si Ayutthaya,minor,,
476,Ngao,18.756778,99.978139,Thailand,TH,Lampang,minor,,
477,Prakhon Chai,14.610733999999999,103.079234,Thailand,TH,Buriram,minor,,
478,Krathum Baen,13.653298000000001,100.25971700000001,Thailand,TH,Samut Sakhon,minor,,
479,Sapphaya,15.146157,100.24214599999999,Thailand,TH,Chai Nat,minor,,
480,San Sai,18.847917000000002,99.045084,Thailand,TH,Chiang Mai,minor,,
481,Santi Suk,18.913695,100.941695,Thailand,TH,Nan,minor,,
482,Rat Burana,13.682193,100.50603199999999,Thailand,TH,Krung Thep Maha Nakhon,minor,,
483,Phakdi Chumphon,15.905167,101.422278,Thailand,TH,Chaiyaphum,minor,,
484,Chum Phuang,15.348610999999998,102.74161099999999,Thailand,TH,Nakhon Ratchasima,minor,,
485,Tak Fa,15.349167000000001,100.495222,Thailand,TH,Nakhon Sawan,minor,,
486,Wang Sai Phun,16.3885,100.53800600000001,Thailand,TH,Phichit,minor,,
487,Ko Samui,9.535671,99.93566899999999,Thailand,TH,Surat Thani,minor,,
488,Ban Muang,17.850796,103.569389,Thailand,TH,Sakon Nakhon,minor,,
489,Maha Chana Chai,15.529352,104.238473,Thailand,TH,Yasothon,minor,,
490,Rong Kwang,18.339028,100.317361,Thailand,TH,Phrae,minor,,
491,Rong Kham,16.269428,103.746889,Thailand,TH,Kalasin,minor,,
492,Sida,15.549941,102.566746,Thailand,TH,Nakhon Ratchasima,minor,,
493,Sikao,7.571584,99.344945,Thailand,TH,Trang,minor,,
494,Nong Yai,13.155147,101.37225699999999,Thailand,TH,Chon Buri,minor,,
495,Nakhon Luang,14.462807000000002,100.608315,Thailand,TH,Phra Nakhon Si Ayutthaya,minor,,
496,Cha-uat,7.967728999999999,99.999849,Thailand,TH,Nakhon Si Thammarat,minor,,
497,Chawang,8.426139,99.504722,Thailand,TH,Nakhon Si Thammarat,minor,,
498,Ko Yao,8.110135000000001,98.592314,Thailand,TH,Phangnga,minor,,
499,Kaset Wisai,15.655575,103.583611,Thailand,TH,Roi Et,minor,,
500,Kaset Sombun,16.280528,101.954222,Thailand,TH,Chaiyaphum,minor,,
501,La-Un,10.116464,98.75,Thailand,TH,Ranong,minor,,
502,Wang Wiset,7.736308,99.398702,Thailand,TH,Trang,minor,,
503,Khong,15.443925,102.328624,Thailand,TH,Nakhon Ratchasima,minor,,
504,Chaloem Phra Kiat,8.176889,100.03580600000001,Thailand,TH,Nakhon Si Thammarat,minor,,
505,Bang Khan,8.026889,99.473722,Thailand,TH,Nakhon Si Thammarat,minor,,
506,Dusit,13.777498999999999,100.519766,Thailand,TH,Krung Thep Maha Nakhon,minor,,
507,Ban Sang,13.995028,101.220945,Thailand,TH,Prachin Buri,minor,,
508,Kham Muang,16.929022,103.635181,Thailand,TH,Kalasin,minor,,
509,Lue Amnat,15.694761999999999,104.648457,Thailand,TH,Amnat Charoen,minor,,
510,Kumphawapi,17.108751,103.014874,Thailand,TH,Udon Thani,minor,,
511,Seka,17.928511,103.95519200000001,Thailand,TH,Bueng Kan,minor,,
512,Na Dun,15.716683999999999,103.227812,Thailand,TH,Maha Sarakham,minor,,
513,Wiang Chiang Rung,20.013278,100.056389,Thailand,TH,Chiang Rai,minor,,
514,Doi Luang,20.117834,100.099195,Thailand,TH,Chiang Rai,minor,,
515,Wiang Kaen,20.112972,100.513306,Thailand,TH,Chiang Rai,minor,,
516,Dan Sai,17.280110999999998,101.146861,Thailand,TH,Loei,minor,,
517,Dan Khun Thot,15.208499,101.771381,Thailand,TH,Nakhon Ratchasima,minor,,
518,Lahan Sai,14.411417000000002,102.85936099999999,Thailand,TH,Buriram,minor,,
519,Nong Muang Khai,18.264639000000003,100.18966999999999,Thailand,TH,Phrae,minor,,
520,Lam Sonthi,15.301541,101.363654,Thailand,TH,Lop Buri,minor,,
521,Lam Thap,8.072278,99.29225,Thailand,TH,Krabi,minor,,
522,Phu Phan,16.998905999999998,103.973466,Thailand,TH,Sakon Nakhon,minor,,
523,Changhan,16.138725,103.603876,Thailand,TH,Roi Et,minor,,
524,Ban Khwao,15.777722,101.907195,Thailand,TH,Chaiyaphum,minor,,
525,Ongkharak,14.121167000000002,101.003639,Thailand,TH,Nakhon Nayok,minor,,
526,Suan Phueng,13.542901,99.339607,Thailand,TH,Ratchaburi,minor,,
527,Si Bun Rueang,16.967053,102.276074,Thailand,TH,Nong Bua Lamphu,minor,,
528,Chiang Muan,18.889692,100.305886,Thailand,TH,Phayao,minor,,
529,Ban Luang,18.849694,100.437247,Thailand,TH,Nan,minor,,
530,Krong Pi Nang,6.4112,101.27393599999999,Thailand,TH,Yala,minor,,
531,Sam Phran,13.726982999999999,100.215264,Thailand,TH,Nakhon Pathom,minor,,
532,Samphanthawong,13.731473999999999,100.514139,Thailand,TH,Krung Thep Maha Nakhon,minor,,
533,Phanom,8.85475,98.812667,Thailand,TH,Surat Thani,minor,,
534,Wan Yai,16.722285999999997,104.741355,Thailand,TH,Mukdahan,minor,,
535,Wanon Niwat,17.633909,103.752413,Thailand,TH,Sakon Nakhon,minor,,
536,Chaloem Phra Kiat,14.6115,100.90825,Thailand,TH,Sara Buri,minor,,
537,Nong Wua So,17.162611,102.572722,Thailand,TH,Udon Thani,minor,,
538,Na Di,14.115167999999999,101.781892,Thailand,TH,Prachin Buri,minor,,
539,Khanom,9.204722,99.861139,Thailand,TH,Nakhon Si Thammarat,minor,,
540,Sichon,8.964084,99.896028,Thailand,TH,Nakhon Si Thammarat,minor,,
541,Bang Mun Nak,16.027805999999998,100.37916700000001,Thailand,TH,Phichit,minor,,
542,Bueng Sam Phan,15.78404,101.007163,Thailand,TH,Phetchabun,minor,,
543,Bueng Khong Long,17.961288,104.046674,Thailand,TH,Bueng Kan,minor,,
544,Nong Chik,6.8435559999999995,101.178028,Thailand,TH,Pattani,minor,,
545,Nong Chok,13.855853,100.862155,Thailand,TH,Krung Thep Maha Nakhon,minor,,
546,Rattaphum,7.134778,100.256472,Thailand,TH,Songkhla,minor,,
547,Rattanaburi,15.317878,103.84859300000001,Thailand,TH,Surin,minor,,
548,Song Phi Nong,14.224084,100.020945,Thailand,TH,Suphan Buri,minor,,
549,Tha Pla,17.791123000000002,100.37610600000001,Thailand,TH,Uttaradit,minor,,
550,Phaya Mengrai,19.849222,100.153584,Thailand,TH,Chiang Rai,minor,,
551,Maha Rat,14.533667000000001,100.52672199999999,Thailand,TH,Phra Nakhon Si Ayutthaya,minor,,
552,Mae Lan,6.661139,101.239584,Thailand,TH,Pattani,minor,,
553,Soeng Sang,14.426417,102.460584,Thailand,TH,Nakhon Ratchasima,minor,,
554,Sanam Chai Khet,13.658639,101.43905600000001,Thailand,TH,Chachoengsao,minor,,
555,Prang Ku,14.856722,104.039806,Thailand,TH,Sisaket,minor,,
556,Huai Krachao,14.3275,99.66766700000001,Thailand,TH,Kanchanaburi,minor,,
557,Uthumphon Phisai,15.111610999999998,104.140111,Thailand,TH,Sisaket,minor,,
558,U Thong,14.375139,99.89225,Thailand,TH,Suphan Buri,minor,,
559,Ban Thaen,16.405056,102.342389,Thailand,TH,Chaiyaphum,minor,,
560,Nopphitam,8.722064,99.748785,Thailand,TH,Nakhon Si Thammarat,minor,,
561,Tha Chang,14.761417000000002,100.389889,Thailand,TH,Sing Buri,minor,,
562,Tha Chang,9.264178999999999,99.192181,Thailand,TH,Surat Thani,minor,,
563,Tha Chana,9.572028,99.16586099999999,Thailand,TH,Surat Thani,minor,,
564,Phaya Thai,13.780047,100.542746,Thailand,TH,Krung Thep Maha Nakhon,minor,,
565,Tha Song Yang,17.227084,98.22572199999999,Thailand,TH,Tak,minor,,
566,Bang Yai,13.876389000000001,100.403889,Thailand,TH,Nonthaburi,minor,,
567,Ban Phaeng,17.965067,104.215345,Thailand,TH,Nakhon Phanom,minor,,
568,Kamphaeng Saen,13.999664000000001,99.989807,Thailand,TH,Nakhon Pathom,minor,,
569,Wichian Buri,15.657778,101.10602800000001,Thailand,TH,Phetchabun,minor,,
570,Wihan Daeng,14.345861,100.989417,Thailand,TH,Sara Buri,minor,,
571,Chumphon Buri,15.348622,103.39217,Thailand,TH,Surin,minor,,
572,Bo Thong,13.27825,101.440278,Thailand,TH,Chon Buri,minor,,
573,Khao Phanom,8.265489,99.051242,Thailand,TH,Krabi,minor,,
574,Mayo,6.718639,101.409834,Thailand,TH,Pattani,minor,,
575,Nong Phok,16.310056,104.202472,Thailand,TH,Roi Et,minor,,
576,Nong Phai,15.99025,101.06183399999999,Thailand,TH,Phetchabun,minor,,
577,Si Rattana,14.793277999999999,104.469222,Thailand,TH,Sisaket,minor,,
578,Mancha Khiri,16.130477,102.537121,Thailand,TH,Khon Kaen,minor,,
579,Thoen,17.612894,99.216116,Thailand,TH,Lampang,minor,,
580,Thoeng,19.685084,100.194556,Thailand,TH,Chiang Rai,minor,,
581,Si Nakhon,17.349075,99.985629,Thailand,TH,Sukhothai,minor,,
582,Si Mueang Mai,15.493148000000001,105.27623899999999,Thailand,TH,Ubon Ratchathani,minor,,
583,Lan Sak,15.452889,99.57605600000001,Thailand,TH,Uthai Thani,minor,,
584,Lan Krabue,16.600028,99.848889,Thailand,TH,Kamphaeng Phet,minor,,
585,Yang Talat,16.399815,103.367846,Thailand,TH,Kalasin,minor,,
586,Don Phut,14.59175,100.62827800000001,Thailand,TH,Sara Buri,minor,,
587,Pak Chong,14.708023,101.41614200000001,Thailand,TH,Nakhon Ratchasima,minor,,
588,Thalang,8.031695,98.33408399999999,Thailand,TH,Phuket,minor,,
589,Phra Nakhon Si Ayutthaya,14.351667,100.577389,Thailand,TH,Phra Nakhon Si Ayutthaya,admin,,
590,Bacho,6.5167779999999995,101.65100000000001,Thailand,TH,Narathiwat,minor,,
591,Dong Charoen,16.02058,100.66286099999999,Thailand,TH,Phichit,minor,,
592,Lat Krabang,13.723414000000002,100.78436500000001,Thailand,TH,Krung Thep Maha Nakhon,minor,,
593,Pak Khat,18.305557999999998,103.304406,Thailand,TH,Bueng Kan,minor,,
594,Long,18.074219,99.830727,Thailand,TH,Phrae,minor,,
595,Na Kae,16.946445,104.50080600000001,Thailand,TH,Nakhon Phanom,minor,,
596,Chom Bueng,13.620003,99.591688,Thailand,TH,Ratchaburi,minor,,
597,Khlong Luang,14.064667000000002,100.645778,Thailand,TH,Pathum Thani,minor,,
598,Phon Phisai,18.021056,103.076639,Thailand,TH,Nong Khai,minor,,
599,Ko Si Chang,13.163885,100.80546700000001,Thailand,TH,Chon Buri,minor,,
600,Bang Na,13.667444,100.64205600000001,Thailand,TH,Krung Thep Maha Nakhon,minor,,
601,Ban Kruat,14.423132,103.099737,Thailand,TH,Buriram,minor,,
602,Lamduan,14.722045999999999,103.66934300000001,Thailand,TH,Surin,minor,,
603,Khao Yoi,13.24025,99.824278,Thailand,TH,Phetchaburi,minor,,
604,Khao Wong,16.700084,104.090195,Thailand,TH,Kalasin,minor,,
605,Phu Khiao,16.3765,102.128528,Thailand,TH,Chaiyaphum,minor,,
606,Sai Buri,6.701306,101.61675,Thailand,TH,Pattani,minor,,
607,Ban Pong,13.816292,99.877392,Thailand,TH,Ratchaburi,minor,,
608,Chae Hom,18.712667,99.55758399999999,Thailand,TH,Lampang,minor,,
609,Nam Yuen,14.489389000000001,105.000945,Thailand,TH,Ubon Ratchathani,minor,,
610,Phrasaeng,8.567806,99.247556,Thailand,TH,Surat Thani,minor,,
611,Sukhirin,5.938892,101.770768,Thailand,TH,Narathiwat,minor,,
612,Chun,19.336945,100.134778,Thailand,TH,Phayao,minor,,
613,Bueng Bun,15.330301,104.044853,Thailand,TH,Sisaket,minor,,
614,Nuea Khlong,8.071435000000001,98.999328,Thailand,TH,Krabi,minor,,
615,Na Thom,17.784909,104.090822,Thailand,TH,Nakhon Phanom,minor,,
616,Hua Sai,8.044084,100.305861,Thailand,TH,Nakhon Si Thammarat,minor,,
617,Chamni,14.786291,102.822766,Thailand,TH,Buriram,minor,,
618,Fak Tha,17.999481,100.880137,Thailand,TH,Uttaradit,minor,,
619,Raman,6.478623000000001,101.424145,Thailand,TH,Yala,minor,,
620,Bang Phae,13.691568,99.929816,Thailand,TH,Ratchaburi,minor,,
621,Thepharak,15.308676,101.550452,Thailand,TH,Nakhon Ratchasima,minor,,
622,Satuek,15.297028,103.291917,Thailand,TH,Buriram,minor,,
623,Sawaeng Ha,14.746417000000001,100.329417,Thailand,TH,Ang Thong,minor,,
624,Pong Nam Ron,12.90575,102.26225,Thailand,TH,Chanthaburi,minor,,
625,Wiphawadi,9.238945,98.978611,Thailand,TH,Surat Thani,minor,,
626,Mae Hi,19.342855,98.45022800000001,Thailand,TH,Mae Hong Son,minor,,
627,Si Prachan,14.619917000000001,100.144834,Thailand,TH,Suphan Buri,minor,,
628,Phon Charoen,18.031434,103.709958,Thailand,TH,Bueng Kan,minor,,
629,Yi-ngo,6.402965,101.706255,Thailand,TH,Narathiwat,minor,,
630,Ban Khok,18.026139,101.067722,Thailand,TH,Uttaradit,minor,,
631,Thepha,6.8293610000000005,100.96430600000001,Thailand,TH,Songkhla,minor,,
632,Waeng,5.9279980000000005,101.883822,Thailand,TH,Narathiwat,minor,,
633,Amnat Charoen,15.858510999999998,104.628834,Thailand,TH,Amnat Charoen,admin,,
634,Plaeng Yao,13.584667000000001,101.284028,Thailand,TH,Chachoengsao,minor,,
635,Rattanawapi,18.213647,103.179672,Thailand,TH,Nong Khai,minor,,
636,Phrom Khiri,8.523334,99.82275,Thailand,TH,Nakhon Si Thammarat,minor,,
637,Phrom Phiram,17.033518,100.201904,Thailand,TH,Phitsanulok,minor,,
638,Srinagarindra,7.569911,99.943528,Thailand,TH,Phatthalung,minor,,
639,Bua Lai,15.665479000000001,102.498814,Thailand,TH,Nakhon Ratchasima,minor,,
640,Yang Si Surat,15.683610999999999,103.103111,Thailand,TH,Maha Sarakham,minor,,
641,Khlong Hoi Khong,6.898649000000001,100.38885,Thailand,TH,Songkhla,minor,,
642,Na Yia,15.063668,105.05993899999999,Thailand,TH,Ubon Ratchathani,minor,,
643,Lat Yao,15.751,99.78925,Thailand,TH,Nakhon Sawan,minor,,
644,Wang Thong,16.824583999999998,100.429361,Thailand,TH,Phitsanulok,minor,,
645,Khong Chiam,15.318556,105.495056,Thailand,TH,Ubon Ratchathani,minor,,
646,Thanyaburi,14.021139000000002,100.73433399999999,Thailand,TH,Pathum Thani,minor,,
647,Chakkarat,15.013527999999999,102.412889,Thailand,TH,Nakhon Ratchasima,minor,,
648,Bang Khon Thi,13.469056,99.940213,Thailand,TH,Samut Songkhram,minor,,
649,Mai Kaen,6.60975,101.666861,Thailand,TH,Pattani,minor,,
650,Kham Sakae Saeng,15.332206,102.17278,Thailand,TH,Nakhon Ratchasima,minor,,
651,Kham Ta Kla,17.852308999999998,103.75657199999999,Thailand,TH,Sakon Nakhon,minor,,
652,Kham Thale So,14.960834,101.947889,Thailand,TH,Nakhon Ratchasima,minor,,
653,Kabin Buri,13.951139999999999,101.717687,Thailand,TH,Prachin Buri,minor,,
654,Noen Maprang,16.566667000000002,100.633333,Thailand,TH,Phitsanulok,minor,,
655,Sai Yok,14.118989000000001,99.142003,Thailand,TH,Kanchanaburi,minor,,
656,Sawi,10.236678,99.109378,Thailand,TH,Chumphon,minor,,
657,Huai Khwang,13.776778,100.579,Thailand,TH,Krung Thep Maha Nakhon,minor,,
658,Betong,5.774337,101.072312,Thailand,TH,Yala,minor,,
659,Phra Pradaeng,13.658545000000002,100.533618,Thailand,TH,Samut Prakan,minor,,
660,Na Thawi,6.741917,100.691389,Thailand,TH,Songkhla,minor,,
661,Nong Ki,14.686794,102.538002,Thailand,TH,Buriram,minor,,
662,Si Sakhon,6.231366,101.50048000000001,Thailand,TH,Narathiwat,minor,,
663,Si Samrong,17.164,99.862222,Thailand,TH,Sukhothai,minor,,
664,Thung Khao Luang,15.993972,103.862639,Thailand,TH,Roi Et,minor,,
665,Khwao Sinarin,15.002441000000001,103.59154000000001,Thailand,TH,Surin,minor,,
666,Non Narai,15.237639000000001,103.91333399999999,Thailand,TH,Surin,minor,,
667,Mueang Suang,15.821923000000002,103.728841,Thailand,TH,Roi Et,minor,,
668,Khlong Thom,7.937498,99.14456700000001,Thailand,TH,Krabi,minor,,
669,Yang Chum Noi,15.264532,104.39769,Thailand,TH,Sisaket,minor,,
670,Kap Choeng,14.474860999999999,103.594389,Thailand,TH,Surin,minor,,
671,Pak Thong Chai,14.722603,102.025121,Thailand,TH,Nakhon Ratchasima,minor,,
672,Pak Tho,13.372632000000001,99.83937900000001,Thailand,TH,Ratchaburi,minor,,
673,Chaloem Phra Kiat,15.005084,102.27033399999999,Thailand,TH,Nakhon Ratchasima,minor,,
674,Su-ngai Padi,6.0857,101.879586,Thailand,TH,Narathiwat,minor,,
675,Lom Kao,16.886139,101.228945,Thailand,TH,Phetchabun,minor,,
676,Si Satchanalai,17.520342000000003,99.763962,Thailand,TH,Sukhothai,minor,,
677,Ko Pha-Ngan,9.719448,99.99511,Thailand,TH,Surat Thani,minor,,
678,Sop Moei,17.962093,97.93288299999999,Thailand,TH,Mae Hong Son,minor,,
679,Phanna Nikhom,17.35245,103.85032,Thailand,TH,Sakon Nakhon,minor,,
680,Huai Yot,7.7893740000000005,99.63469,Thailand,TH,Trang,minor,,
681,Bang Khen,13.873833,100.596778,Thailand,TH,Krung Thep Maha Nakhon,minor,,
682,Non Sila,15.974389000000002,102.669834,Thailand,TH,Khon Kaen,minor,,
683,Lap Lae,17.652110999999998,100.038917,Thailand,TH,Uttaradit,minor,,
684,Nang Rong,14.637704000000001,102.791383,Thailand,TH,Buriram,minor,,
685,Nong Khaem,13.705275,100.349233,Thailand,TH,Krung Thep Maha Nakhon,minor,,
686,Bo Phloi,14.325167,99.514667,Thailand,TH,Kanchanaburi,minor,,
687,Kapho,6.559684,101.53426400000001,Thailand,TH,Pattani,minor,,
688,Nong Don,14.684876000000001,100.70940300000001,Thailand,TH,Sara Buri,minor,,
689,Doi Tao,17.952861,98.684584,Thailand,TH,Chiang Mai,minor,,
690,Bueng Kan,18.363035,103.651944,Thailand,TH,Bueng Kan,admin,,
691,Phayuha Khiri,15.45525,100.135334,Thailand,TH,Nakhon Sawan,minor,,
692,Pak Phanang,8.35109,100.201952,Thailand,TH,Nakhon Si Thammarat,minor,,
693,Khao Khitchakut,12.804806,102.115139,Thailand,TH,Chanthaburi,minor,,
694,Wang Sombun,13.361756,102.191051,Thailand,TH,Sa Kaeo,minor,,
695,Soi Dao,13.128943,102.21401800000001,Thailand,TH,Chanthaburi,minor,,
696,Khanu Woralaksaburi,16.061695,99.860584,Thailand,TH,Kamphaeng Phet,minor,,
697,Nakhon Chai Si,13.801260000000001,100.184507,Thailand,TH,Nakhon Pathom,minor,,
698,Pa Tio,15.832807999999998,104.38673299999999,Thailand,TH,Yasothon,minor,,
699,Soem Ngam,18.065056,99.245374,Thailand,TH,Lampang,minor,,
700,Samrong,15.007806,104.784195,Thailand,TH,Ubon Ratchathani,minor,,
701,Pho Tak,17.874861,102.40405600000001,Thailand,TH,Nong Khai,minor,,
702,Na Wang,17.324441,102.078295,Thailand,TH,Nong Bua Lamphu,minor,,
703,Khok Pho Chai,16.08375,102.399,Thailand,TH,Khon Kaen,minor,,
704,Noen Sa-nga,15.564278,102.001278,Thailand,TH,Chaiyaphum,minor,,
705,Sena,14.327,100.40433399999999,Thailand,TH,Phra Nakhon Si Ayutthaya,minor,,
706,Senangkhanikhom,16.039722,104.669389,Thailand,TH,Amnat Charoen,minor,,
707,Selaphum,16.029923,103.938262,Thailand,TH,Roi Et,minor,,
708,Chum Phae,16.544296,102.099243,Thailand,TH,Khon Kaen,minor,,
709,Pluak Daeng,12.971219999999999,101.214632,Thailand,TH,Rayong,minor,,
710,Wang Chao,16.674405,99.269032,Thailand,TH,Tak,minor,,
711,Wang Chin,17.893492000000002,99.603154,Thailand,TH,Phrae,minor,,
712,Ban Takhun,8.903639,98.8845,Thailand,TH,Surat Thani,minor,,
713,Na Mon,16.576528,103.787111,Thailand,TH,Kalasin,minor,,
714,Nam Pat,17.728056,100.68433399999999,Thailand,TH,Uttaradit,minor,,
715,Nam Nao,16.767528,101.669167,Thailand,TH,Phetchabun,minor,,
716,Nam Phong,16.702278,102.855695,Thailand,TH,Khon Kaen,minor,,
717,Sam Khok,14.0655,100.522639,Thailand,TH,Pathum Thani,minor,,
718,Sam Ko,14.607354,100.218604,Thailand,TH,Ang Thong,minor,,
719,Chumsaeng,15.891515,100.307946,Thailand,TH,Nakhon Sawan,minor,,
720,Wachira Barami,16.523139,100.144639,Thailand,TH,Phichit,minor,,
721,Nakhon Thai,17.100556,100.837389,Thailand,TH,Phitsanulok,minor,,
722,Sa Bot,15.210057,100.83076,Thailand,TH,Lop Buri,minor,,
723,Wiset Chaichan,14.5945,100.33825,Thailand,TH,Ang Thong,minor,,
724,Phak Hai,14.457360999999999,100.369889,Thailand,TH,Phra Nakhon Si Ayutthaya,minor,,
725,Thon Buri,13.725,100.48511500000001,Thailand,TH,Krung Thep Maha Nakhon,minor,,
726,Khao Saming,12.353528,102.4355,Thailand,TH,Trat,minor,,
727,Si Chiang Mai,17.956389,102.586667,Thailand,TH,Nong Khai,minor,,
728,Si Chomphu,16.798776999999998,102.184663,Thailand,TH,Khon Kaen,minor,,
729,Phato,9.790889,98.776584,Thailand,TH,Chumphon,minor,,
730,Laem Ngop,12.171695,102.394889,Thailand,TH,Trat,minor,,
731,Thung Si Udom,14.733028,104.90897199999999,Thailand,TH,Ubon Ratchathani,minor,,
732,Yan Nawa,13.696342999999999,100.542117,Thailand,TH,Krung Thep Maha Nakhon,minor,,
733,Pai,19.358857999999998,98.43943,Thailand,TH,Mae Hong Son,minor,,
734,Chiang Khong,20.261248000000002,100.404613,Thailand,TH,Chiang Rai,minor,,
735,Chiang Klang,19.293778,100.861695,Thailand,TH,Nan,minor,,
736,Chiang Rai,19.908584,99.8325,Thailand,TH,Chiang Rai,admin,,
737,Salaya,13.801998999999999,100.321108,Thailand,TH,Nakhon Pathom,minor,,
738,Chom Phra,15.118135,103.607426,Thailand,TH,Surin,minor,,
739,Don Chan,16.457110999999998,103.695584,Thailand,TH,Kalasin,minor,,
740,Tha Wang Pha,19.121889000000003,100.81105600000001,Thailand,TH,Nan,minor,,
741,Thawat Buri,16.0385,103.746472,Thailand,TH,Roi Et,minor,,
742,Phon,15.815999999999999,102.599806,Thailand,TH,Khon Kaen,minor,,
743,Sawang Wirawong,15.241584,105.09219499999999,Thailand,TH,Ubon Ratchathani,minor,,
744,Ko Kha,18.19225,99.394334,Thailand,TH,Lampang,minor,,
745,Dan Makham Tia,13.853389000000002,99.41041700000001,Thailand,TH,Kanchanaburi,minor,,
746,Ban Dan Lan Hoi,17.006834,99.574972,Thailand,TH,Sukhothai,minor,,
747,Phayu,14.908513000000001,104.391005,Thailand,TH,Sisaket,minor,,
748,Bang Kruai,13.805,100.472833,Thailand,TH,Nonthaburi,minor,,
749,Bang Krathum,16.578312,100.300336,Thailand,TH,Phitsanulok,minor,,
750,Tron,17.481806,100.112806,Thailand,TH,Uttaradit,minor,,
751,Na Khu,16.763842999999998,104.02626500000001,Thailand,TH,Kalasin,minor,,
752,Bangkok,13.753979000000001,100.50144399999999,Thailand,TH,Krung Thep Maha Nakhon,primary,,
753,Phasi Charoen,13.714654999999999,100.43690699999999,Thailand,TH,Krung Thep Maha Nakhon,minor,,
754,Prasat,14.640389,103.404472,Thailand,TH,Surin,minor,,
755,Prathai,15.533195000000001,102.72283399999999,Thailand,TH,Nakhon Ratchasima,minor,,
756,Sop Prap,17.880527999999998,99.337,Thailand,TH,Lampang,minor,,
757,So Phisai,18.0772,103.4432,Thailand,TH,Bueng Kan,minor,,
758,Ban Phue,17.688767000000002,102.47878299999999,Thailand,TH,Udon Thani,minor,,
759,Ban Mai Chaiyaphot,15.573610999999998,102.83330600000001,Thailand,TH,Buriram,minor,,
760,Chok Chai,14.728444,102.165239,Thailand,TH,Nakhon Ratchasima,minor,,
761,Pak Phayun,7.342188,100.317471,Thailand,TH,Phatthalung,minor,,
762,Pak Phli,14.163084,101.268861,Thailand,TH,Nakhon Nayok,minor,,
763,Song,18.472042000000002,100.183465,Thailand,TH,Phrae,minor,,
764,Thai Mueang,8.399139,98.260611,Thailand,TH,Phangnga,minor,,
765,Mae Mo,18.275610999999998,99.65044499999999,Thailand,TH,Lampang,minor,,
766,Mae La Noi,18.397462,97.912715,Thailand,TH,Mae Hong Son,minor,,
767,Nong Hin,17.123565,101.85789,Thailand,TH,Loei,minor,,
768,Ban Dung,17.698999,103.259567,Thailand,TH,Udon Thani,minor,,
769,Thap Sakae,11.499639,99.62169499999999,Thailand,TH,Prachuap Khiri Khan,minor,,
770,Thap Than,15.460632,99.891657,Thailand,TH,Uthai Thani,minor,,
771,Takhli,15.263360999999998,100.343778,Thailand,TH,Nakhon Sawan,minor,,
772,Nong Ya Plong,13.162882000000002,99.697232,Thailand,TH,Phetchaburi,minor,,
773,Ban Na Muang,17.238245000000003,103.008922,Thailand,TH,Udon Thani,minor,,
774,Watthana Nakhon,13.744620000000001,102.31863100000001,Thailand,TH,Sa Kaeo,minor,,
775,Wat Sing,15.259874,100.040401,Thailand,TH,Chai Nat,minor,,
776,Phra Khanong,13.701851999999999,100.601568,Thailand,TH,Krung Thep Maha Nakhon,minor,,
777,Phrai Bueng,14.748334,104.362611,Thailand,TH,Sisaket,minor,,
778,Bang Phlat,13.794248000000001,100.50447199999999,Thailand,TH,Krung Thep Maha Nakhon,minor,,
779,Bang Pla Ma,14.396035999999999,100.158703,Thailand,TH,Suphan Buri,minor,,
780,Khlong Sam Wa,13.836164000000002,100.735239,Thailand,TH,Krung Thep Maha Nakhon,minor,,
781,Nong Kung Si,16.655926,103.29723299999999,Thailand,TH,Kalasin,minor,,
782,Thung Yang Daeng,6.618222,101.4265,Thailand,TH,Pattani,minor,,
783,Chiang Saen,20.275111,100.086889,Thailand,TH,Chiang Rai,minor,,
784,Khun Tan,19.833528,100.258584,Thailand,TH,Chiang Rai,minor,,
785,Phu Sang,19.599028,100.324445,Thailand,TH,Phayao,minor,,
786,Phu Luang,17.139195,101.663917,Thailand,TH,Loei,minor,,
787,Thong Pha Phum,14.743448999999998,98.63101,Thailand,TH,Kanchanaburi,minor,,
788,Ranot,7.777677000000001,100.321344,Thailand,TH,Songkhla,minor,,
789,Si Mahosot,13.887797,101.405007,Thailand,TH,Prachin Buri,minor,,
790,Chaiya,9.386244999999999,99.198612,Thailand,TH,Surat Thani,minor,,
791,Chaiwan,17.294467,103.233851,Thailand,TH,Udon Thani,minor,,
792,Kathu,7.909028,98.33319499999999,Thailand,TH,Phuket,minor,,
793,Khao Chaison,7.46125,100.13372199999999,Thailand,TH,Phatthalung,minor,,
794,Tha Mai,12.621369,102.004805,Thailand,TH,Chanthaburi,minor,,
795,Phrom Buri,14.790860999999998,100.45325,Thailand,TH,Sing Buri,minor,,
796,Kusuman,17.332592,104.331469,Thailand,TH,Sakon Nakhon,minor,,
797,Sirindhorn,15.200845000000001,105.39221599999999,Thailand,TH,Ubon Ratchathani,minor,,
798,Khaen Dong,15.324755999999999,103.13342800000001,Thailand,TH,Buriram,minor,,
799,Wiang Kao,16.682471,102.28511400000001,Thailand,TH,Khon Kaen,minor,,
800,Tha Bo,17.850028,102.581389,Thailand,TH,Nong Khai,minor,,
801,Pho Chai,16.328269,103.770328,Thailand,TH,Roi Et,minor,,
802,Na Yai Am,12.781528,101.822561,Thailand,TH,Chanthaburi,minor,,
803,Kantharawichai,16.327194,103.298644,Thailand,TH,Maha Sarakham,minor,,
804,Wiang Nong Long,18.420432,98.749669,Thailand,TH,Lamphun,minor,,
805,Bueng Samakkhi,16.187278,99.97525,Thailand,TH,Kamphaeng Phet,minor,,
806,Mae Lao,19.790028,99.699667,Thailand,TH,Chiang Rai,minor,,
807,Bang Khla,13.721442000000001,101.208136,Thailand,TH,Chachoengsao,minor,,
808,Ban Pho,13.598639000000002,101.07955600000001,Thailand,TH,Chachoengsao,minor,,
809,Khamcha-i,16.577639,104.419556,Thailand,TH,Mukdahan,minor,,
810,Sawang Daen Din,17.475306,103.457528,Thailand,TH,Sakon Nakhon,minor,,
811,Sawankhalok,17.315972,99.831861,Thailand,TH,Sukhothai,minor,,
812,Tha Maka,13.920805999999999,99.765528,Thailand,TH,Kanchanaburi,minor,,
813,Det Udom,14.905978,105.078364,Thailand,TH,Ubon Ratchathani,minor,,
814,Den Chai,17.983722,100.052167,Thailand,TH,Phrae,minor,,
815,Si Sawat,14.599222,99.114056,Thailand,TH,Kanchanaburi,minor,,
816,Sila Lat,15.471556,104.071528,Thailand,TH,Sisaket,minor,,
817,Pho Si Suwan,15.229292999999998,104.07670300000001,Thailand,TH,Sisaket,minor,,
818,Nong Kha Yang,15.364,99.929389,Thailand,TH,Uthai Thani,minor,,
819,Wang Pong,16.341472,100.79316700000001,Thailand,TH,Phetchabun,minor,,
820,Palian,7.172368,99.686239,Thailand,TH,Trang,minor,,
821,Huai Thalaeng,14.997007,102.647463,Thailand,TH,Nakhon Ratchasima,minor,,
822,Khun Yuam,18.829578,97.933468,Thailand,TH,Mae Hong Son,minor,,
823,Mae On,18.776806,99.248611,Thailand,TH,Chiang Mai,minor,,
824,Ban Thi,18.631860999999997,99.11661099999999,Thailand,TH,Lamphun,minor,,
825,Pa Phayom,7.840312,99.917733,Thailand,TH,Phatthalung,minor,,
826,Manang,6.999333999999999,99.921611,Thailand,TH,Satun,minor,,
827,Bang Ban,14.373945,100.48527800000001,Thailand,TH,Phra Nakhon Si Ayutthaya,minor,,
828,Bang Bo,13.574278,100.83533299999999,Thailand,TH,Samut Prakan,minor,,
829,Phan Thong,13.46804,101.095322,Thailand,TH,Chon Buri,minor,,
830,Chiang Khwan,16.163276999999997,103.753592,Thailand,TH,Roi Et,minor,,
831,Ban Tak,17.04325,99.081278,Thailand,TH,Tak,minor,,
832,Taling Chan,13.776976999999999,100.45669699999999,Thailand,TH,Krung Thep Maha Nakhon,minor,,
833,Lang Suan,9.945611,99.07847199999999,Thailand,TH,Chumphon,minor,,
834,Ban Laem,13.204683,99.979585,Thailand,TH,Phetchaburi,minor,,
835,Bang Nam Priao,13.847389000000002,101.05305600000001,Thailand,TH,Chachoengsao,minor,,
836,Than To,6.167389,101.180083,Thailand,TH,Yala,minor,,
837,Tha Yang,12.972263,99.88266,Thailand,TH,Phetchaburi,minor,,
838,Tha Wung,14.810998999999999,100.503334,Thailand,TH,Lop Buri,minor,,
839,Phen,17.696139000000002,102.906889,Thailand,TH,Udon Thani,minor,,
840,Lao Suea Kok,15.418301999999999,104.92363200000001,Thailand,TH,Ubon Ratchathani,minor,,
841,Nong Han,17.360834,103.105334,Thailand,TH,Udon Thani,minor,,
842,Erawan,17.301809,101.953819,Thailand,TH,Loei,minor,,
843,Ko Chang,12.104445,102.352389,Thailand,TH,Trat,minor,,
844,Pathum Rat,15.6345,103.34325,Thailand,TH,Roi Et,minor,,
845,Pathio,10.709083999999999,99.31819499999999,Thailand,TH,Chumphon,minor,,
846,Non Din Daeng,14.313529,102.748145,Thailand,TH,Buriram,minor,,
847,Ko Kut,11.658555999999999,102.541972,Thailand,TH,Trat,minor,,
848,Non Sang,16.868696,102.566422,Thailand,TH,Nong Bua Lamphu,minor,,
849,Non Sa-at,16.979139,102.893695,Thailand,TH,Udon Thani,minor,,
850,Non Kho,14.916661999999999,104.725225,Thailand,TH,Sisaket,minor,,
851,Non Sung,15.180139000000002,102.256945,Thailand,TH,Nakhon Ratchasima,minor,,
852,Mae Phrik,17.44688,99.114205,Thailand,TH,Lampang,minor,,
853,Hot,18.193167000000003,98.610389,Thailand,TH,Chiang Mai,minor,,
854,Nam Som,17.770360999999998,102.189472,Thailand,TH,Udon Thani,minor,,
855,Sam Chuk,14.757626,100.089925,Thailand,TH,Suphan Buri,minor,,
856,Thong Saen Khan,17.47065,100.331463,Thailand,TH,Uttaradit,minor,,
857,Bang Khae,13.691963000000001,100.406911,Thailand,TH,Krung Thep Maha Nakhon,minor,,
858,Ban Phai,16.059972,102.730972,Thailand,TH,Khon Kaen,minor,,
859,Wiang Chai,19.883611,99.933139,Thailand,TH,Chiang Rai,minor,,
860,Pho Thale,16.092695000000003,100.260889,Thailand,TH,Phichit,minor,,
861,Photharam,13.692336,99.849692,Thailand,TH,Ratchaburi,minor,,
862,Bang Racham,14.892000000000001,100.317278,Thailand,TH,Sing Buri,minor,,
863,Bang Rakam,16.758472,100.117417,Thailand,TH,Phitsanulok,minor,,
864,Si Banphot,7.721360000000001,99.884299,Thailand,TH,Phatthalung,minor,,
865,Manorom,15.309972,100.08283399999999,Thailand,TH,Chai Nat,minor,,
866,Ao Luek,8.378028,98.72116700000001,Thailand,TH,Krabi,minor,,
867,Damnoen Saduak,13.518245,99.95468699999999,Thailand,TH,Ratchaburi,minor,,
868,Samran,16.863216,103.54105899999999,Thailand,TH,Kalasin,minor,,
869,Na Mom,6.958556,100.556834,Thailand,TH,Songkhla,minor,,
870,Chiang Khan,17.893822,101.659974,Thailand,TH,Loei,minor,,
871,Chiang Kham,19.523305999999998,100.3,Thailand,TH,Phayao,minor,,
872,Chiang Dao,19.365417,98.964528,Thailand,TH,Chiang Mai,minor,,
873,Lat Phrao,13.803488,100.60749399999999,Thailand,TH,Krung Thep Maha Nakhon,minor,,
874,Sam Ngao,17.243306,99.02255600000001,Thailand,TH,Tak,minor,,
875,Khu Mueang,15.271603,103.001667,Thailand,TH,Buriram,minor,,
876,Chom Thong,18.417417,98.674278,Thailand,TH,Chiang Mai,minor,,
877,Phanat Nikhom,13.445813000000001,101.18444699999999,Thailand,TH,Chon Buri,minor,,
878,Tha Tum,15.3195,103.67541700000001,Thailand,TH,Surin,minor,,
879,That Phanom,16.936360999999998,104.710389,Thailand,TH,Nakhon Phanom,minor,,
880,Tha Uthen,17.576045999999998,104.59906099999999,Thailand,TH,Nakhon Phanom,minor,,
881,Pho Sai,15.825860999999998,105.26063899999998,Thailand,TH,Ubon Ratchathani,minor,,
882,Pho Prathap Chang,16.312176,100.27346,Thailand,TH,Phichit,minor,,
883,Phop Phra,16.384611,98.690278,Thailand,TH,Tak,minor,,
884,Si Khoraphum,14.944177999999999,103.797036,Thailand,TH,Surin,minor,,
885,Sikhio,14.89225,101.723139,Thailand,TH,Nakhon Ratchasima,minor,,
886,Ko Lanta,7.6573,99.044143,Thailand,TH,Krabi,minor,,
887,Suan Luang,13.730282,100.65138,Thailand,TH,Krung Thep Maha Nakhon,minor,,
888,Sathon,13.708499,100.52619200000001,Thailand,TH,Krung Thep Maha Nakhon,minor,,
889,Don Tum,13.960895,100.078885,Thailand,TH,Nakhon Pathom,minor,,
890,Ban Hong,18.330861,98.81925,Thailand,TH,Lamphun,minor,,
891,Na Wa,17.489695,104.10055600000001,Thailand,TH,Nakhon Phanom,minor,,
892,Ban Na,14.262376000000001,101.071112,Thailand,TH,Nakhon Nayok,minor,,
893,Doembang Nangbuat,14.833332999999998,100.1,Thailand,TH,Suphan Buri,minor,,
894,Doi Saket,18.870472,99.13672199999999,Thailand,TH,Chiang Mai,minor,,
895,Makham,12.672917,102.19575,Thailand,TH,Chanthaburi,minor,,
896,Watthana,13.729776000000001,100.585357,Thailand,TH,Krung Thep Maha Nakhon,minor,,
897,Bang Lamung,12.976278,100.914056,Thailand,TH,Chon Buri,minor,,
898,Kuchinarai,16.541001,104.05004100000001,Thailand,TH,Kalasin,minor,,
899,Nong Bua,15.864583999999999,100.585806,Thailand,TH,Nakhon Sawan,minor,,
900,Cha-am,12.8,99.966667,Thailand,TH,Phetchaburi,minor,,
901,Nam Kliang,14.927306,104.513028,Thailand,TH,Sisaket,minor,,
902,Phra Phutthabat,14.725264000000001,100.79536,Thailand,TH,Sara Buri,minor,,
903,Tha Sae,10.664611,99.17280600000001,Thailand,TH,Chumphon,minor,,
904,Sangkha,14.636195,103.852778,Thailand,TH,Surin,minor,,
905,Sangkhla Buri,15.155528,98.453611,Thailand,TH,Kanchanaburi,minor,,
906,Sangkhom,18.063889,102.273639,Thailand,TH,Nong Khai,minor,,
907,Sang Khom,17.826491,103.092616,Thailand,TH,Udon Thani,minor,,
908,Khlong Hat,13.451770000000002,102.298233,Thailand,TH,Sa Kaeo,minor,,
909,Din Daeng,13.769943,100.552989,Thailand,TH,Krung Thep Maha Nakhon,minor,,
910,Umphang,16.016222,98.862695,Thailand,TH,Tak,minor,,
911,Huai Mek,16.58975,103.235472,Thailand,TH,Kalasin,minor,,
912,Tamot,7.339222,100.11166700000001,Thailand,TH,Phatthalung,minor,,
913,Khlong Khuean,13.791306,101.163528,Thailand,TH,Chachoengsao,minor,,
914,Tha Sala,8.667334,99.930778,Thailand,TH,Nakhon Si Thammarat,minor,,
915,Tak Bai,6.259472,102.054611,Thailand,TH,Narathiwat,minor,,
916,Nikhom Phattana,12.827355,101.20273,Thailand,TH,Rayong,minor,,
917,Khan Na Yao,13.826092000000001,100.679326,Thailand,TH,Krung Thep Maha Nakhon,minor,,
918,Nong Ruea,16.493334,102.433389,Thailand,TH,Khon Kaen,minor,,
919,Nong Saeng,17.167389,102.78080600000001,Thailand,TH,Udon Thani,minor,,
920,Nong Saeng,14.492084,100.784306,Thailand,TH,Sara Buri,minor,,
921,Chaiyo,14.648778,100.478778,Thailand,TH,Ang Thong,minor,,
922,Chaloem Phra Kiat,19.578806,101.080111,Thailand,TH,Nan,minor,,
923,Pa Bon,7.269417,100.170361,Thailand,TH,Phatthalung,minor,,
924,Khok Samrong,15.066495000000002,100.722326,Thailand,TH,Lop Buri,minor,,
925,Khok Si Suphan,17.045069,104.275601,Thailand,TH,Sakon Nakhon,minor,,
926,Krok Phra,15.555889,100.071528,Thailand,TH,Nakhon Sawan,minor,,
927,Yaring,6.866167,101.368945,Thailand,TH,Pattani,minor,,
928,Ban Dan,15.108386999999999,103.17551,Thailand,TH,Buriram,minor,,
929,Ko Chan,13.416584,101.33458399999999,Thailand,TH,Chon Buri,minor,,
930,Muak Lek,14.652871,101.200222,Thailand,TH,Sara Buri,minor,,
931,Phu Ruea,17.453799,101.36231,Thailand,TH,Loei,minor,,
932,Tha Luang,15.07124,101.098014,Thailand,TH,Lop Buri,minor,,
