,city,lat,lng,country,iso2,admin,capital,population,population_proper
0,Dar es Salaam,-6.8,39.283333,Tanzania,TZ,,primary,2930000.0,2698652.0
1,Moshi,-3.35,37.333333,Tanzania,TZ,Kilimanjaro,admin,721018.0,206728.0
2,Mwanza,-2.516667,32.9,Tanzania,TZ,Mwanza,admin,493944.0,436801.0
3,Zanzibar,-6.1666669999999995,39.183333000000005,Tanzania,TZ,Zanzibar Urban/West,admin,403658.0,373220.0
4,Arusha,-3.3666669999999996,36.683333000000005,Tanzania,TZ,Arusha,admin,341136.0,320074.0
5,Mbeya,-8.9,33.45,Tanzania,TZ,Mbeya,admin,291649.0,232062.0
6,Morogoro,-6.816667,37.666667,Tanzania,TZ,Morogoro,admin,250902.0,234535.0
7,Tanga,-5.066667,39.1,Tanzania,TZ,Tanga,admin,224876.0,209435.0
8,Dodoma,-6.183333,35.75,Tanzania,TZ,,primary,218269.0,180541.0
9,Kigoma,-4.876944,29.626666999999998,Tanzania,TZ,Kigoma,admin,164268.0,164268.0
10,Tabora,-5.016667,32.8,Tanzania,TZ,Tabora,admin,146495.0,145292.0
11,Musoma,-1.5,33.8,Tanzania,TZ,Mara,admin,133156.0,121119.0
12,Tukuyu,-9.25,33.65,Tanzania,TZ,Mbeya,,127570.0,28398.0
13,Songea,-10.683333,35.65,Tanzania,TZ,Ruvuma,admin,126449.0,115397.0
14,Iringa,-7.766667,35.7,Tanzania,TZ,Iringa,admin,111820.0,94760.0
15,Shinyanga,-3.666667,33.433333000000005,Tanzania,TZ,Shinyanga,admin,107362.0,80226.0
16,Bukoba,-1.331667,31.812222,Tanzania,TZ,Kagera,admin,100504.0,70628.0
17,Mtwara,-10.266667,40.183333000000005,Tanzania,TZ,Mtwara,admin,96602.0,86746.0
18,Kilosa,-6.8333330000000005,36.983333,Tanzania,TZ,Morogoro,,91889.0,13227.0
19,Sumbawanga,-7.966667,31.616667,Tanzania,TZ,Rukwa,admin,89161.0,63932.0
20,Bagamoyo,-6.433333,38.9,Tanzania,TZ,Coast,,82426.0,793.0
21,Uvinza,-5.103611,30.391111,Tanzania,TZ,Kigoma,,80350.0,24650.0
22,Mpanda,-6.365464,31.040910999999998,Tanzania,TZ,Katavi,,73338.0,73338.0
23,Singida,-4.816667,34.75,Tanzania,TZ,Singida,admin,62432.0,33067.0
24,Korogwe,-5.15,38.483333,Tanzania,TZ,Tanga,,50000.0,44000.0
25,Chake Chake,-5.25,39.766667,Tanzania,TZ,Pemba South,admin,49959.0,21686.0
26,Ifakara,-8.133333,36.683333000000005,Tanzania,TZ,Morogoro,,49528.0,6331.0
27,Njombe,-9.333333,34.766667,Tanzania,TZ,Njombe,,46724.0,37311.0
28,Lindi,-10.0,39.716667,Tanzania,TZ,Lindi,admin,41912.0,13995.0
29,Kasulu,-4.576667,30.1025,Tanzania,TZ,Kigoma,,37349.0,25088.0
30,Tunduma,-9.3,32.766667,Tanzania,TZ,Mbeya,,36556.0,18530.0
31,Masasi,-10.716667,38.8,Tanzania,TZ,Mtwara,,36032.0,27067.0
32,Kahama,-3.833333,32.6,Tanzania,TZ,Shinyanga,,36014.0,34544.0
33,Babati,-4.216667,35.75,Tanzania,TZ,Manyara,admin,34291.0,3943.0
34,Biharamulo,-2.631944,31.308889,Tanzania,TZ,Kagera,,34038.0,9597.0
35,Kibiti,-7.721785000000001,38.937490999999994,Tanzania,TZ,Coast,,30163.0,943.0
36,Sikonge,-5.633333,32.766667,Tanzania,TZ,Tabora,,27113.0,1986.0
37,Nzega,-4.216667,33.183333000000005,Tanzania,TZ,Tabora,,26584.0,10066.0
38,Wete,-5.066667,39.716667,Tanzania,TZ,Pemba North,admin,26450.0,26450.0
39,Kakonko,-3.282778,30.964167,Tanzania,TZ,Kigoma,,24688.0,7950.0
40,Kibaha,-6.766667,38.916667,Tanzania,TZ,Coast,admin,23651.0,23651.0
41,Mpwapwa,-6.35,36.483333,Tanzania,TZ,Dodoma,,19806.0,381.0
42,Itigi,-5.7,34.483333,Tanzania,TZ,Singida,,19711.0,3357.0
43,Same,-4.066667,37.733333,Tanzania,TZ,Kilimanjaro,,17455.0,2081.0
44,Ngara,-2.512222,30.655833,Tanzania,TZ,Kagera,,16890.0,4598.0
45,Mikumi,-7.404089999999999,36.983093,Tanzania,TZ,Morogoro,,16780.0,8162.0
46,Karema,-6.8205160000000005,30.438865999999997,Tanzania,TZ,Katavi,,16385.0,12630.0
47,Nyahanga,-2.3833330000000004,33.55,Tanzania,TZ,Simiyu,,16092.0,16092.0
48,Mbulu,-3.85,35.533333,Tanzania,TZ,Manyara,,13430.0,7412.0
49,Kilindoni,-7.9139,39.666841999999995,Tanzania,TZ,Coast,,12409.0,3580.0
50,Ngorongoro,-3.25,35.516667,Tanzania,TZ,Arusha,,10836.0,10836.0
51,Mbamba Bay,-11.283333,34.766667,Tanzania,TZ,Ruvuma,,8997.0,8997.0
52,Oldeani,-3.35,35.55,Tanzania,TZ,Arusha,,8000.0,6601.0
53,Mkokotoni,-5.866667,39.25,Tanzania,TZ,Zanzibar North,admin,2572.0,2572.0
54,Geita,-2.8666669999999996,32.166667,Tanzania,TZ,Geita,,1536.0,1536.0
55,Kipili,-7.433333,30.6,Tanzania,TZ,Rukwa,,1533.0,1533.0
56,Tunduru,-11.066667,37.35,Tanzania,TZ,Ruvuma,,600.0,600.0
57,Manyoni,-5.75,34.833333,Tanzania,TZ,Singida,,310.0,310.0
58,Kanyato,-4.456944,30.261389,Tanzania,TZ,Kigoma,,232.0,232.0
59,Koani,-6.133333,39.283333,Tanzania,TZ,Zanzibar Central/South,admin,,
