,city,lat,lng,country,iso2,admin,capital,population,population_proper
0,Kawaala,0.338863,32.554064000000004,Uganda,UG,Kampala,,1420000.0,1353189.0
1,Mbale,1.074804,34.177352,Uganda,UG,Mbale,admin,402368.0,91800.0
2,Jinja,0.42444399999999993,33.204167,Uganda,UG,Jinja,admin,301619.0,89700.0
3,Arua,3.0201290000000003,30.911052,Uganda,UG,Arua,admin,250000.0,59400.0
4,Old Entebbe,0.028056,32.445278,Uganda,UG,Wakiso,,175128.0,79700.0
5,Tororo,0.692991,34.180853000000006,Uganda,UG,Tororo,admin,150000.0,43700.0
6,Gulu,2.774569,32.29899,Uganda,UG,Gulu,admin,146858.0,142003.0
7,Lira,2.235,32.909721999999995,Uganda,UG,Lira,admin,135445.0,119323.0
8,Mbarara,-0.630583,30.658178999999997,Uganda,UG,Mbarara,admin,83700.0,83700.0
9,Bembe,0.616667,32.55,Uganda,UG,Luwero,,75000.0,21000.0
10,Kasese,0.23,29.988333,Uganda,UG,Kasese,admin,67269.0,67269.0
11,Masaka,-0.312724,31.715937,Uganda,UG,Masaka,admin,65373.0,65373.0
12,Kitgum,3.2922839999999995,32.877828,Uganda,UG,Kitgum,admin,56891.0,8680.0
13,Busia,0.45444399999999996,34.075833,Uganda,UG,Busia,admin,47100.0,47100.0
14,Iganga,0.609167,33.468610999999996,Uganda,UG,Iganga,admin,45024.0,45024.0
15,Kabale,-1.326111,30.003889,Uganda,UG,Kabale,admin,44600.0,44600.0
16,Fort Portal,0.661959,30.282684000000003,Uganda,UG,Kabarole,admin,42670.0,42670.0
17,Mityana,0.4175,32.022778,Uganda,UG,Mityana,admin,41131.0,33710.0
18,Adjumani,3.3778620000000004,31.790896999999998,Uganda,UG,Adjumani,admin,34700.0,34700.0
19,Masindi,1.6744439999999998,31.715,Uganda,UG,Masindi,admin,31486.0,31486.0
20,Pallisa,1.145,33.709444,Uganda,UG,Pallisa,admin,30745.0,30745.0
21,Nebbi,2.478259,31.088935,Uganda,UG,Nebbi,admin,30354.0,30354.0
22,Moyo,3.660883,31.724736,Uganda,UG,Moyo,admin,22434.0,22434.0
23,Kayunga,0.7025,32.888611,Uganda,UG,Kayunga,admin,21704.0,21704.0
24,Mubende,0.589167,31.36,Uganda,UG,Mubende,admin,18936.0,176.0
25,Pakwach,2.460932,31.494934000000004,Uganda,UG,Nebbi,,17541.0,17541.0
26,Ntungamo,-0.879444,30.264166999999997,Uganda,UG,Ntungamo,admin,16400.0,16400.0
27,Kiboga,0.916111,31.774167,Uganda,UG,Kiboga,admin,14512.0,14512.0
28,Sironko,1.234913,34.256757,Uganda,UG,Sironko,admin,14100.0,14100.0
29,Kumi,1.460833,33.936111,Uganda,UG,Kumi,admin,13000.0,13000.0
30,Kisoro,-1.283639,29.688249,Uganda,UG,Kisoro,admin,12900.0,12900.0
31,Kamuli,0.9472219999999999,33.119721999999996,Uganda,UG,Kamuli,admin,12764.0,12764.0
32,Mpami,0.216667,32.333333,Uganda,UG,Mpigi,,11082.0,11082.0
33,Katakwi,1.891111,33.966111,Uganda,UG,Katakwi,admin,8400.0,8400.0
34,Masindi Port,1.696058,32.086081,Uganda,UG,Kiryandongo,,8319.0,7828.0
35,Nakasongola,1.308889,32.456389,Uganda,UG,Nakasongola,admin,6921.0,6921.0
36,Kibale,0.790833,31.063333,Uganda,UG,Kibaale,,5200.0,5200.0
37,Kalangala,-0.30888899999999997,32.225,Uganda,UG,Kalangala,admin,5200.0,5200.0
38,Kaberamaido,1.738889,33.159444,Uganda,UG,Kaberamaido,admin,3400.0,3400.0
39,Katwe,-0.14166700000000002,29.830278000000003,Uganda,UG,Kasese,,1957.0,1957.0
40,Kaabong,3.4836110000000002,34.149167,Uganda,UG,Kaabong,admin,1137.0,1137.0
41,Soroti,1.685556,33.616389,Uganda,UG,Soroti,admin,1038.0,1038.0
42,Moroto,2.52922,34.659753,Uganda,UG,Moroto,admin,371.0,371.0
43,Kyenjojo,0.632778,30.621389,Uganda,UG,Kyenjojo,admin,,
44,Bulisa,2.117807,31.411633000000002,Uganda,UG,Buliisa,admin,,
45,Lyantonde,-0.40305599999999997,31.157221999999997,Uganda,UG,Lyantonde,admin,,
46,Dokolo,1.8983330000000003,33.1775,Uganda,UG,Dokolo,admin,,
47,Butaleja,0.9165540000000001,33.956315000000004,Uganda,UG,Butaleja,admin,,
48,Kole,2.4001509999999997,32.800343,Uganda,UG,Kole,admin,,
49,Kyankwanzi,1.200615,31.800625,Uganda,UG,Kyankwanzi,admin,,
50,Wakiso,0.404444,32.459444,Uganda,UG,Wakiso,admin,,
51,Kampala,0.315556,32.565556,Uganda,UG,Kampala,primary,,
52,Bukomansimbi,-0.157778,31.604166999999997,Uganda,UG,Bukomansimbi,admin,,
53,Mpigi,0.225,32.313611,Uganda,UG,Mpigi,admin,,
54,Amolatar,1.615556,32.839721999999995,Uganda,UG,Amolatar,admin,,
55,Zombo,2.51355,30.909094,Uganda,UG,Zombo,admin,,
56,Amuru,2.813879,31.938684000000002,Uganda,UG,Amuru,admin,,
57,Bundibugyo,0.7084739999999999,30.063418,Uganda,UG,Bundibugyo,admin,,
58,Mayuge,0.457812,33.480622,Uganda,UG,Mayuge,admin,,
59,Binyin,1.416667,34.533333,Uganda,UG,Kween,admin,,
60,Isingiro,-0.8686370000000001,30.830189,Uganda,UG,Isingiro,admin,,
61,Apac,1.975556,32.538610999999996,Uganda,UG,Apac,admin,,
62,Buikwe,0.3375,33.010556,Uganda,UG,Buikwe,admin,,
63,Nwoya,2.634225,32.001065000000004,Uganda,UG,Nwoya,admin,,
64,Buyende,1.151667,33.155,Uganda,UG,Buyende,admin,,
65,Serere,1.494167,33.455278,Uganda,UG,Serere,admin,,
66,Ngora,1.431389,33.777221999999995,Uganda,UG,Ngora,admin,,
67,Nakaseke,0.751667,32.385,Uganda,UG,Nakaseke,admin,,
68,Kibale,0.8,31.066667,Uganda,UG,Kibaale,admin,,
69,Kibingo,-0.626019,30.435934999999997,Uganda,UG,Sheema,admin,,
70,Kitamilo,0.22215500000000002,33.206081,Uganda,UG,Buvuma,admin,,
71,Namayingo,0.239833,33.884908,Uganda,UG,Namayingo,admin,,
72,Kaliro,0.8948729999999999,33.504792,Uganda,UG,Kaliro,admin,,
73,Mitoma,-0.684167,30.07,Uganda,UG,Mitooma,admin,,
74,Mukono,0.353333,32.755278000000004,Uganda,UG,Mukono,admin,,
75,Nakapiripirit,1.916667,34.783333,Uganda,UG,Nakapiripirit,admin,,
76,Bududa,1.0111780000000001,34.331123,Uganda,UG,Bududa,admin,,
77,Namutumba,0.836305,33.685763,Uganda,UG,Namutumba,admin,,
78,Gombe,0.20333299999999999,32.088056,Uganda,UG,Butambala,admin,,
79,Kamwenge,0.21111100000000002,30.420833000000002,Uganda,UG,Kamwenge,admin,,
80,Alebtong,2.2447220000000003,33.254721999999994,Uganda,UG,Alebtong,admin,,
81,Bulambuli,1.166667,34.383333,Uganda,UG,Bulambuli,admin,,
82,Kyegegwa,0.5022220000000001,31.041389000000002,Uganda,UG,Kyegegwa,admin,,
83,Koboko,3.4136370000000005,30.959934999999998,Uganda,UG,Koboko,admin,,
84,Lamwo,3.529719,32.801604,Uganda,UG,Lamwo,admin,,
85,Agago,2.833825,33.33361,Uganda,UG,Agago,admin,,
86,Bukwa,1.259167,34.753889,Uganda,UG,Bukwa,admin,,
87,Manafwa,0.9784209999999999,34.374301,Uganda,UG,Manafwa,admin,,
88,Oyam,2.235002,32.38495,Uganda,UG,Oyam,admin,,
89,Otuke,2.500375,33.50065,Uganda,UG,Otuke,admin,,
90,Maracha,3.270421,30.955322,Uganda,UG,Maracha,admin,,
91,Kotido,2.980556,34.133055999999996,Uganda,UG,Kotido,admin,,
92,Amudat,1.95,34.95,Uganda,UG,Amudat,admin,,
93,Rubirizi,-0.29888899999999996,30.133611,Uganda,UG,Rubirizi,admin,,
94,Luwero,0.849167,32.473056,Uganda,UG,Luwero,admin,,
95,Kalungu,-0.166667,31.756944,Uganda,UG,Kalungu,admin,,
96,Sembabule,-0.077222,31.456667,Uganda,UG,Sembabule,admin,,
97,Ibanda,-0.153889,30.531944,Uganda,UG,Ibanda,admin,,
98,Buhweju,-0.350269,30.300290999999998,Uganda,UG,Buhweju,admin,,
99,Rukungiri,-0.841111,29.941944,Uganda,UG,Rukungiri,admin,,
100,Kapchorwa,1.396509,34.450928999999995,Uganda,UG,Kapchorwa,admin,,
101,Kiruhura,-0.235556,30.8725,Uganda,UG,Kiruhura,admin,,
102,Bugiri,0.571389,33.741667,Uganda,UG,Bugiri,admin,,
103,Hoima,1.435556,31.343611,Uganda,UG,Hoima,admin,,
104,Ntoroko,1.0411110000000001,30.481111,Uganda,UG,Ntoroko,admin,,
105,Bukedea,1.3169440000000001,34.050556,Uganda,UG,Bukedea,admin,,
106,Pader,3.05,33.216667,Uganda,UG,Pader,admin,,
107,Yumbe,3.465057,31.246893,Uganda,UG,Yumbe,admin,,
108,Kanungu,-0.9575,29.789721999999998,Uganda,UG,Kanungu,admin,,
109,Amuria,2.0036110000000003,33.651111,Uganda,UG,Amuria,admin,,
110,Lwengo,-0.41611099999999995,31.408056,Uganda,UG,Lwengo,admin,,
111,Kiryandongo,1.876334,32.062246,Uganda,UG,Kiryandongo,admin,,
112,Bushenyi,-0.585278,30.211389,Uganda,UG,Bushenyi,admin,,
113,Abim,2.701667,33.676111,Uganda,UG,Abim,admin,,
114,Kanoni,0.177222,31.881110999999997,Uganda,UG,Gomba,admin,,
115,Napak,2.251391,34.250124,Uganda,UG,Napak,admin,,
116,Kibuku,1.043333,33.7975,Uganda,UG,Kibuku,admin,,
117,Rakai,-0.72,31.483889,Uganda,UG,Rakai,admin,,
118,Luuka Town,0.700756,33.300202,Uganda,UG,Luuka,admin,,
