com_id,reg_id,region,dep_id,arr_id,can_id,name,population,lat,lon,group
92012,11,Île-de-France,92,3,96,Boulogne-Billancourt,122162,48.8365843138,2.23913599058,0
93066,11,Île-de-France,93,3,99,Saint-Denis,114027,48.9295650455,2.3592429975,0
93048,11,Île-de-France,93,1,98,Montreuil,111954,48.8633175054,2.44816211857,0
92050,11,Île-de-France,92,2,99,Nanterre,96402,48.8960701282,2.20671346353,0
94081,11,Île-de-France,94,3,99,Vitry-sur-Seine,96138,48.7882828307,2.39412680533,0
94028,11,Île-de-France,94,1,94,Créteil,92984,48.7837401836,2.45463530415,0
93001,11,Île-de-France,93,3,1,Aubervilliers,89559,48.9121722626,2.38445513768,0
92004,11,Île-de-France,92,2,95,Asnières-sur-Seine,88672,48.9153530123,2.2880384663,0
92025,11,Île-de-France,92,2,97,Colombes,87328,48.9225179147,2.24675160629,0
93005,11,Île-de-France,93,2,2,Aulnay-sous-Bois,86873,48.9458384367,2.49329041687,0
92026,11,Île-de-France,92,2,98,Courbevoie,82701,48.8984504771,2.25570587289,0
92063,11,Île-de-France,92,2,22,Rueil-Malmaison,79713,48.8691897371,2.1773406315,0
94017,11,Île-de-France,94,2,93,Champigny-sur-Marne,77751,48.817254364,2.51709815257,0
94068,11,Île-de-France,94,2,96,Saint-Maur-des-Fossés,75449,48.7990677797,2.49386450452,0
93029,11,Île-de-France,93,2,96,Drancy,71535,48.9234246259,2.44492688692,0
93051,11,Île-de-France,93,2,14,Noisy-le-Grand,69352,48.8361825401,2.56443736814,0
92040,11,Île-de-France,92,3,15,Issy-les-Moulineaux,68641,48.82347434,2.26449823277,0
92044,11,Île-de-France,92,2,16,Levallois-Perret,67809,48.895071672,2.28688268127,0
94041,11,Île-de-France,94,3,11,Ivry-sur-Seine,64248,48.8128063812,2.38778023612,0
92002,11,Île-de-France,92,1,1,Antony,63639,48.7503412602,2.2993268102,0
92024,11,Île-de-France,92,2,9,Clichy,63166,48.9035359139,2.30575230452,0
93055,11,Île-de-France,93,1,15,Pantin,60597,48.8983093876,2.40872147475,0
92051,11,Île-de-France,92,2,21,Neuilly-sur-Seine,60411,48.8853719688,2.26642584746,0
93007,11,Île-de-France,93,2,4,Le Blanc-Mesnil,58116,48.9395475536,2.46112148528,0
94046,11,Île-de-France,94,2,13,Maisons-Alfort,57944,48.8063923267,2.43818248906,0
94076,11,Île-de-France,94,3,20,Villejuif,56585,48.7928547268,2.36006103249,0
93008,11,Île-de-France,93,1,95,Bobigny,55066,48.907688244,2.43863982727,0
93031,11,Île-de-France,93,3,97,Épinay-sur-Seine,54569,48.9550132062,2.31453043231,0
92023,11,Île-de-France,92,1,8,Clamart,53740,48.7964306792,2.25474652922,0
93010,11,Île-de-France,93,1,6,Bondy,53509,48.9023234526,2.4837276939,0
93071,11,Île-de-France,93,2,19,Sevran,51957,48.9386070153,2.53124057567,0
94033,11,Île-de-France,94,2,9,Fontenay-sous-Bois,51807,48.8511046382,2.47395409774,0
93070,11,Île-de-France,93,3,18,Saint-Ouen-sur-Seine,51656,48.909806575,2.33257042205,0
94080,11,Île-de-France,94,2,98,Vincennes,50168,48.8473732045,2.43798650741,0
92036,11,Île-de-France,92,2,14,Gennevilliers,50096,48.9345190548,2.29384987973,0
92073,11,Île-de-France,92,2,20,Suresnes,49992,48.8698479132,2.21965517625,1
92049,11,Île-de-France,92,1,18,Montrouge,48174,48.8153032159,2.31648921432,1
93027,11,Île-de-France,93,3,7,La Courneuve,46951,48.9322569546,2.39978064801,1
92048,11,Île-de-France,92,3,17,Meudon,46517,48.8037275796,2.22696287829,1
94022,11,Île-de-France,94,3,6,Choisy-le-Roi,46466,48.764315118,2.41742518222,1
93046,11,Île-de-France,93,2,11,Livry-Gargan,45818,48.9197633213,2.53486592332,1
93064,11,Île-de-France,93,2,12,Rosny-sous-Bois,45622,48.8745763768,2.4863404591,1
94002,11,Île-de-France,94,1,1,Alfortville,45317,48.7960843864,2.42124593241,1
93053,11,Île-de-France,93,1,5,Noisy-le-Sec,45156,48.891322463,2.45913647372,1
92062,11,Île-de-France,92,2,13,Puteaux,44275,48.8837094969,2.23834178314,1
92007,11,Île-de-France,92,1,3,Bagneux,42122,48.7983229866,2.30989995212,1
93032,11,Île-de-France,93,2,10,Gagny,39817,48.8820763119,2.5449484757,1
93072,11,Île-de-France,93,3,17,Stains,39277,48.9567775699,2.3854495629,1
93006,11,Île-de-France,93,1,3,Bagnolet,38571,48.8690836308,2.42274096688,1
93078,11,Île-de-France,93,2,19,Villepinte,38283,48.9590202538,2.53630634206,2
92020,11,Île-de-France,92,1,7,Châtillon,36688,48.8034091756,2.28799131883,1
93073,11,Île-de-France,93,2,20,Tremblay-en-France,36653,48.9784304121,2.55468501543,1
93050,11,Île-de-France,93,2,10,Neuilly-sur-Marne,36640,48.8624578581,2.54000288785,2
94078,11,Île-de-France,94,3,97,Villeneuve-Saint-Georges,34939,48.7413809637,2.448998846,1
92019,11,Île-de-France,92,1,6,Châtenay-Malabry,34748,48.7681690197,2.26282598525,1
94058,11,Île-de-France,94,2,14,Le Perreux-sur-Marne,33981,48.8423952383,2.50406848573,1
94052,11,Île-de-France,94,2,95,Nogent-sur-Marne,33820,48.8366634713,2.48166741533,1
94038,11,Île-de-France,94,3,10,L'Haÿ-les-Roses,31847,48.7763207843,2.33772915609,1
93063,11,Île-de-France,93,1,3,Romainville,31554,48.8852118968,2.43767884231,2
92046,11,Île-de-France,92,1,18,Malakoff,31412,48.8169695977,2.29693599517,2
93059,11,Île-de-France,93,3,9,Pierrefitte-sur-Seine,31393,48.9609833355,2.36328125445,1
94073,11,Île-de-France,94,3,19,Thiais,30994,48.7607841928,2.38537729524,1
93077,11,Île-de-France,93,2,21,Villemomble,30763,48.8848370021,2.50893406035,1
94016,11,Île-de-France,94,3,2,Cachan,30492,48.7916121646,2.33153313164,1
92064,11,Île-de-France,92,2,23,Saint-Cloud,30115,48.8428741034,2.20864570316,1
92035,11,Île-de-France,92,2,11,La Garenne-Colombes,29890,48.9067577111,2.24464604084,1
94018,11,Île-de-France,94,2,5,Charenton-le-Pont,29842,48.8228084978,2.40760915477,1
94079,11,Île-de-France,94,2,22,Villiers-sur-Marne,29820,48.8259586165,2.54520483293,1
92009,11,Île-de-France,92,2,11,Bois-Colombes,29817,48.9153368426,2.26738552597,2
92060,11,Île-de-France,92,1,6,Le Plessis-Robinson,29719,48.7804383642,2.26064286011,2
93014,11,Île-de-France,93,2,11,Clichy-sous-Bois,29624,48.9076285106,2.5462022266,2
94034,11,Île-de-France,94,3,10,Fresnes,28679,48.7571343016,2.32612839743,2
94044,11,Île-de-France,94,1,21,Limeil-Brévannes,28391,48.7450357782,2.48936184357,1
92075,11,Île-de-France,92,3,8,Vanves,28157,48.8215227089,2.28739490768,1
93047,11,Île-de-France,93,2,20,Montfermeil,28141,48.8982616679,2.56714354796,2
94071,11,Île-de-France,94,1,18,Sucy-en-Brie,27318,48.7656456593,2.5330560803,1
92032,11,Île-de-France,92,1,7,Fontenay-aux-Roses,25389,48.7897301312,2.28723493557,2
92078,11,Île-de-France,92,2,14,Villeneuve-la-Garenne,24670,48.9364061917,2.32448995943,2
94043,11,Île-de-France,94,3,12,Le Kremlin-Bicêtre,24642,48.809220102,2.35657965243,1
94054,11,Île-de-France,94,3,15,Orly,24526,48.7429320073,2.39468296999,1
93057,11,Île-de-France,93,2,6,Les Pavillons-sous-Bois,24003,48.9082060253,2.50297448267,1
92072,11,Île-de-France,92,3,5,Sèvres,23472,48.821476509,2.21052297438,1
93045,11,Île-de-France,93,1,3,Les Lilas,23396,48.8819208939,2.419667821,2
94067,11,Île-de-France,94,2,23,Saint-Mandé,22191,48.842440243,2.4192191088,1
94003,11,Île-de-France,94,3,2,Arcueil,21962,48.8058803597,2.33351024984,2
94077,11,Île-de-France,94,3,15,Villeneuve-le-Roi,21493,48.7320914576,2.41037420069,2
92014,11,Île-de-France,92,1,3,Bourg-la-Reine,21291,48.7799073627,2.31643010763,2
93049,11,Île-de-France,93,2,21,Neuilly-Plaisance,21059,48.8643287852,2.51040249898,2
92022,11,Île-de-France,92,3,17,Chaville,20830,48.8076083562,2.19234061062,2
92071,11,Île-de-France,92,1,6,Sceaux,20721,48.776816369,2.29529414514,2
94021,11,Île-de-France,94,3,19,Chevilly-Larue,20447,48.766848001,2.35306611234,2
94059,11,Île-de-France,94,1,22,Le Plessis-Trévise,19733,48.8060154583,2.57619846918,1
94042,11,Île-de-France,94,2,5,Joinville-le-Pont,19278,48.8193683216,2.47044977809,2
94037,11,Île-de-France,94,3,12,Gentilly,18950,48.8132044389,2.34420659702,2
94011,11,Île-de-France,94,1,18,Bonneuil-sur-Marne,18488,48.7733620104,2.48799310463,2
94019,11,Île-de-France,94,1,4,Chennevières-sur-Marne,18115,48.7976502878,2.54157630073,1
92033,11,Île-de-France,92,2,23,Garches,17960,48.8450113548,2.18665007789,2
94015,11,Île-de-France,94,2,22,Bry-sur-Marne,17796,48.8384095661,2.52319657626,2
94004,11,Île-de-France,94,1,16,Boissy-Saint-Léger,17345,48.7470359922,2.52528049019,1
93061,11,Île-de-France,93,1,15,Le Pré-Saint-Gervais,17342,48.8846734877,2.40542232961,2
93013,11,Île-de-France,93,2,7,Le Bourget,15695,48.9361847458,2.42827855593,1
93062,11,Île-de-France,93,2,21,Le Raincy,14949,48.8967447585,2.51973664021,2
94069,11,Île-de-France,94,2,5,Saint-Maurice,14673,48.8184921372,2.4374501342,2
94074,11,Île-de-France,94,3,21,Valenton,14579,48.752872402,2.46129479573,1
93079,11,Île-de-France,93,3,9,Villetaneuse,13513,48.9572976501,2.34506633651,2
94060,11,Île-de-France,94,1,16,La Queue-en-Brie,12273,48.7775866104,2.58385577608,2
94075,11,Île-de-France,94,1,16,Villecresnes,11919,48.7208692486,2.53157741439,2
93030,11,Île-de-France,93,2,7,Dugny,11232,48.9503408732,2.4238637503,2
92077,11,Île-de-France,92,3,23,Ville-d'Avray,11170,48.8215895592,2.17761311514,1
94055,11,Île-de-France,94,1,18,Ormesson-sur-Marne,10611,48.7854562744,2.53924214317,2
92076,11,Île-de-France,92,2,23,Vaucresson,8941,48.8410515899,2.16026455161,2
93039,11,Île-de-France,93,3,18,L'Île-Saint-Denis,8665,48.9395693769,2.32545252764,2
93074,11,Île-de-France,93,2,20,Vaujours,7283,48.9324772605,2.5810025704,2
93033,11,Île-de-France,93,2,14,Gournay-sur-Marne,6876,48.8605817902,2.57543313796,2
94001,11,Île-de-France,94,3,15,Ablon-sur-Seine,5938,48.7238409464,2.42117629348,2
94065,11,Île-de-France,94,3,19,Rungis,5673,48.7494821504,2.35281832827,2
93015,11,Île-de-France,93,2,20,Coubron,5017,48.9176519555,2.57631231652,2
94048,11,Île-de-France,94,1,16,Marolles-en-Brie,4844,48.7394780616,2.55491338455,2
94047,11,Île-de-France,94,1,16,Mandres-les-Roses,4836,48.7058880174,2.54830741614,2
94053,11,Île-de-France,94,1,16,Noiseau,4644,48.774315467,2.55542375351,2
94070,11,Île-de-France,94,1,16,Santeny,4055,48.7356177142,2.57637480242,2
94056,11,Île-de-France,94,1,16,Périgny,2740,48.6968359635,2.56167940426,2
92047,11,Île-de-France,92,3,23,Marnes-la-Coquette,1815,48.830271264,2.16647261735,2
