com_id,reg_id,region,dep_id,arr_id,can_id,name,population,lat,lon,group
35238,53,Bretagne,35,3,98,Rennes,226654,48.1119791219,-1.68186449144,0
29019,53,Bretagne,29,1,98,Brest,142110,48.4004997828,-4.5027907853,0
29232,53,Bretagne,29,4,99,Quimper,65875,47.9971425162,-4.09111944455,0
56121,53,Bretagne,56,1,98,Lorient,58881,47.7500486947,-3.37823200917,0
56260,53,Bretagne,56,3,99,Vannes,56018,47.6597493766,-2.75714329498,0
35288,53,Bretagne,35,4,99,Saint-Malo,48328,48.6400443482,-1.98060627256,0
22278,53,Bretagne,22,4,99,Saint-Brieuc,45602,48.5149806053,-2.76154552773,0
56098,53,Bretagne,56,1,7,Lanester,23421,47.7691924277,-3.32648317962,0
22113,53,Bretagne,22,3,7,Lannion,21356,48.7433496707,-3.46159799691,0
35115,53,Bretagne,35,1,97,Fougères,21121,48.3524697115,-1.19431177241,0
29039,53,Bretagne,29,4,8,Concarneau,21099,47.8966260003,-3.90716871821,0
35047,53,Bretagne,35,3,4,Bruz,19561,48.0261755313,-1.74817480915,0
56162,53,Bretagne,56,1,12,Ploemeur,19185,47.7325584986,-3.44178815745,0
35360,53,Bretagne,35,1,27,Vitré,19171,48.1140815063,-1.19370720718,0
35051,53,Bretagne,35,3,3,Cesson-Sévigné,17799,48.1202268032,-1.59714447272,0
22093,53,Bretagne,22,4,89,Lamballe-Armor,17169,48.4684404751,-2.49534815954,0
29103,53,Bretagne,29,1,13,Landerneau,16627,48.4507528968,-4.2643453824,0
56083,53,Bretagne,56,1,6,Hennebont,16300,47.807556604,-3.26971559866,0
56178,53,Bretagne,56,2,15,Pontivy,16030,48.0729953877,-2.97046592885,0
29075,53,Bretagne,29,1,12,Guipavas,15573,48.4307008294,-4.39621450084,0
22050,53,Bretagne,22,1,4,Dinan,15256,48.4557709953,-2.04816149693,0
29151,53,Bretagne,29,3,17,Morlaix,15172,48.5996746612,-3.82052019963,0
22187,53,Bretagne,22,4,18,Plérin,14916,48.5441732134,-2.77004635921,0
56007,53,Bretagne,56,1,1,Auray,14571,47.6677057368,-2.99041112225,0
29046,53,Bretagne,29,4,10,Douarnenez,14379,48.0806526556,-4.32784220122,0
35281,53,Bretagne,35,3,22,Saint-Jacques-de-la-Lande,14104,48.0755625884,-1.72405381322,0
29212,53,Bretagne,29,1,3,Plouzané,13808,48.3774359933,-4.59923891903,0
29189,53,Bretagne,29,1,12,Plougastel-Daoulas,13637,48.3601932144,-4.38292105021,0
35024,53,Bretagne,35,3,3,Betton,12935,48.1812360423,-1.64589552684,0
29233,53,Bretagne,29,4,25,Quimperlé,12553,47.8561303355,-3.55642894655,0
35210,53,Bretagne,35,3,23,Pacé,12358,48.152548244,-1.77716643787,1
56206,53,Bretagne,56,3,21,Saint-Avé,12195,47.6991321739,-2.7415830935,1
56078,53,Bretagne,56,1,5,Guidel,12037,47.7940076851,-3.49161886127,1
29235,53,Bretagne,29,1,12,Le Relecq-Kerhuon,11930,48.403174987,-4.40146737314,2
22215,53,Bretagne,22,4,21,Ploufragan,11837,48.4877482968,-2.80851630928,1
35069,53,Bretagne,35,3,5,Châteaugiron,10808,48.0441575779,-1.50016256863,1
35093,53,Bretagne,35,4,26,Dinard,10755,48.6241805945,-2.0619828606,1
29058,53,Bretagne,29,4,11,Fouesnant,10557,47.8783078862,-4.01834628474,1
35055,53,Bretagne,35,3,20,Chantepie,10411,48.0817134724,-1.6038253094,1
56165,53,Bretagne,56,2,13,Ploërmel,10348,47.9221801451,-2.38313563666,1
35278,53,Bretagne,35,3,3,Saint-Grégoire,10252,48.1588840471,-1.68571943452,2
35236,53,Bretagne,35,2,17,Redon,10060,47.6609734327,-2.08008568692,0
22136,53,Bretagne,22,4,9,Loudéac,10031,48.1740293909,-2.75097544378,1
29105,53,Bretagne,29,3,14,Landivisiau,9522,48.5160095172,-4.06130712731,1
35240,53,Bretagne,35,3,24,Le Rheu,9482,48.097397419,-1.78149989185,1
56243,53,Bretagne,56,3,18,Séné,9189,47.6228786892,-2.72442609453,1
56185,53,Bretagne,56,1,12,Quéven,9051,47.7841865998,-3.41957717053,2
56240,53,Bretagne,56,3,18,Sarzeau,9045,47.5235379478,-2.75087136906,2
35126,53,Bretagne,35,2,11,Guichen,8968,47.9653877316,-1.79026270939,1
35334,53,Bretagne,35,3,13,Thorigné-Fouillard,8796,48.1566082899,-1.58409867633,1
29220,53,Bretagne,29,4,22,Pont-l'Abbé,8786,47.8654885488,-4.21962319652,1
29160,53,Bretagne,29,1,18,Plabennec,8721,48.4938327293,-4.41894214636,1
29051,53,Bretagne,29,4,11,Ergué-Gabéric,8690,48.0120306692,-4.0074505723,2
35136,53,Bretagne,35,1,12,Janzé,8687,47.9428950804,-1.50038718382,1
22360,53,Bretagne,22,4,26,Trégueux,8639,48.480075769,-2.74506421541,1
56251,53,Bretagne,56,3,18,Theix-Noyalo,8625,47.6356885267,-2.64682620132,2
56107,53,Bretagne,56,1,12,Larmor-Plage,8522,47.7159229255,-3.39111373247,2
29260,53,Bretagne,29,1,27,Saint-Renan,8470,48.4258372849,-4.62348821209,1
35352,53,Bretagne,35,3,12,Vern-sur-Seiche,8442,48.0525245014,-1.60521106164,1
35066,53,Bretagne,35,3,4,Chartres-de-Bretagne,8327,48.0451561683,-1.70650297343,2
29069,53,Bretagne,29,1,4,Guilers,8265,48.4189328656,-4.56200695639,1
35152,53,Bretagne,35,3,13,Liffré,8265,48.204097581,-1.51420907793,2
56184,53,Bretagne,56,3,16,Questembert,8219,47.6638017747,-2.43671076032,1
56101,53,Bretagne,56,1,6,Languidic,8204,47.8365621011,-3.14756396353,2
22106,53,Bretagne,22,4,26,Langueux,8074,48.5000522834,-2.70972282168,2
56177,53,Bretagne,56,1,14,Pluvigner,7798,47.7824013121,-3.01608916771,1
29024,53,Bretagne,29,2,7,Carhaix-Plouguer,7773,48.2687578823,-3.56626363851,0
29241,53,Bretagne,29,4,8,Rosporden,7755,47.9583041483,-3.80153477736,2
22070,53,Bretagne,22,2,5,Guingamp,7682,48.5612759498,-3.15330223539,0
35068,53,Bretagne,35,1,5,Châteaubourg,7673,48.120001247,-1.40402096437,1
35196,53,Bretagne,35,3,24,Mordelles,7612,48.0857602983,-1.84210731238,2
35012,53,Bretagne,35,2,2,Bain-de-Bretagne,7583,47.8302948158,-1.67649507218,1
29042,53,Bretagne,29,2,9,Crozon,7575,48.2449715382,-4.49170347769,1
22251,53,Bretagne,22,4,18,Pordic,7523,48.5702275208,-2.82517190036,2
29124,53,Bretagne,29,1,15,Lesneven,7506,48.5801251196,-4.31293757639,1
22162,53,Bretagne,22,2,11,Paimpol,7471,48.7733386239,-3.05459397042,1
35206,53,Bretagne,35,3,4,Noyal-Châtillon-sur-Seiche,7453,48.0524815273,-1.6633106381,2
22168,53,Bretagne,22,3,12,Perros-Guirec,7342,48.8094393417,-3.46769227891,1
35176,53,Bretagne,35,2,17,Guipry-Messac,7323,47.8050001887,-1.79981410683,2
56036,53,Bretagne,56,1,7,Caudan,7298,47.8132096296,-3.34070239075,2
29293,53,Bretagne,29,4,16,Trégunc,7282,47.8380684896,-3.8408529946,1
35173,53,Bretagne,35,3,14,Melesse,7218,48.2193069814,-1.68950220558,1
35228,53,Bretagne,35,4,26,Pleurtuit,7085,48.5827256783,-2.05991444738,2
56023,53,Bretagne,56,1,14,Brech,7078,47.709389623,-3.02425370135,2
22055,53,Bretagne,22,4,22,Binic-Étables-sur-Mer,7075,48.6255350477,-2.8413899481,1
56094,53,Bretagne,56,1,6,Kervignac,7074,47.7686555667,-3.2479141613,2
22176,53,Bretagne,22,4,21,Plédran,7030,48.4430297904,-2.745361546,2
35001,53,Bretagne,35,3,13,Acigné,7029,48.1464008617,-1.51879762112,2
29259,53,Bretagne,29,3,26,Saint-Pol-de-Léon,6985,48.6727716649,-3.98863587243,1
35188,53,Bretagne,35,3,16,Montfort-sur-Meu,6917,48.1261000349,-1.9630334162,1
29150,53,Bretagne,29,4,16,Moëlan-sur-Mer,6906,47.8061076978,-3.64546918043,2
56164,53,Bretagne,56,3,20,Ploeren,6893,47.6618147163,-2.84313700258,1
29195,53,Bretagne,29,1,15,Plouguerneau,6760,48.6030672193,-4.48961925754,2
56090,53,Bretagne,56,1,5,Inzinzac-Lochrist,6669,47.8558359743,-3.25178122558,2
35037,53,Bretagne,35,3,24,Bréal-sous-Montfort,6589,48.044637167,-1.86571618785,2
22046,53,Bretagne,22,4,16,Le Mené,6527,48.2937312654,-2.52246803693,1
56053,53,Bretagne,56,3,16,Elven,6514,47.7326809062,-2.59279070215,2
35184,53,Bretagne,35,3,15,Montauban-de-Bretagne,6487,48.2028996948,-2.06476180878,1
29174,53,Bretagne,29,4,19,Plonéour-Lanvern,6485,47.9084114652,-4.26536047982,1
29178,53,Bretagne,29,1,18,Ploudalmézeau,6465,48.5380194426,-4.66954529014,2
56010,53,Bretagne,56,2,15,Baud,6427,47.8753982698,-3.03131524701,2
29061,53,Bretagne,29,1,4,Gouesnou,6393,48.446717951,-4.46327934378,2
56075,53,Bretagne,56,3,4,Guer,6378,47.9073328689,-2.12921667557,1
56158,53,Bretagne,56,3,20,Plescop,6367,47.6973490259,-2.83080852214,2
35207,53,Bretagne,35,3,5,Noyal-sur-Vilaine,6281,48.0914044616,-1.50548866524,2
35085,53,Bretagne,35,4,6,Combourg,6206,48.4083560805,-1.74519435019,1
56176,53,Bretagne,56,1,1,Pluneret,6166,47.6782099916,-2.9456811423,2
35095,53,Bretagne,35,4,7,Dol-de-Bretagne,6110,48.5364110141,-1.74135530934,1
56166,53,Bretagne,56,1,5,Plouay,5930,47.9270557389,-3.33743884173,2
29020,53,Bretagne,29,4,6,Briec,5850,48.0935971343,-4.02078477146,1
29004,53,Bretagne,29,4,16,Bannalec,5811,47.9350863729,-3.69536960662,2
29117,53,Bretagne,29,1,18,Lannilis,5808,48.569680781,-4.52393031535,2
35120,53,Bretagne,35,3,14,Gévezé,5796,48.2133254705,-1.79930703575,2
56067,53,Bretagne,56,3,3,Grand-Champ,5754,47.760673333,-2.84786424904,1
56003,53,Bretagne,56,3,20,Arradon,5699,47.6335958588,-2.8220328139,2
29026,53,Bretagne,29,2,9,Châteaulin,5578,48.2032973995,-4.07350636234,2
22225,53,Bretagne,22,2,5,Ploumagoar,5514,48.5304587178,-3.109565675,2
56169,53,Bretagne,56,1,14,Plouhinec,5487,47.6929109171,-3.23358959435,2
35208,53,Bretagne,35,3,12,Orgères,5471,47.9853322097,-1.66640026267,2
35049,53,Bretagne,35,4,25,Cancale,5405,48.6835209896,-1.8650827351,1
35275,53,Bretagne,35,3,14,Saint-Gilles,5400,48.1520929859,-1.85374690386,2
29199,53,Bretagne,29,3,20,Plouigneau,5249,48.5736126699,-3.7040741716,1
29130,53,Bretagne,29,1,27,Locmaria-Plouzané,5242,48.3707952955,-4.65000050558,2
29158,53,Bretagne,29,4,22,Penmarch,5241,47.8121478804,-4.34003367039,2
56143,53,Bretagne,56,3,11,Muzillac,5181,47.5547990071,-2.47313130571,1
35257,53,Bretagne,35,1,1,Maen Roch,5126,48.4132416625,-1.3677414096,1
22389,53,Bretagne,22,4,26,Yffiniac,5080,48.4685015878,-2.68098120309,2
22004,53,Bretagne,22,2,1,Bégard,4901,48.6345594689,-3.29153247621,1
56147,53,Bretagne,56,3,11,Nivillac,4844,47.5405533272,-2.24923467173,2
29254,53,Bretagne,29,3,17,Saint-Martin-des-Champs,4826,48.5757887631,-3.85616057853,2
56117,53,Bretagne,56,2,3,Locminé,4815,47.8796108678,-2.83755408244,1
29207,53,Bretagne,29,3,20,Plourin-lès-Morlaix,4801,48.5219190432,-3.80057587276,2
56186,53,Bretagne,56,1,17,Quiberon,4756,47.4881657518,-3.12282400639,1
29031,53,Bretagne,29,4,25,Clohars-Carnoët,4742,47.7943407144,-3.56681364982,2
35297,53,Bretagne,35,3,15,Saint-Méen-le-Grand,4732,48.1925581351,-2.19497591455,2
29076,53,Bretagne,29,1,27,Milizac-Guipronvel,4671,48.4913026079,-4.56960723712,2
35133,53,Bretagne,35,3,16,Iffendic,4667,48.1137342706,-2.02411746064,2
35006,53,Bretagne,35,1,10,Argentré-du-Plessis,4662,48.0483656903,-1.13833015473,1
22222,53,Bretagne,22,2,22,Plouha,4646,48.6822316529,-2.93147403458,1
35032,53,Bretagne,35,3,12,Bourgbarré,4644,47.988587599,-1.62222742311,2
35239,53,Bretagne,35,1,10,Retiers,4599,47.9060282888,-1.34373706233,2
22171,53,Bretagne,22,4,13,Plaintel,4592,48.4105972441,-2.81039949193,1
35299,53,Bretagne,35,4,25,Saint-Méloir-des-Ondes,4555,48.6387125438,-1.90517612803,2
35023,53,Bretagne,35,3,16,Bédée,4533,48.1867854557,-1.94992897957,2
35308,53,Bretagne,35,4,6,Mesnil-Roc'h,4463,48.4550260435,-1.88873891943,2
56173,53,Bretagne,56,2,15,Pluméliau-Bieuzy,4430,47.9650479618,-2.98095397344,2
35123,53,Bretagne,35,2,11,Goven,4410,48.0094372843,-1.83854162867,2
35125,53,Bretagne,35,1,10,La Guerche-de-Bretagne,4392,47.9442619164,-1.24421600669,2
29037,53,Bretagne,29,4,19,Combrit,4364,47.8868597702,-4.16414997559,2
29170,53,Bretagne,29,4,23,Plomelin,4357,47.9356261766,-4.15034793937,1
35179,53,Bretagne,35,4,7,Miniac-Morvan,4340,48.5246933441,-1.89543357334,2
56034,53,Bretagne,56,1,17,Carnac,4337,47.608433163,-3.06973611145,2
22118,53,Bretagne,22,1,8,Lanvallay,4310,48.451759809,-2.01053362747,1
29216,53,Bretagne,29,4,23,Pluguffan,4300,47.972064955,-4.18686466839,2
56175,53,Bretagne,56,1,1,Plumergat,4286,47.7279059531,-2.92323704418,2
35253,53,Bretagne,35,3,8,Saint-Aubin-du-Cormier,4240,48.2585499654,-1.42136462406,1
35004,53,Bretagne,35,1,1,Val-Couesnon,4206,48.4623399244,-1.47875897631,2
22186,53,Bretagne,22,4,17,Pléneuf-Val-André,4197,48.5840054611,-2.53016887694,1
22203,53,Bretagne,22,4,13,Plœuc-L'Hermitage,4178,48.3440952237,-2.76649702896,2
35251,53,Bretagne,35,3,1,Saint-Aubin-d'Aubigné,4166,48.2620229996,-1.60028441082,1
35245,53,Bretagne,35,3,15,Romillé,4157,48.2223488257,-1.87904298142,2
35127,53,Bretagne,35,2,11,Guignen,4120,47.9235807621,-1.8619758657,2
22258,53,Bretagne,22,4,13,Quessoy,4092,48.4272969207,-2.65707016677,2
29135,53,Bretagne,29,4,22,Loctudy,4086,47.8239824718,-4.1873881827,2
56061,53,Bretagne,56,3,4,La Gacilly,4079,47.7728317091,-2.15651114837,2
22259,53,Bretagne,22,1,4,Quévert,4057,48.463126899,-2.08562877928,2
56054,53,Bretagne,56,1,17,Erdeven,4053,47.6370207886,-3.15628129656,2
22209,53,Bretagne,22,1,19,Beaussais-sur-Mer,4019,48.5596688192,-2.12838362694,1
29197,53,Bretagne,29,4,10,Plouhinec,4019,48.0137327427,-4.48457090531,2
56231,53,Bretagne,56,3,21,Saint-Nolff,4019,47.6984675237,-2.66583210925,2
29140,53,Bretagne,29,1,21,Loperhet,4018,48.3840209584,-4.31381265183,1
22206,53,Bretagne,22,2,15,Châtelaudren-Plouagat,4010,48.5303656854,-2.98952865818,1
56001,53,Bretagne,56,3,4,Allaire,4008,47.6392193445,-2.17681507496,2
22054,53,Bretagne,22,4,17,Erquy,4007,48.6194186311,-2.45858442922,2
22198,53,Bretagne,22,3,12,Pleumeur-Bodou,4000,48.7852851364,-3.51721058191,2
35337,53,Bretagne,35,4,6,Tinténiac,3967,48.3231993668,-1.83043308458,2
22190,53,Bretagne,22,1,19,Pleslin-Trigavou,3947,48.5279257425,-2.07094753611,2
56066,53,Bretagne,56,2,2,Gourin,3935,48.1365207443,-3.60390071405,1
29171,53,Bretagne,29,4,19,Plomeur,3931,47.8382971548,-4.29445064417,2
35219,53,Bretagne,35,2,17,Pipriac,3923,47.8116756729,-1.93781141913,2
35327,53,Bretagne,35,3,5,Servon-sur-Vilaine,3909,48.120843256,-1.45777238842,2
56247,53,Bretagne,56,3,16,Sulniac,3889,47.6598704315,-2.56262143424,2
29179,53,Bretagne,29,1,15,Ploudaniel,3868,48.5230558972,-4.31368733592,2
22211,53,Bretagne,22,3,20,Ploubezre,3854,48.685519576,-3.44839512307,1
29162,53,Bretagne,29,2,6,Pleyben,3846,48.2381882091,-3.97526740601,1
22343,53,Bretagne,22,3,12,Trébeurden,3823,48.7707775944,-3.55769238632,2
22183,53,Bretagne,22,4,9,Plémet,3818,48.1860837585,-2.5859903316,2
56140,53,Bretagne,56,2,10,Moréac,3798,47.9328057263,-2.80381737947,1
29006,53,Bretagne,29,4,11,Bénodet,3775,47.8780985371,-4.07751294821,2
29003,53,Bretagne,29,4,10,Audierne,3756,48.0241077574,-4.54448750165,2
29302,53,Bretagne,29,2,21,Pont-de-Buis-lès-Quimerch,3755,48.2755785211,-4.10701817475,1
29030,53,Bretagne,29,3,26,Cléder,3746,48.6605439147,-4.12447333857,2
29027,53,Bretagne,29,2,6,Châteauneuf-du-Faou,3741,48.1889732859,-3.82126129764,2
22194,53,Bretagne,22,3,20,Plestin-les-Grèves,3734,48.6476598998,-3.6197891944,2
29011,53,Bretagne,29,1,4,Bohars,3650,48.4318157776,-4.52163441138,2
22213,53,Bretagne,22,1,19,Plouër-sur-Rance,3621,48.5248482927,-2.00660319758,2
29185,53,Bretagne,29,3,26,Plouescat,3612,48.6657604594,-4.17989213924,2
29191,53,Bretagne,29,3,20,Plougonven,3525,48.5052769563,-3.72721201852,2
56144,53,Bretagne,56,2,3,Évellys,3525,47.9969702073,-2.84450199902,2
29146,53,Bretagne,29,4,8,Melgven,3472,47.9129471121,-3.84206992486,2
56058,53,Bretagne,56,3,11,Férel,3433,47.4873744391,-2.34002198542,2
22266,53,Bretagne,22,2,23,Rostrenen,3428,48.2215427736,-3.31179704668,1
35162,53,Bretagne,35,1,9,Louvigné-du-Désert,3397,48.4868885908,-1.12369660788,1
56137,53,Bretagne,56,3,21,Monterblanc,3389,47.7315728601,-2.69647257441,2
22282,53,Bretagne,22,1,17,Saint-Cast-le-Guildo,3388,48.6037155601,-2.24912296088,1
29147,53,Bretagne,29,4,25,Mellac,3384,47.8984536688,-3.58813673533,2
22325,53,Bretagne,22,4,22,Saint-Quay-Portrieux,3382,48.6542475006,-2.84382337656,2
35150,53,Bretagne,35,1,8,Lécousse,3378,48.3600018318,-1.22059471096,1
22182,53,Bretagne,22,2,15,Plélo,3316,48.5539490397,-2.92735554544,2
29023,53,Bretagne,29,3,17,Carantec,3309,48.6553588661,-3.91293697247,2
22264,53,Bretagne,22,3,27,La Roche-Jaudy,3282,48.7456370261,-3.25762802773,1
29169,53,Bretagne,29,4,23,Plogonnec,3272,48.0728440242,-4.1591436628,2
56127,53,Bretagne,56,2,13,Mauron,3247,48.0820059121,-2.30432452661,2
56244,53,Bretagne,56,3,10,Sérent,3223,47.8245310823,-2.49728404193,1
22147,53,Bretagne,22,4,2,Merdrignac,3186,48.1936252026,-2.39598361343,1
22214,53,Bretagne,22,2,11,Plouézec,3183,48.7387813748,-2.9791439557,2
22210,53,Bretagne,22,2,11,Ploubazlanec,3164,48.80535932,-3.04524739912,2
22197,53,Bretagne,22,1,8,Pleudihen-sur-Rance,3092,48.5092937336,-1.94145904907,2
29181,53,Bretagne,29,1,13,Plouédern,3080,48.4827412998,-4.25245153196,2
22172,53,Bretagne,22,1,14,Plancoët,3071,48.5148616647,-2.21936660339,1
22262,53,Bretagne,22,4,15,Quintin,3029,48.4030218249,-2.91221040842,1
56222,53,Bretagne,56,2,10,Saint-Jean-Brévelay,3001,47.831231207,-2.72758657957,2
22364,53,Bretagne,22,1,4,Trélivan,2979,48.4303990334,-2.10633550903,2
22020,53,Bretagne,22,1,2,Broons,2977,48.3108134882,-2.24133807266,1
35282,53,Bretagne,35,1,8,Rives-du-Couesnon,2959,48.2768095716,-1.36810224872,2
35263,53,Bretagne,35,4,25,Saint-Coulomb,2952,48.677369423,-1.92087004371,2
29210,53,Bretagne,29,3,14,Plouvorn,2951,48.5765978002,-4.02210161181,2
56041,53,Bretagne,56,2,2,Cléguérec,2923,48.1278326906,-3.0634223364,2
35090,53,Bretagne,35,2,2,Crevin,2891,47.9303708982,-1.65657334896,2
35224,53,Bretagne,35,4,7,Plerguer,2880,48.5284745342,-1.84558109365,2
22161,53,Bretagne,22,2,5,Pabu,2861,48.58310885,-3.14288475584,2
56197,53,Bretagne,56,2,10,Val d'Oust,2860,47.8685533688,-2.45624648415,2
56057,53,Bretagne,56,2,2,Le Faouët,2856,48.048735927,-3.50863192945,2
35221,53,Bretagne,35,2,2,Pléchâtel,2833,47.8751941838,-1.73375846531,2
35284,53,Bretagne,35,4,26,Saint-Jouan-des-Guérets,2831,48.6037491663,-1.96530816919,2
56174,53,Bretagne,56,2,3,Plumelin,2823,47.8825173769,-2.88768093525,2
22362,53,Bretagne,22,3,27,Tréguier,2678,48.7850465816,-3.23178776538,2
35326,53,Bretagne,35,3,1,Sens-de-Bretagne,2643,48.3367315734,-1.55392717615,2
22032,53,Bretagne,22,1,2,Caulnes,2637,48.302140665,-2.16070598296,2
35347,53,Bretagne,35,1,27,Val-d'Izé,2633,48.1899182799,-1.30478438424,2
56091,53,Bretagne,56,2,13,Josselin,2613,47.9544411983,-2.54877600621,2
22084,53,Bretagne,22,4,16,Jugon-les-Lacs - Commune nouvelle,2583,48.4166591067,-2.32522349689,2
29068,53,Bretagne,29,3,14,Guiclan,2577,48.5431945117,-3.97996345952,2
56124,53,Bretagne,56,3,10,Malestroit,2564,47.8076863788,-2.38701072581,2
22166,53,Bretagne,22,3,27,Penvénan,2537,48.816014407,-3.30224745841,2
22158,53,Bretagne,22,4,10,Guerlédan,2530,48.1957524474,-2.9837108711,1
29022,53,Bretagne,29,2,9,Camaret-sur-Mer,2516,48.2683595403,-4.58763072295,2
22226,53,Bretagne,22,3,20,Ploumilliau,2508,48.6842832137,-3.51392982207,2
22185,53,Bretagne,22,4,16,Plénée-Jugon,2507,48.3556203022,-2.41594505184,2
35243,53,Bretagne,35,1,8,Romagné,2505,48.3445101485,-1.26180834878,2
22219,53,Bretagne,22,4,10,Plouguenast-Langast,2486,48.2772549866,-2.71012681366,2
35096,53,Bretagne,35,1,5,Domagné,2477,48.0678122281,-1.40586957147,2
35195,53,Bretagne,35,3,1,Montreuil-sur-Ille,2453,48.3053148028,-1.6686934187,2
22135,53,Bretagne,22,2,3,Louargat,2367,48.5612002546,-3.34101341684,1
22277,53,Bretagne,22,4,15,Saint-Brandan,2347,48.3903359027,-2.86345055821,2
35130,53,Bretagne,35,4,14,Hédé-Bazouges,2335,48.3018808207,-1.77748405021,1
35191,53,Bretagne,35,1,1,Les Portes du Coglais,2329,48.4485377499,-1.30298513536,2
56069,53,Bretagne,56,1,9,Groix,2303,47.6372394221,-3.4644268016,1
29080,53,Bretagne,29,1,21,Hôpital-Camfrout,2289,48.3241129491,-4.23905082012,2
29048,53,Bretagne,29,4,6,Edern,2287,48.1199968279,-3.96022667408,2
22237,53,Bretagne,22,1,14,Pluduno,2281,48.5232615716,-2.28079325793,2
22273,53,Bretagne,22,4,17,Saint-Alban,2280,48.5551884911,-2.50893906207,2
29045,53,Bretagne,29,1,21,Dirinon,2274,48.4011232723,-4.26930832464,2
35015,53,Bretagne,35,1,27,Balazé,2272,48.1777363541,-1.18302870433,2
22048,53,Bretagne,22,1,14,Corseul,2270,48.4828884637,-2.16620752689,2
22025,53,Bretagne,22,2,3,Callac,2263,48.4223048141,-3.41625904984,2
56042,53,Bretagne,56,3,3,Colpo,2262,47.8163021083,-2.80656999612,2
22372,53,Bretagne,22,4,18,Trémuson,2224,48.5248190208,-2.84790774522,2
22155,53,Bretagne,22,4,10,La Motte,2179,48.2311050733,-2.70470655082,2
29175,53,Bretagne,29,2,7,Plonévez-du-Faou,2174,48.2558447304,-3.82335085497,2
22013,53,Bretagne,22,2,3,Bourbriac,2169,48.465978498,-3.19983137965,2
22246,53,Bretagne,22,4,6,Pommeret,2158,48.4585503252,-2.62222031469,1
29156,53,Bretagne,29,1,13,Pencran,2133,48.4436093794,-4.22125825174,2
22307,53,Bretagne,22,4,21,Saint-Julien,2096,48.4480990562,-2.81685604656,2
22232,53,Bretagne,22,4,22,Plourhan,2073,48.6312552228,-2.88203367765,2
35264,53,Bretagne,35,1,5,Saint-Didier,2070,48.0932158644,-1.35806845203,2
35121,53,Bretagne,35,3,8,Gosné,2061,48.2503523895,-1.45860853595,2
56157,53,Bretagne,56,3,3,Plaudren,2011,47.7791727358,-2.69563725639,2
29041,53,Bretagne,29,2,6,Coray,1920,48.0658709885,-3.85508306366,2
22164,53,Bretagne,22,2,1,Pédernec,1898,48.5880169887,-3.27690620211,2
29106,53,Bretagne,29,4,6,Landrévarzec,1897,48.0895670142,-4.0756482989,2
56159,53,Bretagne,56,3,10,Pleucadeuc,1862,47.7694959397,-2.38667192104,2
35163,53,Bretagne,35,1,9,Luitré-Dompierre,1848,48.293087363,-1.12955612436,2
29053,53,Bretagne,29,2,21,Le Faou,1843,48.3059334041,-4.1421494556,2
22044,53,Bretagne,22,4,6,Coëtmieux,1842,48.4866224829,-2.59223420538,2
22265,53,Bretagne,22,3,7,Rospez,1834,48.7363664722,-3.38603599093,2
22121,53,Bretagne,22,2,22,Lanvollon,1809,48.6334353937,-2.98974658224,2
22056,53,Bretagne,22,1,8,Évran,1809,48.3848559678,-1.97961537709,2
29278,53,Bretagne,29,2,7,Spézet,1799,48.1857593376,-3.69132351095,2
35178,53,Bretagne,35,3,8,Mézières-sur-Couesnon,1794,48.2971797234,-1.43837213468,2
35002,53,Bretagne,35,1,12,Amanlis,1794,47.9998215771,-1.495562097,2
22143,53,Bretagne,22,1,17,Matignon,1726,48.6017682782,-2.29021789488,2
22170,53,Bretagne,22,4,15,Plaine-Haute,1681,48.4435359708,-2.85882396738,2
22220,53,Bretagne,22,2,23,Plouguernével,1660,48.2340717388,-3.24711732443,2
22224,53,Bretagne,22,3,7,Ploulec'h,1638,48.7189901633,-3.50164887821,2
22179,53,Bretagne,22,1,17,Fréhel,1628,48.6348223959,-2.36202603588,2
22321,53,Bretagne,22,2,23,Saint-Nicolas-du-Pélem,1599,48.3228229089,-3.16405050641,2
22034,53,Bretagne,22,3,1,Cavan,1573,48.6827644007,-3.35255264768,1
35271,53,Bretagne,35,1,9,Saint-Georges-de-Reintembault,1512,48.5129956863,-1.23490800183,2
22098,53,Bretagne,22,4,6,Landéhen,1458,48.4222879155,-2.54229267406,2
22177,53,Bretagne,22,2,22,Pléguien,1414,48.634729938,-2.948078639,2
22239,53,Bretagne,22,1,2,Plumaudan,1405,48.3560244309,-2.11489038909,2
22116,53,Bretagne,22,2,15,Lanrodec,1387,48.4997744033,-3.04323930161,2
22275,53,Bretagne,22,4,9,Saint-Barnabé,1250,48.1383637671,-2.70188479455,2
22204,53,Bretagne,22,2,1,Ploëzal,1243,48.7171371071,-3.18015723949,2
22340,53,Bretagne,22,3,1,Tonquédec,1228,48.6751108479,-3.40013620109,2
22371,53,Bretagne,22,4,2,Trémorel,1167,48.1914259889,-2.30214292641,2
29229,53,Bretagne,29,4,9,Quéménéven,1146,48.1177103984,-4.14400654798,1
29263,53,Bretagne,29,2,21,Saint-Ségal,1141,48.2359944685,-4.07720037055,2
22337,53,Bretagne,22,4,2,Sévignac,1141,48.3321356963,-2.3200523158,2
22254,53,Bretagne,22,3,1,Prat,1139,48.6822524197,-3.29802324655,2
35041,53,Bretagne,35,1,12,Brie,1030,47.9511752369,-1.55057030783,2
22016,53,Bretagne,22,4,11,Île-de-Bréhat,386,48.851165388,-3.00126760584,1
