com_id,reg_id,region,dep_id,arr_id,can_id,name,population,lat,lon,group
31555,76,Occitanie,31,3,99,Toulouse,503020,43.5963814303,1.43167293364,0
34172,76,Occitanie,34,3,99,Montpellier,302425,43.6134409138,3.86851657896,0
30189,76,Occitanie,30,2,99,Nîmes,149761,43.844938394,4.34806796996,0
66136,76,Occitanie,66,2,99,Perpignan,119447,42.6965954131,2.89936953979,0
34032,76,Occitanie,34,1,98,Béziers,79873,43.3475883319,3.23076754164,0
82121,76,Occitanie,82,2,99,Montauban,63158,44.0222594578,1.36408636501,0
11262,76,Occitanie,11,3,99,Narbonne,57320,43.1652399898,3.02023868739,0
81004,76,Occitanie,81,1,96,Albi,50783,43.9258213622,2.14686328555,0
11069,76,Occitanie,11,1,98,Carcassonne,47854,43.2093798444,2.34398855385,0
34301,76,Occitanie,34,3,25,Sète,45175,43.3917705831,3.64705148296,0
65440,76,Occitanie,65,3,99,Tarbes,43944,43.2347859635,0.0660093937851,0
81065,76,Occitanie,81,2,98,Castres,43833,43.6156511237,2.23787231587,0
30007,76,Occitanie,30,1,98,Alès,43492,44.1250099126,4.08828501262,0
34003,76,Occitanie,34,1,1,Agde,29589,43.309129116,3.48447903133,0
34145,76,Occitanie,34,3,12,Lunel,26626,43.6820481757,4.13566472301,0
31069,76,Occitanie,31,3,3,Blagnac,26600,43.6421867862,1.37886941086,1
12202,76,Occitanie,12,2,99,Rodez,26266,44.3582426254,2.5672793892,0
31395,76,Occitanie,31,1,9,Muret,25336,43.4491077783,1.30784679414,0
34108,76,Occitanie,34,3,8,Frontignan,23705,43.4482458873,3.74923522416,0
32013,76,Occitanie,32,1,99,Auch,23624,43.6534300414,0.575190250459,0
12145,76,Occitanie,12,1,98,Millau,22178,44.0976252203,3.11705384129,0
46042,76,Occitanie,46,1,98,Cahors,21081,44.4507370916,1.44075837848,0
31424,76,Occitanie,31,3,11,Plaisance-du-Touch,19904,43.557591642,1.28585811821,2
30028,76,Occitanie,30,2,5,Bagnols-sur-Cèze,18405,44.1622496736,4.62477380854,0
34129,76,Occitanie,34,3,10,Lattes,17909,43.5638594056,3.90226222861,0
34154,76,Occitanie,34,3,13,Mauguio,16912,43.5928279472,4.00425693337,2
9225,76,Occitanie,9,2,99,Pamiers,16421,43.1234860673,1.61523399037,0
30032,76,Occitanie,30,2,6,Beaucaire,15800,43.7797429509,4.59380296865,1
81099,76,Occitanie,81,1,11,Gaillac,15572,43.9170968776,1.88647213801,0
31446,76,Occitanie,31,3,25,Ramonville-Saint-Agne,15017,43.5441837911,1.47782372823,1
31113,76,Occitanie,31,3,4,Castanet-Tolosan,14636,43.5136166687,1.50383757047,1
82033,76,Occitanie,82,1,3,Castelsarrasin,14404,44.0490326525,1.12348123121,0
30258,76,Occitanie,30,2,19,Saint-Gilles,14313,43.6582880911,4.4077842781,1
82112,76,Occitanie,82,1,5,Moissac,14074,44.1262518079,1.09834758014,0
65286,76,Occitanie,65,1,98,Lourdes,13546,43.1074297344,-0.0768069387932,0
31506,76,Occitanie,31,3,4,Saint-Orens-de-Gameville,13401,43.5590787673,1.53513710649,2
30351,76,Occitanie,30,2,23,Villeneuve-lès-Avignon,13249,43.9771673582,4.79466040665,1
81105,76,Occitanie,81,2,12,Graulhet,13153,43.7576562195,2.00122512851,1
48095,76,Occitanie,48,2,99,Mende,13143,44.5294508592,3.48086881176,0
11076,76,Occitanie,11,1,5,Castelnaudary,12978,43.3230173159,1.96073752488,0
66037,76,Occitanie,66,2,3,Canet-en-Roussillon,12916,42.6841288047,3.01161744752,2
34157,76,Occitanie,34,3,14,Mèze,12549,43.4292981138,3.57774572973,1
31187,76,Occitanie,31,1,11,Fonsorbes,12454,43.5317695743,1.23863670585,2
12176,76,Occitanie,12,2,18,Onet-le-Château,12371,44.3825530939,2.56000835023,0
31483,76,Occitanie,31,2,14,Saint-Gaudens,12204,43.1199260811,0.726613564199,0
34123,76,Occitanie,34,3,10,Juvignac,12203,43.6237646402,3.79579375182,2
12300,76,Occitanie,12,3,22,Villefranche-de-Rouergue,12195,44.3499160171,2.03103287572,0
34270,76,Occitanie,34,3,10,Saint-Jean-de-Védas,11984,43.5716282319,3.83221847952,2
66172,76,Occitanie,66,2,14,Saint-Estève,11805,42.7151122221,2.84611914185,0
30341,76,Occitanie,30,2,21,Vauvert,11573,43.6258468531,4.30597093294,1
11203,76,Occitanie,11,3,8,Lézignan-Corbières,11338,43.2036730565,2.76215028732,1
31488,76,Occitanie,31,3,23,Saint-Jean,11259,43.6632000218,1.50080213607,2
81140,76,Occitanie,81,2,15,Lavaur,11214,43.6895628711,1.79437213708,1
66171,76,Occitanie,66,1,3,Saint-Cyprien,11188,42.6220280294,3.01622014324,0
31116,76,Occitanie,31,3,5,Castelginest,10901,43.6974132735,1.4355878363,1
66008,76,Occitanie,66,1,5,Argelès-sur-Mer,10844,42.5352193463,3.02429862885,1
11206,76,Occitanie,11,2,9,Limoux,10681,43.0499293279,2.23958811407,0
34255,76,Occitanie,34,2,23,Saint-Gély-du-Fesc,10670,43.6896523672,3.80969577473,0
30202,76,Occitanie,30,2,14,Pont-Saint-Esprit,10660,44.2526637065,4.63901945786,1
34337,76,Occitanie,34,3,22,Villeneuve-lès-Maguelone,10582,43.5249723481,3.85846205367,1
66028,76,Occitanie,66,2,8,Cabestany,10580,42.6790392044,2.94628633406,1
66141,76,Occitanie,66,2,4,Pia,10436,42.7487012331,2.91497381059,1
46102,76,Occitanie,46,2,99,Figeac,10380,44.6055314625,2.02540303775,0
81163,76,Occitanie,81,2,99,Mazamet,10361,43.4578780341,2.3885346913,1
31588,76,Occitanie,31,3,26,Villeneuve-Tolosane,10238,43.5266707182,1.34648807644,2
66180,76,Occitanie,66,2,4,Saint-Laurent-de-la-Salanque,10173,42.7935650332,3.00207879592,2
31033,76,Occitanie,31,1,1,Auterive,10062,43.3595991576,1.47742796554,1
81060,76,Occitanie,81,1,97,Carmaux,10036,44.0566667256,2.16641418483,1
31433,76,Occitanie,31,1,12,Portet-sur-Garonne,9955,43.529395272,1.40251955724,1
31451,76,Occitanie,31,3,13,Revel,9947,43.4656037799,1.99689394052,1
31547,76,Occitanie,31,1,9,Seysses,9854,43.4988915794,1.28690575634,2
9122,76,Occitanie,9,1,5,Foix,9841,42.9658502274,1.61037495894,0
81271,76,Occitanie,81,2,21,Saint-Sulpice-la-Pointe,9751,43.7589885163,1.68659997767,1
31499,76,Occitanie,31,1,11,Saint-Lys,9737,43.5100073275,1.19955711914,2
31291,76,Occitanie,31,3,8,Léguevin,9615,43.5919597795,1.2290264629,1
31203,76,Occitanie,31,1,9,Frouzins,9546,43.5213246491,1.31308144472,2
66065,76,Occitanie,66,1,12,Elne,9518,42.6008592066,2.97119695146,1
32160,76,Occitanie,32,1,13,L'Isle-Jourdain,9454,43.6144926041,1.08127836593,0
34090,76,Occitanie,34,3,7,Le Crès,9440,43.6540978695,3.93608851243,1
31282,76,Occitanie,31,3,22,Launaguet,9425,43.6700766081,1.45516003737,1
31022,76,Occitanie,31,3,5,Aucamville,9340,43.6713968117,1.42370910767,2
34079,76,Occitanie,34,2,6,Clermont-l'Hérault,9285,43.6338885209,3.41317415682,1
66164,76,Occitanie,66,2,15,Rivesaltes,9160,42.7785910442,2.87687296538,1
31232,76,Occitanie,31,3,8,Grenade,9016,43.7640507757,1.28038974975,2
34116,76,Occitanie,34,3,15,Grabels,8981,43.6507076799,3.79423262021,1
31417,76,Occitanie,31,3,21,Pibrac,8776,43.6274385363,1.26139475262,2
30003,76,Occitanie,30,2,1,Aigues-Mortes,8742,43.5507249635,4.18349802063,1
34344,76,Occitanie,34,3,13,La Grande-Motte,8721,43.5685394142,4.0758328467,2
30334,76,Occitanie,30,2,20,Uzès,8721,44.0136590402,4.41600031556,1
30011,76,Occitanie,30,2,23,Les Angles,8714,43.946680289,4.75255256222,2
30156,76,Occitanie,30,2,9,Marguerittes,8713,43.8611502608,4.45020643923,1
31526,76,Occitanie,31,3,8,La Salvetat-Saint-Gilles,8694,43.5754800218,1.26616319872,2
12208,76,Occitanie,12,1,19,Saint-Affrique,8651,43.9656694471,2.86653125625,1
30133,76,Occitanie,30,2,1,Le Grau-du-Roi,8426,43.5072810882,4.16622948662,2
34202,76,Occitanie,34,3,22,Pignan,8333,43.5855297709,3.74922617626,2
66210,76,Occitanie,66,1,1,Thuir,8197,42.6434195538,2.75897243961,1
34199,76,Occitanie,34,1,21,Pézenas,8110,43.462990168,3.41651652125,1
65047,76,Occitanie,65,3,1,Aureilhan,8100,43.2497030503,0.103640168515,0
34299,76,Occitanie,34,1,2,Sérignan,7985,43.2733185307,3.29725083254,1
66195,76,Occitanie,66,2,16,Le Soler,7985,42.6776853173,2.79565359118,1
30217,76,Occitanie,30,2,23,Rochefort-du-Gard,7983,43.9811688272,4.68155728487,2
66049,76,Occitanie,66,1,17,Céret,7968,42.4739622057,2.75268021455,1
31150,76,Occitanie,31,3,3,Cornebarrieu,7827,43.6486265729,1.32242964582,2
34150,76,Occitanie,34,3,1,Marseillan,7797,43.3605776007,3.54718963761,1
66021,76,Occitanie,66,2,7,Bompas,7734,42.7286935999,2.94228068459,1
34022,76,Occitanie,34,3,7,Baillargues,7702,43.6581051757,4.01030491176,2
30034,76,Occitanie,30,2,6,Bellegarde,7624,43.7518139903,4.49573824509,2
34142,76,Occitanie,34,2,11,Lodève,7618,43.7307354901,3.30567667879,1
66213,76,Occitanie,66,2,11,Toulouges,7385,42.6696131691,2.82406854776,1
31032,76,Occitanie,31,3,3,Aussonne,7348,43.6836034494,1.32887054853,2
65059,76,Occitanie,65,2,4,Bagnères-de-Bigorre,7318,42.9758668859,0.132640694318,0
30243,76,Occitanie,30,1,2,Saint-Christol-lez-Alès,7291,44.0837854635,4.0766500677,1
34095,76,Occitanie,34,3,22,Fabrègues,7277,43.5344767016,3.77192951891,2
34023,76,Occitanie,34,3,8,Balaruc-les-Bains,7207,43.4469007065,3.69072086799,2
30155,76,Occitanie,30,2,9,Manduel,7185,43.8056903138,4.48826183061,2
31169,76,Occitanie,31,3,7,Escalquens,7111,43.5209125935,1.55243226997,1
82037,76,Occitanie,82,2,1,Caussade,7022,44.1565421874,1.54351161487,1
34120,76,Occitanie,34,3,20,Jacou,6896,43.6629846943,3.9119610777,2
34327,76,Occitanie,34,3,7,Vendargues,6857,43.6610457488,3.96283033113,2
31490,76,Occitanie,31,3,5,Saint-Jory,6853,43.739344106,1.35625454624,2
9261,76,Occitanie,9,3,4,Saint-Girons,6812,42.9752923045,1.15326595533,0
82125,76,Occitanie,82,2,9,Montech,6799,43.9524124123,1.23764675579,1
31118,76,Occitanie,31,3,27,Castelnau-d'Estrétefonds,6796,43.7938485319,1.36164575228,1
81257,76,Occitanie,81,1,22,Saint-Juéry,6732,43.9385571465,2.22614415314,1
34114,76,Occitanie,34,2,9,Gignac,6725,43.6393937216,3.57384628868,1
32107,76,Occitanie,32,2,7,Condom,6670,43.9716968333,0.374186827134,0
34113,76,Occitanie,34,3,8,Gigean,6642,43.4940932526,3.72353998798,2
81120,76,Occitanie,81,2,18,Labruguière,6624,43.5090050313,2.26662007488,1
66038,76,Occitanie,66,2,10,Canohès,6611,42.6518506927,2.83475138204,1
31165,76,Occitanie,31,1,12,Eaunes,6547,43.4276929383,1.35897762267,2
31202,76,Occitanie,31,3,27,Fronton,6535,43.8517933672,1.37926505581,2
31248,76,Occitanie,31,1,12,Labarthe-sur-Lèze,6479,43.4585461585,1.40082976957,2
34151,76,Occitanie,34,3,12,Marsillargues,6472,43.6268280772,4.14781957357,2
30141,76,Occitanie,30,2,17,Laudun-l'Ardoise,6447,44.1029568271,4.66389513091,1
34239,76,Occitanie,34,2,9,Saint-André-de-Sangonis,6441,43.6502281651,3.50287642429,2
66149,76,Occitanie,66,3,13,Prades,6375,42.6145021996,2.43074849066,0
30047,76,Occitanie,30,2,9,Bouillargues,6374,43.801618461,4.4344842541,2
31584,76,Occitanie,31,3,27,Villemur-sur-Tarn,6184,43.8644095962,1.49043812706,2
9160,76,Occitanie,9,2,9,Lavelanet,6177,42.9336867312,1.84586953504,1
12133,76,Occitanie,12,2,14,Luc-la-Primaube,6126,44.3056658484,2.5364516694,1
34217,76,Occitanie,34,3,23,Prades-le-Lez,6111,43.7072541597,3.86489213915,1
34213,76,Occitanie,34,3,14,Poussan,6087,43.4938682747,3.66060526328,2
31445,76,Occitanie,31,3,24,Quint-Fonsegrives,6038,43.5815682751,1.54212357917,2
31188,76,Occitanie,31,1,11,Fontenilles,6032,43.5554168376,1.19738282576,2
30062,76,Occitanie,30,2,7,Calvisson,6013,43.7876770094,4.18871767018,1
32132,76,Occitanie,32,2,9,Fleurance,6001,43.8402794076,0.64245586546,1
11266,76,Occitanie,11,3,17,Port-la-Nouvelle,5975,43.0210644931,3.03976442192,1
65258,76,Occitanie,65,2,15,Lannemezan,5964,43.117063337,0.39353033034,1
30169,76,Occitanie,30,2,19,Milhaud,5957,43.7887623974,4.30911976796,2
31107,76,Occitanie,31,1,1,Carbonne,5954,43.3014494679,1.21849966052,2
34028,76,Occitanie,34,1,6,Bédarieux,5952,43.6125569074,3.16680787195,1
66017,76,Occitanie,66,2,4,Le Barcarès,5933,42.8127710984,3.02834125149,2
81021,76,Occitanie,81,2,16,Aussillon,5929,43.4946823944,2.35580492552,1
81220,76,Occitanie,81,1,23,Rabastens,5895,43.8484040939,1.71495143196,1
34332,76,Occitanie,34,1,1,Vias,5881,43.3131142636,3.39889710362,2
11106,76,Occitanie,11,3,6,Coursan,5880,43.247330951,3.05926886129,1
82134,76,Occitanie,82,2,1,Nègrepelisse,5821,44.0631437696,1.52813602608,2
34192,76,Occitanie,34,3,13,Palavas-les-Flots,5785,43.533536456,3.92620839566,2
30006,76,Occitanie,30,2,1,Aimargues,5784,43.6717803693,4.20375100125,2
34077,76,Occitanie,34,3,20,Clapiers,5701,43.6620192267,3.88689748204,2
66189,76,Occitanie,66,2,3,Saleilles,5700,42.6568410057,2.94920487175,2
11379,76,Occitanie,11,3,17,Sigean,5640,43.0395983609,2.98124209143,2
30221,76,Occitanie,30,2,17,Roquemaure,5598,44.0414756862,4.7565701251,2
66088,76,Occitanie,66,3,16,Ille-sur-Têt,5588,42.6774223178,2.61639804475,1
34298,76,Occitanie,34,1,4,Sauvian,5580,43.2910373806,3.25406479284,1
11397,76,Occitanie,11,1,18,Trèbes,5560,43.2054644637,2.45954102477,1
65100,76,Occitanie,65,3,2,Bordères-sur-l'Échez,5543,43.2654849206,0.0424725726856,1
30344,76,Occitanie,30,2,21,Vergèze,5536,43.7375360363,4.23360990528,2
30294,76,Occitanie,30,1,3,Saint-Privat-des-Vieux,5500,44.1416859983,4.13063351815,1
34031,76,Occitanie,34,1,1,Bessan,5445,43.3569862701,3.41660408543,2
12089,76,Occitanie,12,3,7,Decazeville,5408,44.567273002,2.25243853064,1
66144,76,Occitanie,66,2,1,Pollestres,5400,42.6374827748,2.872863153,1
34300,76,Occitanie,34,1,4,Servian,5395,43.4143351267,3.30645261407,2
82186,76,Occitanie,82,1,14,Valence,5381,44.1068332095,0.897921093494,1
30033,76,Occitanie,30,2,21,Beauvoisin,5378,43.6962644399,4.32219796472,2
66024,76,Occitanie,66,1,17,Le Boulou,5370,42.526358117,2.83157706562,2
34247,76,Occitanie,34,2,23,Saint-Clément-de-Rivière,5294,43.6860686936,3.84318936676,2
65417,76,Occitanie,65,3,1,Séméac,5260,43.2246169766,0.109046031378,2
34069,76,Occitanie,34,1,5,Cazouls-lès-Béziers,5220,43.3976310061,3.09968408339,1
11170,76,Occitanie,11,3,12,Gruissan,5215,43.1040163547,3.08229513652,1
34101,76,Occitanie,34,1,21,Florensac,5116,43.3858472782,3.4638416795,2
30321,76,Occitanie,30,2,7,Sommières,5109,43.7756118498,4.08232743857,2
65460,76,Occitanie,65,3,17,Vic-en-Bigorre,5101,43.3910708794,0.0554734768116,1
30132,76,Occitanie,30,1,8,La Grand-Combe,5029,44.2271512171,4.02984902103,1
34276,76,Occitanie,34,2,23,Saint-Mathieu-de-Tréviers,4989,43.7692073898,3.87002027505,2
9282,76,Occitanie,9,2,10,Saverdun,4966,43.2265667321,1.57373634569,1
48092,76,Occitanie,48,2,8,Marvejols,4956,44.5581181858,3.28780886743,0
31582,76,Occitanie,31,3,13,Villefranche-de-Lauragais,4916,43.4067792695,1.71965126707,2
82190,76,Occitanie,82,2,15,Verdun-sur-Garonne,4900,43.849145335,1.22845642714,1
66182,76,Occitanie,66,2,7,Sainte-Marie-la-Mer,4867,42.7262501426,3.017081634,2
66016,76,Occitanie,66,1,5,Banyuls-sur-Mer,4839,42.4614750255,3.09989653778,2
31135,76,Occitanie,31,1,6,Cazères,4824,43.2203354224,1.09307402728,1
48140,76,Occitanie,48,2,12,Saint-Chély-d'Apcher,4814,44.8126363545,3.2751576154,0
12096,76,Occitanie,12,2,10,Espalion,4798,44.5188717043,2.76426608276,1
81145,76,Occitanie,81,1,23,Lisle-sur-Tarn,4776,43.8974980421,1.78200143861,2
34148,76,Occitanie,34,1,5,Maraussan,4727,43.370567073,3.1537894615,2
31410,76,Occitanie,31,3,10,Pechbonnieu,4714,43.7112584886,1.45879137829,1
30259,76,Occitanie,30,1,4,Saint-Hilaire-de-Brethmas,4679,44.0920759418,4.12381898108,1
81144,76,Occitanie,81,1,4,Lescure-d'Albigeois,4670,43.9656164383,2.18230929953,1
30284,76,Occitanie,30,1,3,Saint-Martin-de-Valgalgues,4654,44.1658828602,4.0750003608,2
11202,76,Occitanie,11,3,17,Leucate,4635,42.8993650672,3.02676038573,2
11429,76,Occitanie,11,1,19,Villemoustaussou,4583,43.2495624385,2.36587017807,1
34146,76,Occitanie,34,3,12,Lunel-Viel,4530,43.6826642395,4.08422296335,2
12052,76,Occitanie,12,3,8,Capdenac-Gare,4516,44.5596095618,2.06863929998,1
31117,76,Occitanie,31,3,10,Castelmaurou,4508,43.6845152261,1.53745049477,2
66011,76,Occitanie,66,1,12,Bages,4507,42.6073851516,2.88856969665,2
30075,76,Occitanie,30,2,19,Caveirac,4487,43.8338668617,4.2678579617,2
30223,76,Occitanie,30,1,18,Rousson,4440,44.1972122109,4.15147892026,1
34162,76,Occitanie,34,1,14,Montagnac,4378,43.4745284586,3.51074216978,1
82124,76,Occitanie,82,2,9,Montbeton,4328,44.0135610101,1.2703654947,2
66108,76,Occitanie,66,3,16,Millas,4324,42.6989825431,2.68991104341,2
31035,76,Occitanie,31,3,4,Auzeville-Tolosane,4322,43.5286122552,1.48721978973,2
82075,76,Occitanie,82,2,15,Grisolles,4268,43.8224483737,1.28670830479,2
34324,76,Occitanie,34,1,2,Valras-Plage,4251,43.2476112282,3.28929431362,2
30012,76,Occitanie,30,2,6,Aramon,4229,43.904199015,4.68302001901,2
34111,76,Occitanie,34,2,11,Ganges,4216,43.9457300618,3.70523816055,2
12270,76,Occitanie,12,2,20,Sévérac d'Aveyron,4198,44.3000638764,3.08915100601,1
30211,76,Occitanie,30,2,16,Redessan,4196,43.8345466774,4.51298942933,1
34163,76,Occitanie,34,2,9,Montarnaud,4194,43.6470278582,3.69970280024,2
66227,76,Occitanie,66,2,12,Villeneuve-de-la-Raho,4178,42.6399917541,2.91045028538,1
31389,76,Occitanie,31,3,24,Montrabé,4176,43.6424532193,1.5288063297,2
34336,76,Occitanie,34,1,4,Villeneuve-lès-Béziers,4153,43.3172489997,3.28958494349,2
65235,76,Occitanie,65,3,9,Juillan,4141,43.199677324,0.0228064029796,1
11116,76,Occitanie,11,3,6,Cuxac-d'Aude,4115,43.2578013318,3.00547549948,2
34183,76,Occitanie,34,1,2,Nissan-lez-Enserune,4094,43.2811833354,3.11227016,2
46127,76,Occitanie,46,3,9,Gourdon,4086,44.734795608,1.37712768596,0
34194,76,Occitanie,34,2,6,Paulhan,4076,43.5382461437,3.45878001705,2
66148,76,Occitanie,66,1,5,Port-Vendres,4070,42.5025817829,3.10455891207,2
32119,76,Occitanie,32,2,2,Eauze,4069,43.8607370613,0.105730356401,1
34161,76,Occitanie,34,1,5,Montady,4063,43.3285047609,3.11398724899,2
32208,76,Occitanie,32,2,14,Lectoure,4049,43.9405030561,0.650762392132,1
82161,76,Occitanie,82,2,1,Saint-Étienne-de-Tulmont,4045,44.044673154,1.45703284983,2
31396,76,Occitanie,31,3,7,Nailloux,4019,43.3652413733,1.61316756794,2
34341,76,Occitanie,34,3,14,Villeveyrac,3978,43.5001280333,3.59372946669,2
66140,76,Occitanie,66,2,14,Pézilla-la-Rivière,3962,42.7052766962,2.76420559832,2
9185,76,Occitanie,9,2,10,Mazères,3955,43.2305454388,1.67905538155,2
82013,76,Occitanie,82,1,2,Beaumont-de-Lomagne,3951,43.876728355,1.01059588806,1
31299,76,Occitanie,31,1,6,Lherm,3887,43.4293377218,1.22334236594,2
30263,76,Occitanie,30,3,22,Saint-Hippolyte-du-Fort,3886,43.9541335722,3.85306084784,0
82079,76,Occitanie,82,2,13,Labastide-Saint-Pierre,3881,43.9190655964,1.34640200769,1
30350,76,Occitanie,30,3,22,Le Vigan,3824,43.9886565575,3.62522883405,2
82025,76,Occitanie,82,2,9,Bressols,3804,43.9544945655,1.31611180901,2
31573,76,Occitanie,31,3,10,Verfeil,3792,43.6637744377,1.67738560148,2
12013,76,Occitanie,12,3,6,Aubin,3777,44.5318545051,2.25591796926,1
11145,76,Occitanie,11,3,6,Fleury,3773,43.214412802,3.17666583157,2
31454,76,Occitanie,31,1,6,Rieumes,3746,43.4121701053,1.11454294712,2
32256,76,Occitanie,32,3,15,Mirande,3733,43.5186713962,0.410792361049,0
66002,76,Occitanie,66,1,12,Alénya,3717,42.6407019491,2.98145485065,2
81273,76,Occitanie,81,2,19,Saïx,3703,43.5842195914,2.17044847109,1
30305,76,Occitanie,30,1,3,Salindres,3695,44.1650140999,4.16135836746,2
46224,76,Occitanie,46,1,1,Pradines,3681,44.464606105,1.38849304756,1
66190,76,Occitanie,66,2,15,Salses-le-Château,3648,42.8371985526,2.91593580268,2
32462,76,Occitanie,32,1,8,Vic-Fezensac,3640,43.762029942,0.297842185088,1
66003,76,Occitanie,66,1,2,Amélie-les-Bains-Palalda,3632,42.4436859079,2.68338432052,1
81218,76,Occitanie,81,1,2,Puygouzon,3616,43.8884573228,2.16955643928,1
34051,76,Occitanie,34,2,6,Canet,3614,43.5983184879,3.48279950593,2
66069,76,Occitanie,66,2,15,Espira-de-l'Agly,3603,42.7964740198,2.82234963668,2
46251,76,Occitanie,46,2,16,Saint-Céré,3582,44.8531827667,1.89258045388,1
12174,76,Occitanie,12,2,14,Olemps,3573,44.338471851,2.54774198749,2
65062,76,Occitanie,65,3,7,Barbazan-Debat,3572,43.201851966,0.129955186604,1
81222,76,Occitanie,81,1,13,Réalmont,3558,43.7799765873,2.19017910647,1
9324,76,Occitanie,9,1,13,Varilhes,3552,43.0547690657,1.63364245482,1
46128,76,Occitanie,46,3,10,Gramat,3539,44.7635603644,1.71620459363,1
81156,76,Occitanie,81,1,3,Marssac-sur-Tarn,3522,43.9102726323,2.03641141101,1
46309,76,Occitanie,46,3,17,Souillac,3520,44.9069531608,1.46396482842,1
31048,76,Occitanie,31,3,7,Baziège,3502,43.4622367436,1.62799581298,2
30274,76,Occitanie,30,1,18,Saint-Julien-les-Rosiers,3482,44.1899717344,4.10039832397,2
66012,76,Occitanie,66,2,14,Baho,3457,42.705784148,2.82066588737,2
66196,76,Occitanie,66,1,17,Sorède,3446,42.4998734367,2.98047193551,2
12264,76,Occitanie,12,2,3,Sébazac-Concourès,3420,44.4232783345,2.6111835082,1
82002,76,Occitanie,82,2,11,Albias,3395,44.0815971851,1.44856431622,1
65331,76,Occitanie,65,3,7,Odos,3390,43.1944738978,0.0557112263144,2
30010,76,Occitanie,30,1,2,Anduze,3374,44.0507893674,3.97484165309,2
30210,76,Occitanie,30,3,15,Quissac,3366,43.9179934684,3.99722251825,1
30227,76,Occitanie,30,1,18,Saint-Ambroix,3366,44.2524583659,4.19418573198,2
34052,76,Occitanie,34,1,24,Capestang,3356,43.3217608814,3.04813542922,1
66224,76,Occitanie,66,2,7,Villelongue-de-la-Salanque,3325,42.7256098922,2.97746160668,2
11049,76,Occitanie,11,1,1,Bram,3304,43.2514206471,2.11029895207,1
9312,76,Occitanie,9,2,8,La Tour-du-Crieu,3303,43.1046663015,1.6669791178,1
12090,76,Occitanie,12,2,21,Druelle Balsac,3289,44.3609252009,2.47671597719,1
34140,76,Occitanie,34,1,3,Lignan-sur-Orb,3275,43.382486634,3.17270457784,1
81219,76,Occitanie,81,2,19,Puylaurens,3266,43.5824524921,2.01685800368,2
12056,76,Occitanie,12,3,5,Baraqueville,3259,44.2810938954,2.44964862339,1
31303,76,Occitanie,31,1,1,Longages,3250,43.3574229585,1.21425495972,2
11304,76,Occitanie,11,2,14,Quillan,3237,42.8757498926,2.19080612724,1
9194,76,Occitanie,9,2,6,Mirepoix,3236,43.1093995072,1.86916991814,1
30179,76,Occitanie,30,2,16,Montfrin,3199,43.8750973783,4.59182307078,2
82096,76,Occitanie,82,2,3,La Ville-Dieu-du-Temple,3188,44.0429816924,1.22097362362,1
81033,76,Occitanie,81,1,6,Blaye-les-Mines,3112,44.033065795,2.14278920127,1
30295,76,Occitanie,30,2,20,Saint-Quentin-la-Poterie,3111,44.057337074,4.43872425053,2
30255,76,Occitanie,30,2,7,Saint-Geniès-de-Malgoirès,3100,43.94623194,4.2131714959,2
65433,76,Occitanie,65,3,1,Soues,3087,43.2056090738,0.0994897363458,2
11369,76,Occitanie,11,3,16,Sallèles-d'Aude,3082,43.2700227368,2.93528136754,1
32147,76,Occitanie,32,1,11,Gimont,3078,43.6206403859,0.880976872847,1
34225,76,Occitanie,34,1,24,Puisserguier,3073,43.3772339365,3.04590546447,2
65025,76,Occitanie,65,1,16,Argelès-Gazost,3069,43.006001672,-0.0963626224791,1
48080,76,Occitanie,48,2,7,Langogne,3069,44.7237405653,3.83363110341,1
9306,76,Occitanie,9,1,12,Tarascon-sur-Ariège,3044,42.8461514685,1.59648461871,1
65226,76,Occitanie,65,3,2,Ibos,3043,43.2411378996,0.000239711403462,2
12033,76,Occitanie,12,2,3,Bozouls,3037,44.4675229225,2.70795409779,2
30278,76,Occitanie,30,2,17,Saint-Laurent-des-Arbres,3034,44.0556997374,4.69243062934,2
81070,76,Occitanie,81,1,21,Coufouleux,3027,43.7978489409,1.73158426557,1
81288,76,Occitanie,81,2,18,Sorèze,3003,43.4412492469,2.08031337654,2
31088,76,Occitanie,31,3,21,Brax,2983,43.6156942044,1.23194886903,2
66174,76,Occitanie,66,2,16,Saint-Féliu-d'Avall,2952,42.6726973076,2.74775654622,2
34166,76,Occitanie,34,1,21,Montblanc,2919,43.3707718036,3.35755094036,2
9265,76,Occitanie,9,2,7,Saint-Jean-du-Falga,2914,43.0862015725,1.62439338858,1
82087,76,Occitanie,82,2,10,Lafrançaise,2904,44.13545336,1.24021964059,1
66145,76,Occitanie,66,2,1,Ponteilla,2875,42.632806748,2.82639975565,2
81209,76,Occitanie,81,2,17,Pont-de-Larn,2859,43.5308469607,2.40980470346,1
66186,76,Occitanie,66,2,3,Saint-Nazaire,2823,42.6621428836,2.98670142131,2
66009,76,Occitanie,66,1,2,Arles-sur-Tech,2823,42.4498186611,2.62632454224,2
34274,76,Occitanie,34,2,11,Saint-Martin-de-Londres,2817,43.7926372953,3.70749671559,2
11279,76,Occitanie,11,1,19,Pennautier,2764,43.2513741105,2.31315453913,2
31390,76,Occitanie,31,2,14,Montréjeau,2758,43.0885884936,0.558463262724,2
30166,76,Occitanie,30,2,16,Meynes,2693,43.8773658406,4.55418222492,2
81289,76,Occitanie,81,2,19,Soual,2665,43.5511250266,2.12888668782,2
11099,76,Occitanie,11,1,19,Conques-sur-Orbiel,2641,43.2842108379,2.38445720467,2
32307,76,Occitanie,32,1,4,Pavie,2632,43.605614575,0.589850870884,1
30027,76,Occitanie,30,1,2,Bagard,2631,44.070391573,4.04387785111,2
81048,76,Occitanie,81,1,3,Cagnac-les-Mines,2611,43.9810206314,2.11921214,2
30269,76,Occitanie,30,1,8,Saint-Jean-du-Gard,2605,44.1071750382,3.87785905992,2
11269,76,Occitanie,11,3,16,Ouveillan,2605,43.2931875374,2.96999154918,2
31106,76,Occitanie,31,3,13,Caraman,2586,43.5291002668,1.75296927178,2
81018,76,Occitanie,81,1,22,Arthès,2569,43.9638815505,2.22587013595,2
11272,76,Occitanie,11,1,3,Palaja,2567,43.1671058484,2.38726861011,1
81002,76,Occitanie,81,2,16,Aiguefonde,2564,43.4928550174,2.32315581418,2
81124,76,Occitanie,81,2,14,Lacaune,2543,43.6972753085,2.68833285874,1
30307,76,Occitanie,30,1,8,Les Salles-du-Gardon,2532,44.194603836,4.01746803987,2
34126,76,Occitanie,34,1,6,Lamalou-les-Bains,2501,43.5964619142,3.08445405222,2
46225,76,Occitanie,46,1,15,Prayssac,2485,44.5137023932,1.18723639208,1
32410,76,Occitanie,32,1,17,Samatan,2484,43.4935426323,0.934596447621,1
30061,76,Occitanie,30,2,20,La Calmette,2460,43.9263163144,4.26355372914,2
12102,76,Occitanie,12,1,14,Flavin,2441,44.2880137822,2.62175551429,1
9157,76,Occitanie,9,2,6,Laroque-d'Olmes,2435,42.9675623246,1.87181602964,2
81038,76,Occitanie,81,1,11,Brens,2433,43.8878107316,1.92967120122,2
12100,76,Occitanie,12,3,6,Firmi,2427,44.5476858944,2.32505415911,2
65344,76,Occitanie,65,3,9,Ossun,2421,43.1786184221,-0.0428005714329,2
34074,76,Occitanie,34,1,24,Cessenon-sur-Orb,2408,43.454255953,3.04105685842,2
9167,76,Occitanie,9,3,2,Lézat-sur-Lèze,2400,43.280210332,1.34476803133,1
48009,76,Occitanie,48,2,1,Peyre en Aubrac,2393,44.7233900467,3.28132614741,1
12146,76,Occitanie,12,2,17,Le Monastère,2385,44.331592843,2.5872623881,1
31042,76,Occitanie,31,2,2,Bagnères-de-Luchon,2368,42.736147731,0.626640395614,1
12254,76,Occitanie,12,2,21,Salles-la-Source,2357,44.4437884405,2.5250957268,2
9332,76,Occitanie,9,1,13,Verniolle,2344,43.0809118963,1.6610092477,2
82169,76,Occitanie,82,1,4,Saint-Nicolas-de-la-Grave,2327,44.0658425315,1.02023020877,1
82179,76,Occitanie,82,2,12,Septfonds,2311,44.1765759652,1.61739308656,1
81131,76,Occitanie,81,1,10,Lagrave,2292,43.8931087297,1.99033789406,1
32249,76,Occitanie,32,2,11,Mauvezin,2287,43.7315774069,0.866244798675,1
65304,76,Occitanie,65,3,13,Maubourguet,2284,43.4688561646,0.044250933589,1
12043,76,Occitanie,12,3,13,Calmont,2261,44.2590321912,2.52423447426,1
12224,76,Occitanie,12,2,9,Saint Geniez d'Olt et d'Aubrac,2256,44.4732674724,2.98156818185,1
12120,76,Occitanie,12,2,9,Laissac-Sévérac l'Église,2256,44.3644570513,2.81804424075,2
66217,76,Occitanie,66,1,1,Trouillas,2247,42.6064392439,2.82021173802,2
32296,76,Occitanie,32,2,12,Nogaro,2238,43.7612028008,-0.0306381303587,1
81227,76,Occitanie,81,2,8,Roquecourbe,2225,43.6726544083,2.27758521528,1
81204,76,Occitanie,81,2,16,Payrin-Augmontel,2219,43.538512955,2.34476965371,2
12063,76,Occitanie,12,1,4,La Cavalerie,2219,44.0119187928,3.1838932062,1
48034,76,Occitanie,48,2,2,La Canourgue,2197,44.4193711769,3.25711827627,1
11012,76,Occitanie,11,3,16,Argeliers,2191,43.3110246072,2.91115452781,2
32213,76,Occitanie,32,1,17,Lombez,2189,43.4666661613,0.901915416413,2
66101,76,Occitanie,66,2,1,Llupia,2186,42.62594544,2.78302556037,2
81052,76,Occitanie,81,1,22,Cambon,2183,43.9118287405,2.2237324057,2
12169,76,Occitanie,12,3,5,Naucelle,2172,44.1898575403,2.34366368782,2
66230,76,Occitanie,66,3,2,Vinça,2171,42.64326224,2.52272432664,1
11254,76,Occitanie,11,1,10,Montréal,2171,43.2000530731,2.14809473682,1
12199,76,Occitanie,12,3,6,Rignac,2147,44.4038329146,2.29228871208,2
48099,76,Occitanie,48,2,3,Bourgs sur Colagne,2137,44.5109335104,3.22653031553,1
48061,76,Occitanie,48,1,5,Florac Trois Rivières,2136,44.3162079295,3.58273527435,0
81244,76,Occitanie,81,1,6,Saint-Benoît-de-Carmaux,2090,44.0544138951,2.12958421961,2
81281,76,Occitanie,81,2,20,Sémalens,2060,43.598998518,2.10929167449,1
81182,76,Occitanie,81,2,13,Montredon-Labessonnié,2060,43.7243034141,2.32124891411,1
81042,76,Occitanie,81,2,8,Burlats,2057,43.634494226,2.32985791816,2
12197,76,Occitanie,12,1,13,Réquista,2056,44.031961026,2.54899148777,1
82115,76,Occitanie,82,2,13,Monclar-de-Quercy,2051,43.9880590722,1.58236305942,2
46029,76,Occitanie,46,2,6,Biars-sur-Cère,2050,44.9281999917,1.85705877079,1
81039,76,Occitanie,81,2,12,Briatexte,2047,43.747193404,1.92377964856,2
66058,76,Occitanie,66,3,16,Corneilla-la-Rivière,2047,42.709567145,2.72548561716,2
12301,76,Occitanie,12,3,23,Villeneuve,2022,44.4470516334,2.0285315392,1
12198,76,Occitanie,12,3,2,Rieupeyroux,2015,44.3085754076,2.22948755681,1
65340,76,Occitanie,65,3,2,Orleix,1995,43.2762828841,0.117396047373,2
81116,76,Occitanie,81,2,15,Labastide-Saint-Georges,1991,43.6998934044,1.84536170011,2
81284,76,Occitanie,81,1,2,Le Sequestre,1981,43.9105402335,2.10655664211,2
66124,76,Occitanie,66,3,13,Font-Romeu-Odeillo-Via,1964,42.513242501,2.02697700093,2
11315,76,Occitanie,11,1,15,Rieux-Minervois,1962,43.2683807595,2.59121140963,1
46231,76,Occitanie,46,1,15,Puy-l'Évêque,1953,44.5166104791,1.13576954751,2
82167,76,Occitanie,82,2,13,Saint-Nauphary,1949,43.95896731,1.44860158065,2
65251,76,Occitanie,65,3,7,Laloubère,1938,43.2090831887,0.0761770721287,2
30348,76,Occitanie,30,1,4,Vézénobres,1927,44.0510480255,4.13455182602,2
82155,76,Occitanie,82,2,12,Saint-Antonin-Noble-Val,1921,44.156093011,1.73640541242,2
30311,76,Occitanie,30,3,15,Sauve,1915,43.9373635895,3.95465985604,2
30290,76,Occitanie,30,2,14,Saint-Paulet-de-Caisson,1901,44.2607888624,4.58682211598,2
32242,76,Occitanie,32,3,3,Masseube,1897,43.4317876537,0.586727332554,1
82149,76,Occitanie,82,2,11,Réalville,1897,44.1281472573,1.48081390272,2
32344,76,Occitanie,32,3,1,Riscle,1883,43.6454030402,-0.078542343724,1
46148,76,Occitanie,46,1,13,Lalbenque,1881,44.3330164253,1.56498727825,1
46063,76,Occitanie,46,1,13,Castelnau Montratier-Sainte Alauzie,1874,44.2618964554,1.34787377419,2
31523,76,Occitanie,31,2,2,Salies-du-Salat,1860,43.1013456235,0.962933495319,2
46201,76,Occitanie,46,1,12,Montcuq-en-Quercy-Blanc,1854,44.335497631,1.21192283879,1
30331,76,Occitanie,30,2,5,Tresques,1843,44.116981743,4.59282307489,2
12241,76,Occitanie,12,2,14,Sainte-Radegonde,1826,44.3313046455,2.63272943848,2
46182,76,Occitanie,46,1,12,Luzech,1804,44.4857575598,1.27596849228,2
66187,76,Occitanie,66,3,15,Saint-Paul-de-Fenouillet,1796,42.8206748492,2.50723870282,1
31585,76,Occitanie,31,2,14,Villeneuve-de-Rivière,1786,43.1223437031,0.670046646703,2
11040,76,Occitanie,11,3,11,Bizanet,1782,43.1482543689,2.86981441339,1
12138,76,Occitanie,12,2,21,Marcillac-Vallon,1778,44.4772361351,2.46487970585,2
12157,76,Occitanie,12,2,3,Montrozier,1767,44.394981764,2.72127812252,2
81233,76,Occitanie,81,1,13,Terre-de-Bancalié,1758,43.8091924031,2.26353154386,2
81139,76,Occitanie,81,2,20,Lautrec,1756,43.7052468491,2.12929403349,2
30092,76,Occitanie,30,2,5,Connaux,1750,44.0769164231,4.59924544378,2
11129,76,Occitanie,11,2,14,Espéraza,1742,42.9316895316,2.22104640259,2
11288,76,Occitanie,11,1,10,Pezens,1737,43.2548914724,2.24772297673,2
34084,76,Occitanie,34,1,3,Corneilhan,1722,43.4019158731,3.19646909988,2
32096,76,Occitanie,32,2,12,Cazaubon,1705,43.9251854258,-0.028737932075,2
12185,76,Occitanie,12,1,15,Pont-de-Salars,1704,44.277717255,2.70931526263,1
11088,76,Occitanie,11,1,3,Cazilhac,1690,43.1781298027,2.35922152634,2
46185,76,Occitanie,46,3,14,Martel,1676,44.9401536689,1.60734355344,1
31239,76,Occitanie,31,2,6,L'Isle-en-Dodon,1662,43.3811500613,0.83387534106,1
12225,76,Occitanie,12,1,11,Saint-Georges-de-Luzençon,1661,44.0565556182,2.98714381525,1
32334,76,Occitanie,32,1,13,Pujaudran,1657,43.5897953804,1.17106411645,2
82142,76,Occitanie,82,2,15,Pompignan,1656,43.8196347492,1.32921957456,2
81063,76,Occitanie,81,1,3,Castelnau-de-Lévis,1654,43.9437169399,2.07110041598,2
82097,76,Occitanie,82,1,4,Lavit,1643,43.9560822139,0.925072043975,2
12223,76,Occitanie,12,2,1,Argences en Aubrac,1641,44.8003905234,2.7434750028,1
12076,76,Occitanie,12,2,7,Conques-en-Rouergue,1640,44.5952473002,2.4201643341,1
82131,76,Occitanie,82,2,11,Montpezat-de-Quercy,1640,44.2399240236,1.47367523661,2
81238,76,Occitanie,81,2,17,Saint-Amans-Soult,1637,43.4644785772,2.47706341258,2
11081,76,Occitanie,11,1,15,Caunes-Minervois,1630,43.3327963198,2.51635482478,2
11009,76,Occitanie,11,1,10,Alzonne,1615,43.2652998624,2.17459434048,2
66026,76,Occitanie,66,1,1,Brouilla,1613,42.5745922327,2.89542921407,2
12084,76,Occitanie,12,1,11,Creissels,1613,44.064990103,3.05961986973,2
81128,76,Occitanie,81,2,14,Lacrouzette,1609,43.6622260196,2.36167467964,2
34038,76,Occitanie,34,1,6,Le Bousquet-d'Orb,1608,43.7025373477,3.15150280873,2
12021,76,Occitanie,12,3,2,Le Bas Ségala,1606,44.3386235465,2.14341113213,2
46334,76,Occitanie,46,3,9,Le Vigan,1603,44.7394789138,1.45239554217,2
34136,76,Occitanie,34,1,14,Lézignan-la-Cèbe,1594,43.4922078632,3.43960981956,2
81046,76,Occitanie,81,1,10,Cadalen,1573,43.8430473493,1.9835948491,2
81171,76,Occitanie,81,1,10,Montans,1566,43.850225684,1.86631554262,2
30147,76,Occitanie,30,1,15,Lézan,1561,44.012896173,4.05098256075,1
30184,76,Occitanie,30,2,15,Moussac,1546,43.9775652657,4.23531660629,1
11199,76,Occitanie,11,1,4,Lavalette,1545,43.1922487019,2.27058563177,1
81104,76,Occitanie,81,2,21,Giroussens,1541,43.769779769,1.7967421125,2
82038,76,Occitanie,82,2,12,Caylus,1519,44.2420637295,1.75360869362,2
30146,76,Occitanie,30,3,15,Lédignan,1515,43.9854061148,4.10852681331,2
11068,76,Occitanie,11,1,18,Capendu,1512,43.1836102247,2.5538350475,2
46015,76,Occitanie,46,2,8,Bagnac-sur-Célé,1507,44.6622315963,2.14887166878,1
9207,76,Occitanie,9,1,5,Montgailhard,1506,42.9377639768,1.64370144319,2
11255,76,Occitanie,11,3,11,Montredon-des-Corbières,1502,43.1813624756,2.92455318608,2
48039,76,Occitanie,48,2,2,Chanac,1496,44.4502200567,3.34457977647,2
66222,76,Occitanie,66,3,2,Vernet-les-Bains,1488,42.5385252811,2.41579513309,2
9289,76,Occitanie,9,3,11,Lorp-Sentaraille,1484,43.0159566285,1.10827434601,1
82094,76,Occitanie,82,1,10,Lauzerte,1471,44.2642995725,1.12713270139,1
65375,76,Occitanie,65,3,13,Rabastens-de-Bigorre,1468,43.3859669642,0.156153624575,2
30273,76,Occitanie,30,2,14,Saint-Julien-de-Peyrolas,1467,44.2832227467,4.56872809849,2
12216,76,Occitanie,12,2,9,Saint-Côme-d'Olt,1464,44.5314215162,2.82190819996,2
12148,76,Occitanie,12,3,8,Montbazens,1458,44.476808221,2.21289087598,2
81315,76,Occitanie,81,2,20,Vielmur-sur-Agout,1448,43.6274174186,2.10074049718,2
30339,76,Occitanie,30,3,22,Val-d'Aigoual,1447,44.0875534961,3.61946476562,2
32319,76,Occitanie,32,3,16,Plaisance,1446,43.6007929078,0.0437492719772,1
66130,76,Occitanie,66,3,13,Osséja,1441,42.3951873215,1.99778156297,2
81115,76,Occitanie,81,2,17,Labastide-Rouairoux,1438,43.4826602247,2.63557921234,2
11430,76,Occitanie,11,1,5,Villeneuve-la-Comptal,1421,43.285181262,1.91990066613,2
82108,76,Occitanie,82,1,3,Meauzac,1415,44.0954617752,1.23041071919,2
48132,76,Occitanie,48,2,11,Saint-Alban-sur-Limagnole,1411,44.796708709,3.40321537339,1
82171,76,Occitanie,82,2,2,Saint-Porquier,1410,44.0077030324,1.18227115286,1
32027,76,Occitanie,32,3,1,Barcelonne-du-Gers,1406,43.69328997,-0.212928744956,2
9268,76,Occitanie,9,3,11,Saint-Lizier,1399,42.9998808556,1.12929754476,2
46038,76,Occitanie,46,2,6,Bretenoux,1398,44.9142894383,1.84254876727,2
65007,76,Occitanie,65,3,17,Andrest,1397,43.3162323845,0.0661292310469,2
11332,76,Occitanie,11,3,7,Saint-André-de-Roquelongue,1394,43.0927941425,2.84905910088,1
81170,76,Occitanie,81,1,6,Monestiés,1389,44.0787915889,2.09845237087,2
11005,76,Occitanie,11,1,4,Alairac,1370,43.1820306523,2.2370439206,2
11033,76,Occitanie,11,1,1,Belpech,1367,43.2034214828,1.76339036009,2
31224,76,Occitanie,31,2,2,Gourdan-Polignan,1365,43.0693789495,0.575641802967,2
9272,76,Occitanie,9,1,12,Saint-Paul-de-Jarrat,1362,42.8959154584,1.67206872652,2
65123,76,Occitanie,65,2,4,Campan,1358,42.9614883707,0.217031289795,2
46311,76,Occitanie,46,2,6,Sousceyrac-en-Quercy,1353,44.8806327764,2.03547276303,2
9032,76,Occitanie,9,1,1,Ax-les-Thermes,1350,42.6873576342,1.81825994194,1
81081,76,Occitanie,81,2,18,Dourgne,1342,43.4753070746,2.14244605538,2
34002,76,Occitanie,34,1,14,Adissan,1329,43.535473519,3.42608475989,2
81037,76,Occitanie,81,2,14,Brassac,1329,43.6117373541,2.51133931505,2
46330,76,Occitanie,46,3,14,Vayrac,1329,44.9450597014,1.69320675098,2
46143,76,Occitanie,46,2,11,Lacapelle-Marival,1326,44.7253588918,1.93631584115,1
82117,76,Occitanie,82,1,10,Montaigu-de-Quercy,1324,44.3406420111,1.03252683687,2
81308,76,Occitanie,81,1,5,Valence-d'Albigeois,1323,44.0155454064,2.3857453557,1
31028,76,Occitanie,31,2,6,Aurignac,1312,43.2137172821,0.871496161348,2
11264,76,Occitanie,11,3,11,Névian,1310,43.2036456469,2.88578890635,2
9245,76,Occitanie,9,1,7,Rieux-de-Pelleport,1306,43.0579984327,1.59934492972,1
9264,76,Occitanie,9,1,13,Saint-Jean-de-Verges,1302,43.0129896461,1.63277165832,2
46137,76,Occitanie,46,1,3,Labastide-Marnhac,1297,44.386742628,1.38959761841,1
11178,76,Occitanie,11,1,5,Labastide-d'Anjou,1293,43.3468106616,1.85317961566,2
81101,76,Occitanie,81,1,4,Le Garric,1290,44.0037171687,2.17389452679,2
48127,76,Occitanie,48,2,11,Monts-de-Randon,1289,44.6238353175,3.4886504946,2
65127,76,Occitanie,65,2,8,Capvern,1289,43.1070380886,0.331958446057,1
32233,76,Occitanie,32,3,16,Marciac,1288,43.521249291,0.156300856185,2
11434,76,Occitanie,11,1,1,Villepinte,1287,43.2808698633,2.09551779472,2
11140,76,Occitanie,11,3,7,Ferrals-les-Corbières,1277,43.1431544039,2.7387140866,2
66160,76,Occitanie,66,1,2,Reynès,1273,42.475553684,2.70559051736,2
32331,76,Occitanie,32,1,10,Preignan,1272,43.7210485292,0.636835530591,1
11132,76,Occitanie,11,3,7,Fabrezan,1271,43.1259965939,2.70495303156,2
81317,76,Occitanie,81,1,13,Villefranche-d'Albigeois,1264,43.8923990872,2.32246933503,2
11190,76,Occitanie,11,1,15,La Redorte,1263,43.2477384944,2.64987073042,2
81276,76,Occitanie,81,1,23,Salvagnac,1261,43.9201151478,1.67981306162,2
65069,76,Occitanie,65,2,8,La Barthe-de-Neste,1260,43.0794759843,0.382949945071,2
12119,76,Occitanie,12,2,1,Laguiole,1257,44.6942493054,2.86714579983,2
12286,76,Occitanie,12,1,19,Vabres-l'Abbaye,1250,43.9213497351,2.81975476984,2
12305,76,Occitanie,12,3,7,Viviez,1248,44.5563780482,2.22049316685,2
48103,76,Occitanie,48,2,3,Montrodat,1245,44.5574972812,3.32949888703,2
46156,76,Occitanie,46,1,2,Bellefont-La Rauze,1243,44.4871654588,1.47065780509,1
82101,76,Occitanie,82,1,4,Malause,1236,44.0899884213,0.971913032435,2
32149,76,Occitanie,32,2,2,Gondrin,1233,43.8786441863,0.260411080095,2
46297,76,Occitanie,46,3,9,Salviac,1233,44.6854910837,1.26478802676,2
30165,76,Occitanie,30,1,4,Méjannes-lès-Alès,1232,44.10161097,4.15129605543,2
9188,76,Occitanie,9,1,12,Mercus-Garrabet,1227,42.8795171828,1.6442180232,2
82052,76,Occitanie,82,2,2,Escatalens,1221,43.9817694616,1.19368002494,2
82042,76,Occitanie,82,1,10,Cazes-Mondenard,1219,44.2128308252,1.21516583038,2
32079,76,Occitanie,32,2,2,Castelnau d'Auzan Labarrère,1217,43.9434923568,0.10186302495,2
32162,76,Occitanie,32,1,10,Jegun,1210,43.7570244971,0.444927159956,2
32155,76,Occitanie,32,2,12,Le Houga,1209,43.7695328695,-0.185293783845,2
82089,76,Occitanie,82,1,14,Lamagistère,1202,44.1320571715,0.821877164854,2
9181,76,Occitanie,9,3,2,Le Mas-d'Azil,1199,43.0692744925,1.34937176896,2
46197,76,Occitanie,46,1,3,Le Montat,1194,44.3804715298,1.45487916761,2
32425,76,Occitanie,32,1,13,Ségoufielle,1187,43.6308520432,1.13179553628,2
65447,76,Occitanie,65,3,14,Tournay,1185,43.1857191109,0.247816207827,1
65395,76,Occitanie,65,1,5,Saint-Pé-de-Bigorre,1177,43.0842866025,-0.157552870418,1
81261,76,Occitanie,81,2,21,Saint-Lieux-lès-Lavaur,1176,43.7554264288,1.74752680249,2
82080,76,Occitanie,82,1,3,Labastide-du-Temple,1175,44.0810961823,1.20235818385,2
65198,76,Occitanie,65,2,4,Gerde,1169,43.0586379729,0.177947425719,2
46191,76,Occitanie,46,1,1,Mercuès,1160,44.4979192471,1.38947522255,2
12130,76,Occitanie,12,3,7,Livinhac-le-Haut,1153,44.5972432577,2.21621082428,2
11091,76,Occitanie,11,2,14,Chalabre,1151,42.9817651679,2.01049024009,2
46045,76,Occitanie,46,2,5,Cajarc,1149,44.494117576,1.83859373388,1
32012,76,Occitanie,32,1,5,Aubiet,1147,43.6535011222,0.784637869521,1
65362,76,Occitanie,65,1,16,Pierrefitte-Nestalas,1144,42.9622556048,-0.0749478244802,2
32459,76,Occitanie,32,2,7,Valence-sur-Baïse,1141,43.8682182718,0.363460547299,2
46083,76,Occitanie,46,3,14,Cressensac-Sarrazac,1140,45.0196029129,1.52229424789,2
46055,76,Occitanie,46,2,8,Capdenac,1139,44.5849536866,2.06705309524,2
12105,76,Occitanie,12,3,2,La Fouillade,1138,44.2345851449,2.04784404559,2
11267,76,Occitanie,11,3,8,Ornaisons,1138,43.1784619561,2.83659066279,2
32252,76,Occitanie,32,3,15,Miélan,1135,43.4293162971,0.310399473004,2
32370,76,Occitanie,32,2,9,Saint-Clar,1115,43.8928262507,0.761393836193,2
48017,76,Occitanie,48,2,2,Banassac-Canilhac,1114,44.4325411696,3.17908745544,2
12001,76,Occitanie,12,1,3,Agen-d'Aveyron,1112,44.3513031939,2.69339680513,1
32426,76,Occitanie,32,3,3,Seissan,1108,43.4981861217,0.571544728531,2
12162,76,Occitanie,12,3,5,Moyrazès,1104,44.3275804769,2.42736716891,2
48027,76,Occitanie,48,2,13,Mont Lozère et Goulet,1092,44.5107452501,3.74294007436,1
9047,76,Occitanie,9,2,9,Bélesta,1090,42.8934707761,1.95274389658,2
34197,76,Occitanie,34,2,14,Péret,1086,43.5749250914,3.39831770364,1
65284,76,Occitanie,65,3,9,Louey,1080,43.1791075195,0.0196023682592,2
34103,76,Occitanie,34,2,14,Fontès,1071,43.5419967541,3.39026556007,2
46095,76,Occitanie,46,1,4,Espère,1065,44.5141184572,1.37059320975,1
81168,76,Occitanie,81,1,5,Mirandol-Bourgnounac,1058,44.1468118913,2.17074535227,2
66096,76,Occitanie,66,3,15,Latour-de-France,1056,42.7704659309,2.65156604374,2
12200,76,Occitanie,12,1,20,Rivière-sur-Tarn,1056,44.2108724191,3.12758575217,1
12044,76,Occitanie,12,1,4,Camarès,1055,43.8183603178,2.88523152665,2
9124,76,Occitanie,9,3,2,Le Fossat,1053,43.1796907844,1.41506357343,2
32083,76,Occitanie,32,1,7,Castéra-Verduzan,1038,43.8015571753,0.433315812149,1
12253,76,Occitanie,12,1,15,Salles-Curan,1035,44.159383352,2.78625740284,2
9209,76,Occitanie,9,3,11,Montjoie-en-Couserans,1031,43.0152342505,1.17565361444,2
48013,76,Occitanie,48,2,6,Badaroux,1027,44.5399034165,3.55404283598,1
65452,76,Occitanie,65,3,3,Trie-sur-Baïse,1027,43.3175400046,0.365986553654,1
82072,76,Occitanie,82,1,14,Golfech,1025,44.1100274334,0.856994008348,2
46103,76,Occitanie,46,1,13,Saint-Paul-Flaugnac,1020,44.2910612603,1.40914730428,2
12168,76,Occitanie,12,1,12,Nant,1010,44.0206117427,3.28565334346,1
46007,76,Occitanie,46,1,2,Arcambal,1009,44.4543698318,1.54748898105,2
9042,76,Occitanie,9,3,3,La Bastide-de-Sérou,1004,43.0242795037,1.42677885373,1
30046,76,Occitanie,30,1,15,Boucoiran-et-Nozières,1003,43.9938436911,4.17905217935,2
11085,76,Occitanie,11,1,3,Cavanac,1001,43.1689835434,2.33479005955,2
12094,76,Occitanie,12,2,10,Entraygues-sur-Truyère,999,44.6544227279,2.57843798744,2
12140,76,Occitanie,12,3,23,Martiel,999,44.3811674619,1.91298331714,2
32106,76,Occitanie,32,2,11,Cologne,997,43.7176064858,0.975053061253,2
82023,76,Occitanie,82,2,2,Bourret,992,43.9436352242,1.15609472542,2
65389,76,Occitanie,65,2,15,Saint-Laurent-de-Neste,990,43.0920150867,0.480853074724,2
11289,76,Occitanie,11,2,9,Pieusse,985,43.0830763343,2.25477345035,2
12025,76,Occitanie,12,1,4,Belmont-sur-Rance,982,43.8248066613,2.75112588712,2
9336,76,Occitanie,9,2,9,Villeneuve-d'Olmes,978,42.9114883664,1.82063042142,2
30330,76,Occitanie,30,1,15,Tornac,973,44.0186321006,3.98505349689,2
48094,76,Occitanie,48,1,2,Massegros Causses Gorges,972,44.2937484234,3.15910137508,1
12243,76,Occitanie,12,1,19,Saint-Rome-de-Cernon,970,44.0092815524,2.98362792023,2
12057,76,Occitanie,12,3,13,Cassagnes-Bégonhès,969,44.1789643613,2.51462788603,2
66023,76,Occitanie,66,3,2,Bouleternère,966,42.6445403346,2.58787927866,2
46175,76,Occitanie,46,2,7,Lissac-et-Mouret,962,44.6228358432,1.97160948476,1
11037,76,Occitanie,11,1,18,Berriac,960,43.21409862,2.40773271657,2
46089,76,Occitanie,46,1,15,Duravel,956,44.5165803218,1.08355706377,2
12136,76,Occitanie,12,3,23,Maleville,954,44.3999943584,2.10361790019,2
48042,76,Occitanie,48,2,11,Chastel-Nouvel,952,44.5707532071,3.49280598377,2
46170,76,Occitanie,46,2,16,Leyme,950,44.7838029634,1.89700443992,2
65295,76,Occitanie,65,1,16,Luz-Saint-Sauveur,944,42.8320053922,0.0163906780322,2
11293,76,Occitanie,11,2,9,Pomas,943,43.1071292824,2.28053295596,2
48146,76,Occitanie,48,1,5,Gorges du Tarn Causses,938,44.3777129567,3.41934570392,2
11111,76,Occitanie,11,3,8,Cruscades,930,43.200032094,2.81675386265,2
46268,76,Occitanie,46,1,5,Saint Géry-Vers,927,44.4863902583,1.6001798484,1
48075,76,Occitanie,48,1,5,Ispagnac,925,44.3984529023,3.53146290562,2
46064,76,Occitanie,46,1,4,Catus,921,44.5584146549,1.34151024683,2
81248,76,Occitanie,81,2,12,Saint-Gauzens,919,43.7421086865,1.88132892487,2
46138,76,Occitanie,46,3,5,Cœur de Causse,918,44.6484325779,1.58028882268,1
81249,76,Occitanie,81,1,5,Sainte-Gemme,916,44.0888853221,2.19609081106,2
12002,76,Occitanie,12,1,12,Aguessac,916,44.1613901609,3.06898957805,2
32301,76,Occitanie,32,1,10,Ordan-Larroque,908,43.6837953357,0.477177140595,2
12244,76,Occitanie,12,1,15,Saint-Rome-de-Tarn,899,44.0328970436,2.8904868402,2
48156,76,Occitanie,48,2,3,Saint-Germain-du-Teil,883,44.48168833,3.17237902865,2
65366,76,Occitanie,65,1,5,Poueyferré,871,43.1194383468,-0.0813313513521,2
46273,76,Occitanie,46,2,16,Saint-Laurent-les-Tours,870,44.8817459131,1.90434395957,2
32412,76,Occitanie,32,1,3,Saramon,866,43.5243197387,0.760359973861,1
11034,76,Occitanie,11,2,1,Belvèze-du-Razès,859,43.1243426589,2.09178940091,1
32464,76,Occitanie,32,3,15,Villecomtal-sur-Arros,857,43.4001487787,0.200965512965,2
9238,76,Occitanie,9,2,8,Les Pujols,857,43.0917243273,1.71845001991,2
65388,76,Occitanie,65,2,8,Saint-Lary-Soulan,855,42.7591645461,0.28622709133,2
81274,76,Occitanie,81,1,2,Saliès,850,43.8859141044,2.13293354556,2
9121,76,Occitanie,9,1,5,Ferrières-sur-Ariège,849,42.9382958572,1.60726284155,2
46088,76,Occitanie,46,1,12,Douelle,847,44.4711707333,1.35541899313,2
46322,76,Occitanie,46,1,3,Trespoux-Rassiels,842,44.4215309294,1.35834286851,2
65002,76,Occitanie,65,1,6,Adé,836,43.1415839472,-0.0260255659904,1
65129,76,Occitanie,65,3,3,Castelnau-Magnoac,814,43.2950835364,0.515143167541,2
12257,76,Occitanie,12,3,8,Causse-et-Diège,814,44.5282954974,2.03482919718,2
46145,76,Occitanie,46,3,17,Lachapelle-Auzac,805,44.9380023584,1.48031197912,2
66107,76,Occitanie,66,3,15,Maury,801,42.8152827939,2.61292653306,2
46220,76,Occitanie,46,3,17,Pinsac,800,44.8610534659,1.51873154289,2
65048,76,Occitanie,65,3,17,Aurensan,799,43.3062200799,0.0955012093615,2
11024,76,Occitanie,11,3,12,Bages,797,43.1176416685,2.97718129024,2
46080,76,Occitanie,46,1,4,Crayssac,796,44.5167654701,1.32994493249,2
9339,76,Occitanie,9,2,10,Villeneuve-du-Paréage,792,43.1586748014,1.64287363091,2
12011,76,Occitanie,12,1,13,Arvieu,791,44.1907834578,2.66728393102,2
12255,76,Occitanie,12,1,13,Salmiech,788,44.1937884405,2.58717278711,2
12205,76,Occitanie,12,3,22,La Rouquette,786,44.3097319748,1.9747853664,2
9214,76,Occitanie,9,3,4,Moulis,784,42.9438845213,1.09852869482,2
65101,76,Occitanie,65,3,14,Bordes,773,43.1982212521,0.214667029062,2
82127,76,Occitanie,82,1,5,Montesquieu,772,44.1792539863,1.06193133749,2
30104,76,Occitanie,30,2,15,Domessargues,771,43.9732979744,4.16569285159,2
32001,76,Occitanie,32,3,1,Aignan,769,43.6944329355,0.0870356646596,2
48070,76,Occitanie,48,2,6,Grandrieu,769,44.7775011056,3.64068574736,2
82144,76,Occitanie,82,2,10,Puycornet,766,44.1546581959,1.32199868953,2
82189,76,Occitanie,82,2,10,Vazerac,762,44.195295259,1.27659596104,2
12209,76,Occitanie,12,2,1,Saint-Amans-des-Cots,762,44.6868560667,2.69135482513,2
9182,76,Occitanie,9,3,3,Massat,744,42.8756880579,1.37725705929,2
48051,76,Occitanie,48,1,4,Le Collet-de-Dèze,734,44.2554480808,3.92521509971,1
9244,76,Occitanie,9,2,6,Rieucros,732,43.0760375517,1.76327077527,2
12237,76,Occitanie,12,2,20,Saint-Laurent-d'Olt,730,44.4481544099,3.10140451864,2
46100,76,Occitanie,46,2,7,Faycelles,726,44.5656631085,1.99228446364,2
12231,76,Occitanie,12,1,12,Saint-Jean-du-Bruel,724,44.0262087023,3.38224826789,2
32433,76,Occitanie,32,1,17,Simorre,724,43.457392326,0.73670535692,2
46176,76,Occitanie,46,2,11,Livernon,723,44.6474230613,1.84523595274,2
81076,76,Occitanie,81,2,15,Cuq-Toulza,721,43.5623792755,1.88686468644,2
46021,76,Occitanie,46,2,7,Béduer,720,44.5711043331,1.92666440325,2
9285,76,Occitanie,9,3,3,Seix,718,42.8178331497,1.14814568291,2
32286,76,Occitanie,32,2,9,Montestruc-sur-Gers,717,43.7935827191,0.627663665443,2
46149,76,Occitanie,46,1,2,Lamagdelaine,717,44.4740446239,1.50163136259,2
46003,76,Occitanie,46,3,10,Alvignac,716,44.8338975947,1.68546472783,2
11261,76,Occitanie,11,3,18,Moux,715,43.1727610204,2.64604983695,1
81195,76,Occitanie,81,2,9,Navès,712,43.5644376165,2.21838218726,1
65183,76,Occitanie,65,2,14,Galan,711,43.2229884965,0.403470787681,1
82093,76,Occitanie,82,1,2,Larrazet,710,43.9324522931,1.08287865971,2
32036,76,Occitanie,32,3,16,Beaumarchés,697,43.5864405522,0.106916356793,2
82063,76,Occitanie,82,1,2,Garganvillar,696,43.9752270104,1.06428038626,2
48147,76,Occitanie,48,2,13,Saint-Étienne-du-Valdonnez,690,44.4420560828,3.57373923919,2
32312,76,Occitanie,32,1,6,Pessan,687,43.6087293249,0.664949028866,1
32029,76,Occitanie,32,3,4,Barran,684,43.6220194252,0.448452323881,1
46009,76,Occitanie,46,2,11,Assier,680,44.6722095867,1.87432181008,2
65369,76,Occitanie,65,3,3,Pouyastruc,666,43.2680458723,0.171366694638,2
30183,76,Occitanie,30,2,15,Moulézan,665,43.9255132059,4.12932302147,2
32282,76,Occitanie,32,1,5,Montégut,663,43.6420882254,0.668712450968,2
12287,76,Occitanie,12,3,22,Vailhourles,654,44.3082129467,1.90937722563,2
12213,76,Occitanie,12,1,20,Saint-Beauzély,640,44.1692617514,2.96666926692,2
11299,76,Occitanie,11,1,4,Preixan,639,43.143749642,2.28019165667,2
65287,76,Occitanie,65,2,15,Loures-Barousse,638,43.0272522696,0.603543320181,2
46240,76,Occitanie,46,3,10,Rocamadour,637,44.8148525753,1.62220346544,2
46180,76,Occitanie,46,2,8,Lunan,633,44.6107026353,2.08424669582,2
48137,76,Occitanie,48,2,13,Saint-Bauzile,632,44.4690744788,3.49143883359,2
12234,76,Occitanie,12,3,13,Sainte-Juliette-sur-Viaur,632,44.2186396438,2.50113925253,2
65130,76,Occitanie,65,3,13,Castelnau-Rivière-Basse,630,43.5804567818,-0.0282406541212,2
82001,76,Occitanie,82,1,9,Albefeuille-Lagarde,626,44.0482971636,1.27398142654,1
65147,76,Occitanie,65,2,14,Cieutat,624,43.1222598008,0.213094773599,2
11197,76,Occitanie,11,2,1,Lauraguel,621,43.0965194461,2.17010023085,2
48128,76,Occitanie,48,2,12,Rimeize,617,44.764646204,3.31719285575,2
32095,76,Occitanie,32,2,7,Caussens,605,43.9471704365,0.441602960063,2
46204,76,Occitanie,46,3,4,Montfaucon,601,44.6868814093,1.58516687281,1
48104,76,Occitanie,48,2,1,Nasbinals,597,44.6444140961,3.04893734063,2
46267,76,Occitanie,46,3,4,Saint-Germain-du-Bel-Air,579,44.6460780421,1.44147433368,2
65070,76,Occitanie,65,1,5,Bartrès,578,43.1330236195,-0.0546585429956,2
32123,76,Occitanie,32,1,11,Escornebœuf,578,43.6455146384,0.911624650166,2
48002,76,Occitanie,48,2,12,Albaret-Sainte-Marie,578,44.8864422814,3.25064355451,2
32345,76,Occitanie,32,2,14,La Romieu,576,43.9866068735,0.503612353282,2
48116,76,Occitanie,48,1,13,Pont de Montvert - Sud Mont Lozère,572,44.3742853816,3.76917997857,1
34045,76,Occitanie,34,2,14,Cabrières,567,43.5777973112,3.34800607563,2
32076,76,Occitanie,32,1,3,Castelnau-Barbarens,557,43.5810895622,0.724408794123,2
48038,76,Occitanie,48,2,6,Bel-Air-Val-d'Ance,552,44.8556410691,3.65464522563,2
9119,76,Occitanie,9,3,4,Eycheil,552,42.9553633761,1.15625348151,2
32253,76,Occitanie,32,2,14,Miradoux,549,43.9947437393,0.758879620932,2
82099,76,Occitanie,82,1,5,Lizac,547,44.1127415173,1.18684429621,2
12265,76,Occitanie,12,2,10,Sébrazac,544,44.537422675,2.65492320608,2
12296,76,Occitanie,12,1,20,Viala-du-Tarn,541,44.0855039631,2.83906955497,2
46132,76,Occitanie,46,2,10,Issendolus,538,44.7387423552,1.77955688281,1
32019,76,Occitanie,32,1,6,Auterive,537,43.5796421888,0.632117026282,2
9050,76,Occitanie,9,2,7,Benagues,536,43.0777992381,1.60901857498,2
48148,76,Occitanie,48,1,4,Saint-Étienne-Vallée-Française,526,44.1711188054,3.8568943356,2
9176,76,Occitanie,9,1,1,Luzenac,522,42.7200086673,1.74308334552,2
32190,76,Occitanie,32,2,8,Lannepax,519,43.808107132,0.224965235255,1
32448,76,Occitanie,32,2,11,Touget,519,43.6868075437,0.918063549202,2
81269,76,Occitanie,81,2,8,Saint-Salvy-de-la-Balme,513,43.6117421353,2.37969793328,2
30151,76,Occitanie,30,2,3,Lussan,506,44.1667929571,4.37557833137,1
32237,76,Occitanie,32,1,5,Marsan,486,43.6479275697,0.723516841894,2
48155,76,Occitanie,48,1,4,Saint-Germain-de-Calberte,476,44.2216658847,3.81002631474,2
31109,76,Occitanie,31,2,6,Cassagnabère-Tournas,471,43.2311062604,0.799151440801,2
48194,76,Occitanie,48,1,13,Vialas,469,44.3430125499,3.89043012589,2
65236,76,Occitanie,65,1,6,Julos,467,43.1190514683,-0.00206249429953,2
48050,76,Occitanie,48,1,13,Bédouès-Cocurès,463,44.3539456684,3.61955972065,2
12047,76,Occitanie,12,2,20,Campagnac,455,44.4014190434,3.08798041232,2
32231,76,Occitanie,32,1,8,Marambat,447,43.7786875916,0.323828466495,2
48025,76,Occitanie,48,2,1,Les Bessons,444,44.77338024,3.24344025739,2
81149,76,Occitanie,81,1,21,Loupiac,442,43.8241806897,1.78265206515,2
12268,76,Occitanie,12,2,7,Sénergues,440,44.6062228544,2.46311277374,2
32388,76,Occitanie,32,1,11,Sainte-Marie,433,43.6724633331,0.866328839626,2
9056,76,Occitanie,9,2,7,Bézac,424,43.1525065182,1.57354933771,2
31024,76,Occitanie,31,1,7,Auragne,423,43.3912857783,1.50909342818,1
9283,76,Occitanie,9,1,1,Savignac-les-Ormeaux,414,42.6824950812,1.77944672349,2
32381,76,Occitanie,32,3,4,Saint-Jean-le-Comtal,413,43.5737293634,0.514611237658,2
32110,76,Occitanie,32,2,8,Courrensan,402,43.842950369,0.241076890642,2
46054,76,Occitanie,46,3,5,Caniac-du-Causse,395,44.6300356626,1.65611420144,2
48105,76,Occitanie,48,2,7,Naussac-Fontanes,388,44.7573739721,3.8000356543,2
11337,76,Occitanie,11,3,18,Saint-Couat-d'Aude,385,43.2084644434,2.63710097186,2
11216,76,Occitanie,11,2,1,Malviès,377,43.1174399011,2.18395387404,2
32200,76,Occitanie,32,3,4,Lasséran,377,43.6034958124,0.526620389373,2
48126,76,Occitanie,48,2,8,Lachamp-Ribennes,374,44.6498972232,3.386003003,2
65303,76,Occitanie,65,3,14,Mascaras,373,43.1923766337,0.174125977844,2
46114,76,Occitanie,46,3,15,Frayssinet-le-Gélat,372,44.5902258251,1.14402120648,1
48010,76,Occitanie,48,2,7,Auroux,371,44.7574886567,3.72694597224,2
65271,76,Occitanie,65,1,6,Lézignan,361,43.098874846,-0.00717400670291,2
12221,76,Occitanie,12,2,7,Saint-Félix-de-Lunel,360,44.5645678324,2.51363543065,2
46219,76,Occitanie,46,3,4,Peyrilles,357,44.6213062372,1.39338062663,2
32122,76,Occitanie,32,3,3,Esclassan-Labastide,357,43.4161811903,0.552126229054,2
32201,76,Occitanie,32,3,6,Lasseube-Propre,353,43.5727715292,0.575516716894,1
48005,76,Occitanie,48,2,8,Antrenas,331,44.5881108325,3.25393256642,2
46320,76,Occitanie,46,1,5,Tour-de-Faure,328,44.4763123907,1.68646550409,2
32115,76,Occitanie,32,2,8,Dému,328,43.7618537122,0.166713123878,2
32382,76,Occitanie,32,1,8,Saint-Jean-Poutge,326,43.7345063644,0.381202830374,2
46252,76,Occitanie,46,3,5,Les Pechs du Vers,322,44.5992781487,1.58540945458,2
46129,76,Occitanie,46,2,5,Gréalou,300,44.5419774396,1.8758160179,2
32300,76,Occitanie,32,3,6,Orbessan,290,43.5464677583,0.616126674006,2
9081,76,Occitanie,9,2,8,Le Carlaret,286,43.1307609911,1.69416376028,2
65224,76,Occitanie,65,2,14,Houeydets,286,43.1547737607,0.353267560435,2
46094,76,Occitanie,46,2,5,Espédaillac,273,44.6313262107,1.77517916048,2
46200,76,Occitanie,46,3,15,Montcléra,266,44.6203221327,1.19833953446,2
30035,76,Occitanie,30,2,3,Belvézet,241,44.0908103949,4.3554328805,2
30113,76,Occitanie,30,2,3,Fons-sur-Lussan,236,44.1854366663,4.32720441708,2
12072,76,Occitanie,12,1,11,Comprégnac,235,44.0964783684,2.97961913091,2
81221,76,Occitanie,81,2,13,Rayssac,235,43.8037266652,2.42461409466,2
46040,76,Occitanie,46,1,5,Cabrerets,233,44.5167459006,1.6198024468,2
32302,76,Occitanie,32,3,6,Ornézan,226,43.5131064051,0.597407861877,2
46126,76,Occitanie,46,3,15,Goujounac,221,44.5750476412,1.20089199371,2
32018,76,Occitanie,32,1,3,Aurimont,217,43.5649829798,0.828905981101,2
81183,76,Occitanie,81,2,13,Mont-Roc,194,43.8056390894,2.37632529774,2
9300,76,Occitanie,9,1,9,Soula,183,42.9407714858,1.69062685843,1
46235,76,Occitanie,46,2,10,Reilhac,174,44.7017845632,1.72572975091,2
32024,76,Occitanie,32,1,7,Ayguetinte,162,43.8324278378,0.418923178256,2
46090,76,Occitanie,46,2,10,Durbans,153,44.6792000888,1.76742895294,2
48088,76,Occitanie,48,1,2,La Malène,139,44.3020788352,3.31365173313,2
11318,76,Occitanie,11,3,18,Roquecourbe-Minervois,137,43.2149762004,2.65409823353,2
9021,76,Occitanie,9,1,7,Artix,121,43.0669064267,1.56256658589,2
81041,76,Occitanie,81,1,11,Broze,117,43.9545871483,1.89131601329,2
9256,76,Occitanie,9,1,7,Saint-Bauzeil,59,43.082423951,1.58105497045,2
