,name,population,lat,lon
0,L'ABERGEMENT-DE-VAREY,0.2,46.0091878776,5.42801696363
1,AMBERIEU-EN-BUGEY,13.4,45.9608475114,5.3729257777
2,BAGE-LE-CHATEL,0.8,46.3077069231,4.92862084189
3,BIZIAT,0.8,46.2266794269,4.94084673168
4,CERTINES,1.4,46.1337950959,5.26239539372
5,DROM,0.2,46.2196603059,5.36799994918
6,GEOVREISSET,0.9,46.2508621615,5.61271973915
7,LAIZ,1.1,46.2469919709,4.89933490972
8,LE PLANTAY,0.5,46.0230264227,5.08912046926
9,SAINT-GENIS-POUILLY,8.6,46.254539333,6.0362907345
10,SAINT-GERMAIN-SUR-RENON,0.2,46.0797285417,5.06090903982
11,THOISSEY,1.5,46.1700943481,4.79387095814
12,VANDEINS,0.6000000000000001,46.217806795,5.08189056957
13,VESANCY,0.5,46.3610768127,6.08470665475
14,VIRIEU-LE-PETIT,0.30000000000000004,45.9063608209,5.73707051523
15,BERGUES-SUR-SAMBRE,0.2,50.0294686238,3.711371001
16,BEUGNEUX,0.1,49.2275759309,3.41647403702
17,BONNESVALYN,0.2,49.1264049496,3.32541661771
18,BOURGUIGNON-SOUS-MONTBAVIN,0.1,49.5288056883,3.53777236106
19,BRAYE-EN-THIERACHE,0.1,49.7675470994,3.96265841899
20,BRIE,0.1,49.5973962294,3.4733634659
21,BUCY-LES-PIERREPONT,0.4,49.6467998089,3.90358311553
22,LE CATELET,0.2,50.0009779444,3.2423098464
23,COURCHAMPS,0.1,49.1164230809,3.26303714363
24,ERLOY,0.1,49.9195909244,3.83764920476
25,ESSIGNY-LE-GRAND,1.1,49.7740780116,3.27214459324
26,LEHAUCOURT,0.9,49.911760676,3.27675235436
27,MERCIN-ET-VAUX,0.9,49.3705627456,3.27070140635
28,MORCOURT,0.6000000000000001,49.8759595448,3.33400206098
29,MURET-ET-CROUTTES,0.1,49.2781417953,3.43464742094
30,PINON,1.8,49.488480349,3.46156583024
31,SAINT-BANDRY,0.2,49.3638994868,3.14949009826
32,SAINT-GOBAIN,2.3,49.5953887213,3.39411143672
33,SORBAIS,0.30000000000000004,49.9137614487,3.88302482521
34,LE THUEL,0.2,49.6413105954,4.08903091475
35,VILLERS-EN-PRAYERES,0.1,49.3787305029,3.67067176183
36,ANDELAROCHE,0.30000000000000004,46.2501153137,3.74613192809
37,ARRONNES,0.4,46.0520854633,3.57527535836
38,BLOMARD,0.2,46.2883371774,2.9626756681
39,BRESNAY,0.4,46.4335692397,3.24899330539
40,COLOMBIER,0.30000000000000004,46.2669829489,2.7937131637
41,ECHASSIERES,0.4,46.1956641038,2.94596916837
42,JALIGNY-SUR-BESBRE,0.6000000000000001,46.3770497759,3.59029838546
43,LE MAYET-DE-MONTAGNE,1.6,46.0602181682,3.65546570851
44,PARAY-SOUS-BRIAILLES,0.6000000000000001,46.2903733952,3.36980984118
45,PERIGNY,0.5,46.2466695762,3.56039743926
46,SAINT-DIDIER-EN-DONJON,0.30000000000000004,46.3830807017,3.86098077845
47,SAINT-MARCEL-EN-MARCILLAT,0.1,46.1532804539,2.58075381141
48,SAINT-MARTIN-DES-LAIS,0.1,46.6742609191,3.65661845694
49,SAINT-MENOUX,1.0,46.5823923172,3.14494082801
50,SAINT-PRIX,0.8,46.2252273378,3.64894031518
51,BRAS-D'ASSE,0.5,43.9263257197,6.12649772452
52,CHATEAUFORT,0.0,44.2750461186,6.0296701152
53,NIOZELLES,0.2,43.9318568104,5.84735007889
54,PUIMICHEL,0.30000000000000004,43.9791657071,6.02538678185
55,LA FARE-EN-CHAMPSAUR,0.4,44.6653766254,6.05826038858
56,NEFFES,0.7000000000000001,44.4958417609,6.02550737641
57,PELLEAUTIER,0.6000000000000001,44.5102662977,5.99877739937
58,SAINT-CREPIN,0.6000000000000001,44.7243260485,6.63555027257
59,VENTAVON,0.5,44.3856656442,5.88845374579
60,BEAULIEU-SUR-MER,3.7,43.7079039397,7.33256934881
61,BERRE-LES-ALPES,1.3,43.8378738812,7.33076301102
62,BONSON,0.7000000000000001,43.8622934824,7.1827870979
63,ESCRAGNOLLES,0.6000000000000001,43.7294033373,6.7833728891
64,NICE,340.7,43.7119992661,7.23826889465
65,PUGET-ROSTANG,0.1,43.9872004758,6.93685582204
66,SAINT-VALLIER-DE-THIEY,3.3,43.696895033,6.85062748704
67,VILLENEUVE-LOUBET,15.1,43.6492560734,7.10728434873
68,ANDANCE,1.1,45.2279590632,4.79738593664
69,COUX,1.7000000000000002,44.7432838199,4.62306333755
70,LABEGUDE,1.4,44.6420481125,4.35738052578
71,PONT-DE-LABEAUME,0.6000000000000001,44.6657587714,4.29738768266
72,ROMPON,1.0,44.7787195427,4.73009856646
73,SAINT-CHRISTOL,0.1,44.8696306888,4.43824066016
74,SAINT-GENEST-DE-BEAUZON,0.2,44.4451273836,4.18697019048
75,SAINTE-MARGUERITE-LAFIGERE,0.1,44.4845583529,3.99775571578
76,SAINT-ROMAIN-D'AY,1.0,45.1657034684,4.68149456221
77,UCEL,1.9,44.6426743916,4.38805305163
78,VALS-LES-BAINS,3.8,44.6671044258,4.3432629413
79,VERNON,0.2,44.506232057,4.2261837868
80,ARDEUIL-ET-MONTFAUXELLES,0.1,49.26723401,4.70481330264
81,BALAN,1.6,49.6897594511,4.96358286973
82,CHAGNY,0.2,49.5720292475,4.69971401833
83,CHAMPIGNEUL-SUR-VENCE,0.1,49.7043891652,4.66376922101
84,CHAPPES,0.1,49.6074225712,4.2794051826
85,COULOMMES-ET-MARQUENY,0.1,49.4295524989,4.57430150955
86,GLAIRE,0.9,49.7168781678,4.9057121108
87,MAZERNY,0.1,49.610898748,4.61820857627
88,LES MAZURES,0.9,49.8968391326,4.63190460974
89,QUATRE-CHAMPS,0.2,49.4459378032,4.77673410789
90,RENNEVILLE,0.2,49.6508149655,4.13569086647
91,RETHEL,7.7,49.5131807048,4.3835241644
92,SUZANNE,0.1,49.5196448821,4.63904554401
93,VRIGNE-AUX-BOIS,3.5,49.7370150528,4.85605381662
94,ASTON,0.2,42.680832026,1.65945312513
95,BONAC-IRAZEIN,0.1,42.840844647,0.982612922888
96,LES BORDES-SUR-ARIZE,0.5,43.1130459282,1.36643495416
97,CARLA-BAYLE,0.8,43.1575348436,1.37254711167
98,CASTELNAU-DURBAN,0.4,42.9928317992,1.33850962777
99,DALOU,0.8,43.0288762332,1.64821776091
100,LACAVE,0.1,43.0470411913,1.01294653058
101,LACOURT,0.2,42.9330702659,1.17065014177
102,LEZAT-SUR-LEZE,2.3,43.280210332,1.34476803133
103,MOULIS,0.8,42.9438845213,1.09852869482
104,ORGIBET,0.2,42.9263246353,0.938509265904
105,REGAT,0.1,42.9885315709,1.88732041565
106,ROQUEFORT-LES-CASCADES,0.1,42.9610533574,1.74338927244
107,SEIX,0.8,42.8178331497,1.14814568291
108,SENCONAC,0.0,42.8128619696,1.71656632425
109,BOSSANCOURT,0.2,48.2832853612,4.61146739237
110,CHAPPES,0.30000000000000004,48.1659482698,4.25688351486
111,ERVY-LE-CHATEL,1.2,48.0557945163,3.90532960286
112,ISLE-AUMONT,0.5,48.2054661706,4.12228896976
113,ISLE-AUBIGNY,0.2,48.5438287791,4.28206755992
114,LHUITRE,0.30000000000000004,48.5811831935,4.27395119742
115,MEURVILLE,0.2,48.2042902297,4.60493225781
116,PERIGNY-LA-ROSE,0.1,48.55364742,3.62433153025
117,PRUSY,0.1,47.9739129756,4.05129486893
118,SAINT-HILAIRE-SOUS-ROMILLY,0.4,48.4978643652,3.65717692243
119,VAUPOISSON,0.1,48.5007015249,4.216312839
120,VILLY-EN-TRODES,0.30000000000000004,48.1969362165,4.38937663411
121,ANTUGNAC,0.30000000000000004,42.9622347688,2.21863246536
122,ARZENS,1.1,43.2008547509,2.20537916173
123,AUNAT,0.0,42.7889932939,2.10048727427
124,BELLEGARDE-DU-RAZES,0.2,43.1076849546,2.05088227839
125,BOUTENAC,0.7000000000000001,43.1464757563,2.79815661148
126,CASTANS,0.1,43.4141480376,2.48796143931
127,CLERMONT-SUR-LAUQUET,0.0,43.0464846976,2.4293167495
128,COURTAULY,0.1,43.0409426208,2.04467462056
129,EMBRES-ET-CASTELMAURE,0.2,42.9295753013,2.81822778929
130,FA,0.4,42.9276860891,2.17956693905
131,FRAISSE-DES-CORBIERES,0.2,42.9614186239,2.87149437178
132,LAGRASSE,0.6000000000000001,43.0957230349,2.60436046295
133,MERIAL,0.0,42.7713628009,1.96356419202
134,MISSEGRE,0.1,43.0021750779,2.37277504963
135,MONTIRAT,0.1,43.168735923,2.4320979662
136,MOUSSAN,1.8,43.2305950634,2.95635636294
137,OUVEILLAN,2.2,43.2931875374,2.96999154918
138,PUICHERIC,1.1,43.2293360442,2.61236027776
139,RAISSAC-D'AUDE,0.2,43.2283330728,2.87745345663
140,SAINT-MARTIN-LYS,0.0,42.8243329025,2.23823385379
141,SOUPEX,0.30000000000000004,43.3819001261,1.89059609045
142,VILLEGLY,1.0,43.2930208254,2.43699100253
143,LA CAPELLE-BALAGUIER,0.30000000000000004,44.4390516926,1.9259338711
144,CASTELMARY,0.1,44.1721922742,2.24442015696
145,LE FEL,0.2,44.6696449626,2.51772189007
146,PEYRELEAU,0.1,44.1757756277,3.20495893117
147,RODEZ,24.4,44.3582426254,2.5672793892
148,SAINT-CYPRIEN-SUR-DOURDOU,0.8,44.5403715999,2.39911464032
149,SAINT-GENIEZ-D'OLT,2.1,44.4732674724,2.98156818185
150,SAINT-HIPPOLYTE,0.4,44.7257623817,2.58415334807
151,SAINT-SALVADOU,0.4,44.2868447962,2.10394734886
152,LA TERRISSE,0.2,44.7433785292,2.82456048173
153,PELISSANNE,9.4,43.6308385635,5.15957327275
154,BAROU-EN-AUGE,0.1,48.9297518504,-0.0386142732111
155,BRETTEVILLE-L'ORGUEILLEUSE,2.3,49.2151517714,-0.51673661621
156,BRETTEVILLE-SUR-DIVES,0.30000000000000004,49.0361671804,0.0016368370047
157,CASTILLON,0.30000000000000004,49.1953923219,-0.797563519369
158,COLOMBY-SUR-THAON,0.4,49.2634403547,-0.420689926087
159,CORMOLAIN,0.4,49.1293685393,-0.863042429184
160,COURTONNE-LES-DEUX-EGLISES,0.6000000000000001,49.0888311326,0.37808461753
161,ERAINES,0.30000000000000004,48.9048554681,-0.157109731827
162,FONTAINE-LE-PIN,0.4,48.975148023,-0.291372010508
163,FOURNEVILLE,0.5,49.3575079529,0.232481397585
164,FRESNE-LA-MERE,0.5,48.8880480669,-0.125057878602
165,HERMANVILLE-SUR-MER,2.7,49.2832471592,-0.32297738333
166,HOTTOT-LES-BAGUES,0.5,49.1460867246,-0.653546590924
167,MOSLES,0.30000000000000004,49.3054549485,-0.820523193825
168,OSMANVILLE,0.6000000000000001,49.3339813037,-1.08866221246
169,OUILLY-LE-TESSON,0.5,48.9909032572,-0.21312584412
170,PLACY,0.1,48.9787845418,-0.426591427647
171,QUETTEVILLE,0.4,49.3419911166,0.300133346216
172,LA RIVIERE-SAINT-SAUVEUR,2.0,49.4080358178,0.268004849021
173,SAINT-AGNAN-LE-MALHERBE,0.1,49.0402327898,-0.581910750942
174,SAINT-AUBIN-D'ARQUENAY,0.8,49.2610054485,-0.283867469295
175,SAINT-ETIENNE-LA-THILLAYE,0.5,49.2916915945,0.117829362713
176,SAINTE-FOY-DE-MONTGOMMERY,0.2,48.9587088015,0.163639221018
177,SAINT-GATIEN-DES-BOIS,1.4,49.3508650728,0.186845848605
178,SAINT-GERMAIN-DE-LIVET,0.8,49.0768259488,0.197537877277
179,SAINT-LAURENT-DE-CONDEL,0.5,49.0261365757,-0.394821606161
180,SUBLES,0.7000000000000001,49.2391973351,-0.749928429068
181,ANDELAT,0.4,45.0699830319,3.05933407794
182,CHANTERELLE,0.1,45.3772414628,2.83331975255
183,CHAZELLES,0.0,45.1057762736,3.32678478247
184,LAFEUILLADE-EN-VEZIE,0.6000000000000001,44.7932691483,2.44817059954
185,MARCHASTEL,0.2,45.273977504,2.72930331123
186,RAULHAC,0.30000000000000004,44.9019840026,2.65720291985
187,SAINT-ETIENNE-CANTALES,0.1,44.9496115234,2.2437307084
188,SAINT-PIERRE,0.2,45.3953414957,2.38207391325
189,SAINT-PONCY,0.30000000000000004,45.1594604904,3.19462037388
190,SAINT-REMY-DE-CHAUDES-AIGUES,0.1,44.7672253376,3.02660075086
191,YOLET,0.6000000000000001,44.9307481726,2.5382689478
192,BAIGNES-SAINTE-RADEGONDE,1.3,45.374443862,-0.254082617191
193,BARDENAC,0.2,45.3005902681,-0.0148493213262
194,BORS (CANTON DE BAIGNES-SAINTE-RADEGONDE),0.1,45.3263203716,-0.199610560993
195,BRIGUEUIL,1.1,45.9509773487,0.869163472197
196,FOUQUEURE,0.4,45.8847149549,0.0756577865437
197,FOUSSIGNAC,0.6000000000000001,45.7127451252,-0.125082004293
198,GUIMPS,0.5,45.465898134,-0.254673070491
199,PEREUIL,0.4,45.4794769617,-0.0231705697031
200,LA BROUSSE,0.5,45.9023725634,-0.365190879008
201,BURIE,1.3,45.777851301,-0.428355211255
202,LOZAY,0.2,46.0435885992,-0.543351399248
203,MESSAC,0.1,45.3464492913,-0.313416526888
204,NEUILLAC,0.30000000000000004,45.5147014586,-0.399573394694
205,ORIGNOLLES,0.6000000000000001,45.2210229962,-0.23417146354
206,SAINT-HILAIRE-DU-BOIS,0.30000000000000004,45.4287275956,-0.488064971553
207,SAINT-JEAN-D'ANGLE,0.6000000000000001,45.8311345147,-0.972275648087
208,SAINT-MANDE-SUR-BREDOIRE,0.30000000000000004,46.0372800682,-0.27822687633
209,SAINT-MARTIAL-DE-MIRAMBEAU,0.2,45.3780654315,-0.594952157057
210,SAINT-NAZAIRE-SUR-CHARENTE,1.1,45.943056045,-1.0281857286
211,SAINT-SAVINIEN,2.4,45.8862799418,-0.677457125043
212,SAINT-SEVER-DE-SAINTONGE,0.6000000000000001,45.6909400588,-0.52078042473
213,SAINT-SORLIN-DE-CONAC,0.2,45.3565207322,-0.694899173419
214,SALIGNAC-SUR-CHARENTE,0.6000000000000001,45.6692835871,-0.415946816258
215,SEMUSSAC,2.0,45.5992753658,-0.915156967296
216,LES AIX-D'ANGILLON,1.9,47.192968882,2.56146410193
217,AUGY-SUR-AUBOIS,0.30000000000000004,46.7829151486,2.85715092019
218,CORQUOY,0.2,46.8920009794,2.29746216707
219,EPINEUIL-LE-FLEURIEL,0.5,46.5709100191,2.55643995576
220,LUGNY-CHAMPAGNE,0.2,47.177490889,2.82796687911
221,MENETOU-COUTURE,0.30000000000000004,47.0419975114,2.93649799809
222,MEREAU,2.3,47.1794168881,2.05220231898
223,SAINT-AMBROIX,0.4,46.935551772,2.12401478057
224,SAINT-MAUR,0.30000000000000004,46.568652329,2.28797208225
225,SAVIGNY-EN-SANCERRE,1.1,47.4437813454,2.7982040526
226,SUBLIGNY,0.4,47.3955907367,2.7523718933
227,TENDRON,0.1,46.9797256032,2.82004963594
228,VORLY,0.2,46.9399216057,2.4731491323
229,BEYSSENAC,0.4,45.4022168067,1.30367937423
230,CHAUMEIL,0.2,45.4552902265,1.88020391469
231,LAGUENNE,1.5,45.2402545634,1.78668276464
232,MANSAC,1.4,45.1603327019,1.38223903365
233,SAINT-PARDOUX-LE-NEUF,0.1,45.6127807921,2.33140885442
234,SEGONZAC,0.2,45.2767795103,1.26250500836
235,VITRAC-SUR-MONTANE,0.30000000000000004,45.3727168836,1.93317365283
236,ARCONCEY,0.2,47.2158291471,4.46108652997
237,AUXANT,0.1,47.1298867764,4.61921408774
238,BILLY-LES-CHANCEAUX,0.1,47.5530033313,4.73431352528
239,BROIN,0.4,47.0864209474,5.10439169166
240,BROINDON,0.1,47.1957469906,5.03994792471
241,CHAMBLANC,0.5,47.0222258183,5.16878563446
242,CHAMPAGNY,0.0,47.4615477148,4.76760990741
243,CHAUME-ET-COURCHAMP,0.1,47.5806895666,5.36162357765
244,CHEVANNES,0.1,47.1587967474,4.83357896263
245,COURLON,0.1,47.64572911,5.00801867422
246,FUSSEY,0.1,47.1289690421,4.81617367712
247,GILLY-LES-CITEAUX,0.6000000000000001,47.1779786537,4.99751060917
248,HEUILLEY-SUR-SAONE,0.30000000000000004,47.3358079869,5.46489125739
249,IZIER,0.7000000000000001,47.2813484064,5.19627066906
250,MAUVILLY,0.1,47.7096666465,4.70428549427
251,MENETREUX-LE-PITOIS,0.4,47.559690561,4.45956971302
252,MONT-SAINT-JEAN,0.2,47.2858528062,4.4113796914
253,NOIDAN,0.1,47.3467171158,4.40982170354
254,NOIRON-SUR-BEZE,0.2,47.4394112405,5.29872318112
255,OISILLY,0.1,47.416992177,5.36192344642
256,OUGES,1.2,47.2613998117,5.0782109526
257,ROILLY,0.0,47.4171745779,4.34078793389
258,SAINT-HELIER,0.0,47.389027921,4.68824509954
259,SAINT-MARTIN-DE-LA-MER,0.30000000000000004,47.2373074547,4.22929777568
260,SAINT-MARTIN-DU-MONT,0.4,47.4148513561,4.81194710404
261,SAINT-MAURICE-SUR-VINGEANNE,0.2,47.5793795925,5.39828562769
262,SAULON-LA-CHAPELLE,1.1,47.2106852941,5.09385756752
263,SAUSSEY,0.1,47.0636406891,4.60953530207
264,SAVOUGES,0.4,47.1806736269,5.05798309916
265,SOUHEY,0.1,47.4876530398,4.421356507
266,TART-LE-HAUT,1.4,47.1958586219,5.20512336576
267,THENISSEY,0.1,47.4964918792,4.61948858454
268,LA VILLENEUVE-LES-CONVERS,0.0,47.5761672449,4.59152552704
269,CHATELAUDREN,1.0,48.5398477577,-2.97194076452
270,GOUAREC,0.9,48.2358108068,-3.1953780576
271,HILLION,4.1,48.5029884697,-2.64614749418
272,LA MOTTE,2.0,48.2311050733,-2.70470655082
273,PAIMPOL,7.8,48.7733386239,-3.05459397042
274,PEUMERIT-QUINTIN,0.2,48.3635016654,-3.28335906879
275,PLAINE-HAUTE,1.4,48.4435359708,-2.85882396738
276,PLEHEDEL,1.3,48.6949303191,-3.00638352485
277,SAINT-GILLES-PLIGEAUX,0.30000000000000004,48.3796644952,-3.08710992512
278,SAINT-MAYEUX,0.5,48.2645956467,-3.01553906728
279,TRAMAIN,0.6000000000000001,48.3998800442,-2.38881241338
280,TREGROM,0.4,48.5946464284,-3.40266097261
281,TREVRON,0.7000000000000001,48.389428188,-2.06825084533
282,ARRENES,0.2,46.0724415399,1.56731050759
283,BLAUDEIX,0.1,46.2296903027,2.08515076921
284,BUSSIERE-SAINT-GEORGES,0.2,46.4017907068,2.1551143589
285,LA CELLETTE,0.30000000000000004,46.4013328197,2.00952314466
286,CROZANT,0.5,46.3822860468,1.61270659121
287,NOUHANT,0.30000000000000004,46.287074332,2.39209394225
288,PONTARION,0.4,45.9957082481,1.84611482202
289,SANNAT,0.4,46.1229856338,2.41539962939
290,SAINT-ALPINIEN,0.30000000000000004,45.962112522,2.24239447602
291,SAINTE-FEYRE-LA-MONTAGNE,0.1,45.8948418395,2.23233670208
292,SAINT-MEDARD-LA-ROCHETTE,0.6000000000000001,46.0220936926,2.14641995346
293,AURIAC-DU-PERIGORD,0.4,45.1125569337,1.12728719792
294,BEAUREGARD-ET-BASSAC,0.30000000000000004,44.9936188028,0.632602848395
295,BEYNAC-ET-CAZENAC,0.5,44.8572702356,1.13222078955
296,CHAMPEAUX-ET-LA-CHAPELLE-POMMIER,0.2,45.4680082324,0.581009876861
297,COMBERANCHE-ET-EPELUCHE,0.2,45.2768659289,0.280086546492
298,LE FLEIX,1.4,44.880919054,0.262559942743
299,FLORIMONT-GAUMIER,0.1,44.708224337,1.23864373133
300,HAUTEFORT,1.1,45.2589200751,1.1354185818
301,MONTPON-MENESTEROL,5.5,45.0196715762,0.155545015448
302,SAINT-AVIT-RIVIERE,0.1,44.7401593829,0.906593699917
303,SAINTE-FOY-DE-BELVES,0.1,44.731269814,1.03294229921
304,SAINT-LAURENT-SUR-MANOIRE,0.9,45.1400143536,0.79552191075
305,SAINT-PAUL-LA-ROCHE,0.5,45.4833291569,0.989443506607
306,SALON,0.2,45.0281445298,0.774813216159
307,SERGEAC,0.2,44.9987285651,1.11549602522
308,TEYJAT,0.30000000000000004,45.5905740595,0.579549924927
309,AMANCEY,0.7000000000000001,47.0311972081,6.07639327081
310,BETHONCOURT,6.0,47.5411126642,6.8003750959
311,BOUJAILLES,0.4,46.8844605742,6.07920196701
312,BRECONCHAUX,0.1,47.3418237888,6.27061644005
313,CHOUZELOT,0.30000000000000004,47.1232109749,5.9086321902
314,CORCELLE-MIESLOT,0.1,47.3615588639,6.18318655579
315,CROUZET-MIGETTE,0.1,46.9567035839,6.01221278274
316,DANNEMARIE-SUR-CRETE,1.3,47.2062426754,5.86495393288
317,ECURCEY,0.30000000000000004,47.4031119157,6.8050274649
318,ETALANS,1.1,47.1617288935,6.26148839275
319,ETOUVANS,0.8,47.4565278158,6.72060828166
320,FALLERANS,0.30000000000000004,47.1385232143,6.29267245041
321,FERTANS,0.2,47.0554375235,6.06471764594
322,GONDENANS-LES-MOULINS,0.1,47.4652888265,6.38278266131
323,METABIEF,1.0,46.7648830862,6.35324497812
324,LE PUY,0.1,47.3456027875,6.23053427438
325,RIGNOSOT,0.1,47.3835277032,6.1996281942
326,LA TOUR-DE-SCAY,0.2,47.3825738249,6.22493151895
327,VAL-DE-ROULANS,0.1,47.3602096754,6.26791337918
328,VERCEL-VILLEDIEU-LE-CAMP,1.5,47.1891393068,6.38184480034
329,VOILLANS,0.2,47.3909535657,6.4185381191
330,ALIXAN,2.4,44.9822063371,5.01703375369
331,BEAUFORT-SUR-GERVANNE,0.4,44.7778627524,5.14914685983
332,BREN,0.5,45.1431766661,4.94152540117
333,CHATEAUNEUF-DE-GALAURE,1.6,45.2359387102,4.95905904864
334,CONDILLAC,0.2,44.6388037984,4.82780234545
335,CURNIER,0.2,44.387658631,5.23421106174
336,EYGALAYES,0.1,44.2211440236,5.59423968429
337,MANAS,0.2,44.6017015334,4.97988711048
338,MARIGNAC-EN-DIOIS,0.2,44.8102170504,5.3344028956
339,LA MOTTE-DE-GALAURE,0.8,45.1987797497,4.90084017437
340,PONSAS,0.5,45.1572964733,4.84232290007
341,ROCHEBAUDIN,0.1,44.5748560489,5.03096278757
342,LA ROCHE-SUR-LE-BUIS,0.30000000000000004,44.2625812469,5.34101183886
343,SAINT-AGNAN-EN-VERCORS,0.4,44.896792332,5.44160263815
344,SAINT-MARTIN-LE-COLONEL,0.2,44.9852575045,5.27975659014
345,SAINT-PAUL-LES-ROMANS,1.7000000000000002,45.0586462417,5.12685510741
346,TAULIGNAN,1.6,44.4589108654,4.97848630034
347,LES TONILS,0.0,44.5863590312,5.21024609596
348,VALDROME,0.1,44.4979512918,5.56721863741
349,VERCOIRAN,0.1,44.2937794965,5.35057643289
350,BOISEMONT,0.8,49.2925439055,1.49018837893
351,CHANTELOUP,0.1,48.8851752414,1.02887527116
352,LA CHAPELLE-DU-BOIS-DES-FAULX,0.5,49.1080526721,1.17181025822
353,LA CHARTRE-SUR-LE-LOIR,1.5,47.7303686417,0.582042206339
354,LIVET-EN-SAOSNOIS,0.1,48.3561318237,0.211071803966
355,LA MILESSE,2.4,48.0667169973,0.135919277684
356,MONCE-EN-BELIN,3.4,47.8982351133,0.196356138911
357,MONTIGNY,0.0,48.453861476,0.184740038604
358,RAHAY,0.2,47.957486899,0.811406701903
359,RENE,0.4,48.2766544769,0.217202160114
360,TUFFE,1.6,48.120886565,0.50838049197
361,AIME,3.5,45.5525768932,6.61836974596
362,ALBENS,3.2,45.789988746,5.93731067789
363,ARBIN,0.8,45.510931197,6.07455521712
364,AUSSOIS,0.7000000000000001,45.2550275097,6.72903201851
365,CHAMOUSSET,0.5,45.5652468191,6.20689994252
366,FRETERIVE,0.5,45.5925212338,6.20927183971
367,LA LECHERE,1.9,45.5274218608,6.46078348062
368,SAINTE-HELENE-SUR-ISERE,1.1,45.6022927013,6.32652357893
369,SAINT-JEAN-D'ARVEY,1.5,45.5971514646,5.99104015513
370,SAINT-MARTIN-DE-LA-PORTE,0.7000000000000001,45.2637926068,6.45954136522
371,SAINT-MAURICE-DE-ROTHERENS,0.2,45.6217369154,5.7020587596
372,SAINT-SORLIN-D'ARVES,0.30000000000000004,45.2010658466,6.20188332139
373,VILLARLURIN,0.30000000000000004,45.4528890539,6.52829257679
374,VILLAROUX,0.2,45.4620342064,6.0793012764
375,BERNEX,1.2,46.3566554818,6.69898825662
376,LES HOUCHES,3.1,45.8968732063,6.8000932715
377,MESIGNY,0.7000000000000001,45.9864538672,6.00616944554
378,REYVROZ,0.5,46.324542262,6.56224816436
379,USINENS,0.4,46.0141101531,5.85064952145
380,PARIS-12E-ARRONDISSEMENT,142.9,48.8351562307,2.41980703497
381,ANCOURTEVILLE-SUR-HERICOURT,0.2,49.6907478864,0.660651271131
382,ARQUES-LA-BATAILLE,2.5,49.8821767195,1.1367858461
383,BELLENGREVILLE,0.5,49.9107866159,1.22780682049
384,BOURVILLE,0.30000000000000004,49.795809684,0.82372418387
385,CANOUVILLE,0.30000000000000004,49.8064199555,0.597683771595
386,FLOCQUES,0.7000000000000001,50.0348687665,1.36482281726
387,FONTAINE-SOUS-PREAUX,0.5,49.485549107,1.16858781468
388,FONTENAY,1.0,49.5698530615,0.178104990731
389,GANZEVILLE,0.4,49.7314996982,0.403637131189
390,GRUMESNIL,0.5,49.6204750653,1.69327955955
391,HENOUVILLE,1.2,49.4750504907,0.951322211324
392,ILLOIS,0.30000000000000004,49.7454018898,1.64586609284
393,MANIQUERVILLE,0.5,49.6944811187,0.346572121697
394,MANNEVILLE-LA-GOUPIL,1.0,49.6116014086,0.347552661099
395,MELAMARE,0.8,49.539757869,0.436022183281
396,MESNIL-RAOUL,0.9,49.3972282851,1.27517747043
397,MONTIVILLIERS,16.5,49.5442665298,0.190325264974
398,MORGNY-LA-POMMERAYE,1.1,49.5199542797,1.25089069783
399,NORVILLE,0.9,49.4816595994,0.643538536644
400,OUVILLE-LA-RIVIERE,0.6000000000000001,49.8737511428,0.982537676244
401,QUIEVRECOURT,0.4,49.725385425,1.41857602963
402,ROUEN,110.7,49.4413460103,1.09256784278
403,SAINTE-AGATHE-D'ALIERMONT,0.30000000000000004,49.8251228166,1.33849691279
404,SAINT-ANTOINE-LA-FORET,1.0,49.5385601912,0.480932207517
405,SAINTE-AUSTREBERTHE,0.6000000000000001,49.6017062639,0.972327447526
406,SAINT-EUSTACHE-LA-FORET,1.1,49.5542884203,0.451368836604
407,SAINT-GEORGES-SUR-FONTAINE,0.9,49.5471041519,1.17538219534
408,SAINT-JACQUES-SUR-DARNETAL,2.6,49.4457877857,1.20822620847
409,SAINT-LAURENT-DE-BREVEDENT,1.4,49.5325966653,0.269281714398
410,SAINT-MAURICE-D'ETELAN,0.30000000000000004,49.4585668505,0.625051868596
411,SANDOUVILLE,0.8,49.4777178239,0.301065445929
412,LA TRINITE-DU-MONT,0.7000000000000001,49.5455789044,0.557898876882
413,TRIQUERVILLE,0.4,49.5022889378,0.618435725887
414,TROUVILLE,0.6000000000000001,49.584302439,0.60043974665
415,VARENGEVILLE-SUR-MER,1.0,49.9033508402,0.996096920995
416,VEAUVILLE-LES-BAONS,0.7000000000000001,49.6543611356,0.759245923284
417,VILLAINVILLE,0.30000000000000004,49.6596668934,0.239594399689
418,AMPONVILLE,0.4,48.2874371683,2.53069073747
419,BRAY-SUR-SEINE,2.4,48.4145972795,3.24389965363
420,CHALAUTRE-LA-PETITE,0.5,48.5273173873,3.31527496472
421,LA CHAPELLE-RABLAIS,0.9,48.5059176558,2.96075561449
422,CHARMENTRAY,0.30000000000000004,48.9509081872,2.77901265334
423,CONDE-SAINTE-LIBIAIRE,1.4,48.8985882759,2.83639912671
424,COUTEVROULT,0.9,48.8533091691,2.8480997097
425,CREVECOEUR-EN-BRIE,0.30000000000000004,48.7560531013,2.90716174383
426,ESBLY,5.7,48.9005636441,2.81238845063
427,FERICY,0.6000000000000001,48.4651858687,2.80348330714
428,LA FERTE-SOUS-JOUARRE,9.1,48.9540164057,3.12762174384
429,FROMONT,0.2,48.2535112843,2.50835017332
430,GASTINS,0.7000000000000001,48.6267877328,3.02021144057
431,LESCHEROLLES,0.5,48.7608681529,3.35044757724
432,LUISETAINES,0.2,48.4610681499,3.18563257802
433,MEAUX,49.6,48.9570625667,2.90003097245
434,MEIGNEUX,0.2,48.5137853479,3.09690502787
435,MOISENAY,1.1,48.5645621495,2.74111082771
436,PENCHARD,1.0,48.9907877063,2.85773717283
437,RUMONT,0.1,48.2703586481,2.4951176944
438,SAINT-HILLIERS,0.4,48.6289146411,3.25823552684
439,SAMMERON,1.0,48.9415743758,3.07701664102
440,VILLENAUXE-LA-PETITE,0.5,48.4004012721,3.31327470557
441,VILLENEUVE-LE-COMTE,1.8,48.8115357459,2.83836128857
442,GROSROUVRE,0.9,48.7803262238,1.75722546892
443,HARGEVILLE,0.4,48.8952160962,1.74614665372
444,LE MESNIL-LE-ROI,6.4,48.9257999518,2.1221732386
445,MOISSON,0.9,49.0682573401,1.66415011183
446,ORGEVAL,5.8,48.9164887331,1.96928773573
447,LE PORT-MARLY,4.7,48.8804759755,2.10903947427
448,ROCHEFORT-EN-YVELINES,1.0,48.5924280148,1.97977823093
449,LE BREUIL-BERNARD,0.5,46.7138106631,-0.556791561272
450,LA CHAPELLE-BERTRAND,0.5,46.6181522688,-0.191159883501
451,LA CHAPELLE-THIREUIL,0.4,46.5528411704,-0.552963332142
452,LE CHILLOU,0.2,46.7695842244,-0.12153287828
453,GRANZAY-GRIPT,0.9,46.2259924524,-0.480205972926
454,MISSE,0.9,46.9558568224,-0.175760650961
455,SAINT-GENARD,0.4,46.1863394074,-0.134327171027
456,SAINT-GERMIER,0.2,46.4595030375,-0.0455788333534
457,SAINT-MARTIN-LES-MELLE,0.9,46.2262502573,-0.16852854296
458,SAUZE-VAUSSAIS,1.6,46.1223913244,0.111211623906
459,ALLERY,0.8,49.9594164117,1.88551094402
460,BEAUCOURT-SUR-L'HALLUE,0.2,49.9982031782,2.42756312859
461,BUS-LA-MESIERE,0.1,49.6380331546,2.71416048413
462,COMBLES,0.7000000000000001,50.0100855412,2.87396008715
463,COULONVILLERS,0.2,50.1533593307,2.01779110605
464,DEMUIN,0.5,49.8163771889,2.53950066337
465,DOMESMONT,0.0,50.1201839274,2.14393813299
466,DOMPIERRE-SUR-AUTHIE,0.4,50.2951382167,1.92084016717
467,DOMVAST,0.30000000000000004,50.2018721228,1.90447781648
468,FOUQUESCOURT,0.2,49.7707802133,2.74741302134
469,HERLEVILLE,0.1,49.8611385955,2.75111950285
470,ESTREES-MONS,0.6000000000000001,49.8792650638,3.00854833649
471,NOYELLES-EN-CHAUSSEE,0.30000000000000004,50.2112725157,1.98679883041
472,RAINNEVILLE,0.8,49.9739949496,2.36189417533
473,RETHONVILLERS,0.30000000000000004,49.7363046729,2.85528725127
474,SOREL-EN-VIMEU,0.2,50.0125363922,1.91305863458
475,THORY,0.2,49.7199911827,2.43112270739
476,VERPILLIERES,0.2,49.6670347072,2.82381303765
477,VIGNACOURT,2.3,50.0085076196,2.1867884288
478,WARLOY-BAILLON,0.8,50.0171155798,2.53081565399
479,BOISSEZON,0.4,43.572194321,2.40561286973
480,CAMBON-LES-LAVAUR,0.30000000000000004,43.5919658336,1.84810953199
481,CRESPIN,0.1,44.0469014925,2.30614613299
482,FAUSSERGUES,0.1,44.0406000553,2.43023975408
483,MAZAMET,10.0,43.4578780341,2.3885346913
484,PRADES,0.1,43.6119091506,1.9714190668
485,ROUAIROUX,0.4,43.4951010568,2.56621532287
486,ROUMEGOUX,0.2,43.8091924031,2.26353154386
487,SAINTE-GEMME,0.8,44.0888853221,2.19609081106
488,SALVAGNAC,1.1,43.9201151478,1.67981306162
489,TAIX,0.30000000000000004,44.009592574,2.11973456275
490,VIANE,0.6000000000000001,43.7463791863,2.58683700675
491,BEAUMONT-DE-LOMAGNE,3.8,43.876728355,1.01059588806
492,BOUILLAC,0.6000000000000001,43.8471889462,1.1154526635
493,LABASTIDE-SAINT-PIERRE,3.6,43.9190655964,1.34640200769
494,MONTBARTIER,1.3,43.9148777604,1.28662456416
495,MONTJOI,0.2,44.2043392824,0.930124213553
496,MOUILLAC,0.1,44.2755002172,1.67305723666
497,POUPAS,0.1,43.9626081803,0.835987079725
498,PUYLAGARDE,0.30000000000000004,44.3066142311,1.84631007866
499,SAINT-ETIENNE-DE-TULMONT,3.4,44.044673154,1.45703284983
500,SAINT-MICHEL,0.2,44.0453516361,0.937520452505
501,GINASSERVIS,1.5,43.6592918147,5.83752000648
502,REGUSSE,2.1,43.6676978951,6.11814572566
503,SAINT-TROPEZ,4.9,43.262314383,6.66343039908
504,TANNERON,1.5,43.5748995232,6.85671079494
505,TOURRETTES,2.7,43.6140539601,6.72378364475
506,CABRIERES-D'AIGUES,0.8,43.7913015359,5.49177311487
507,GARGAS,3.0,43.8960653944,5.34362330109
508,LAURIS,3.5,43.7630365491,5.30333693211
509,LOURMARIN,1.0,43.7780333839,5.36616174066
510,MENERBES,1.1,43.8243710342,5.22087170856
511,SAINT-LEGER-DU-VENTOUX,0.0,44.2059476763,5.27072625011
512,VAISON-LA-ROMAINE,6.2,44.247701867,5.06040782309
513,ANTIGNY,1.0,46.6191770822,-0.767030058653
514,AVRILLE,1.2,46.4744272125,-1.49524360118
515,LA BRUFFIERE,3.6,47.0148006973,-1.18329758318
516,LA JAUDONNIERE,0.6000000000000001,46.6488761831,-0.962477574588
517,LE LANGON,1.1,46.4393119039,-0.947017086151
518,LES MAGNILS-REIGNIERS,1.5,46.4635045649,-1.210635375
519,L'OIE,1.1,46.7813089389,-1.12070248588
520,OLONNE-SUR-MER,13.3,46.5413300559,-1.78813984621
521,PISSOTTE,1.2,46.5010870694,-0.808352236192
522,SAINT-AUBIN-DES-ORMEAUX,1.3,46.9958175597,-1.04216568722
523,BREM-SUR-MER,2.6,46.6118566989,-1.81003917923
524,THORIGNY,1.1,46.6179795025,-1.24888057642
525,XANTON-CHASSENON,0.7000000000000001,46.4519408659,-0.706316598666
526,AVANTON,1.8,46.6636113656,0.304857474533
527,BUXEUIL,0.9,46.9691626791,0.663280851924
528,CLOUE,0.4,46.4464190572,0.16406841425
529,MONTMORILLON,6.4,46.4263978846,0.895458347632
530,ORCHES,0.4,46.8823632651,0.327354894566
531,RANTON,0.2,46.9989197523,-0.0327224982621
532,SAINT-JEAN-DE-SAUVES,1.3,46.8393708515,0.0880509960566
533,SAINT-PIERRE-DE-MAILLE,0.9,46.6777213024,0.825185186332
534,GAJOUBERT,0.2,46.1097751696,0.844058767446
535,LIMOGES,139.2,45.8542549589,1.2487579024
536,MEZIERES-SUR-ISSOIRE,0.9,46.1111458501,0.914010969665
537,ROCHECHOUART,3.8,45.8236032815,0.84280512319
538,LES SALLES-LAVAUGUYON,0.2,45.7440613913,0.693496428456
539,VICQ-SUR-BREUILH,1.3,45.6495648123,1.39073762507
540,LES ABLEUVENETTES,0.1,48.1916639061,6.19244312947
541,BOCQUEGNEY,0.1,48.220268825,6.3097147916
542,ETIVAL-CLAIREFONTAINE,2.5,48.3643386923,6.84394360336
543,FLOREMONT,0.4,48.3711842511,6.25282761176
544,JEUXEY,0.7000000000000001,48.200587727,6.49007507177
545,MIRECOURT,5.9,48.2935312144,6.12032421472
546,MORELMAISON,0.2,48.3211524377,5.91591541641
547,LA PETITE-FOSSE,0.1,48.3217854847,7.05050994917
548,POMPIERRE,0.2,48.2746496392,5.67619878107
549,PROVENCHERES-SUR-FAVE,0.9,48.3153511081,7.07950479056
550,RELANGES,0.2,48.1117050113,6.0162884596
551,SAINT-GENEST,0.1,48.3455201567,6.51142918366
552,SAINT-GORGON,0.4,48.3206900505,6.65349211672
553,SAINT-MAURICE-SUR-MORTAGNE,0.2,48.3917125307,6.57397194545
554,SAINT-MAURICE-SUR-MOSELLE,1.5,47.8462080674,6.85474549269
555,SANDAUCOURT,0.2,48.2612303664,5.84458431334
556,SOCOURT,0.2,48.3963161508,6.24974565871
557,CARISEY,0.4,47.9227804565,3.84516630553
558,CHARNY,1.7000000000000002,47.8862119429,3.09764224265
559,L'ISLE-SUR-SEREIN,0.7000000000000001,47.5876821889,4.01838047728
560,MAGNY,0.8,47.4703684401,3.97088291518
561,MONTREAL,0.2,47.5493086429,4.05005175601
562,PRUNOY,0.30000000000000004,47.9032953659,3.14657263828
563,ROFFEY,0.1,47.9122945683,3.91182885101
564,ROUVRAY,0.4,47.898249879,3.66932280709
565,VERGIGNY,1.5,47.9549518047,3.69703784472
566,VERON,2.0,48.126395695,3.33112142097
567,VILLEBOUGIS,0.6000000000000001,48.2086439691,3.15617870614
568,VILLENEUVE-LA-GUYARD,3.1,48.3359583803,3.05649125172
569,BOTANS,0.30000000000000004,47.5956035781,6.84875928018
570,BREBOTTE,0.30000000000000004,47.5785857282,6.97299379772
571,GROSNE,0.30000000000000004,47.571197367,6.99460817647
572,CHAMARANDE,1.1,48.5167739657,2.21800082924
573,COURSON-MONTELOUP,0.6000000000000001,48.5982232022,2.14130817077
574,PRUNAY-SUR-ESSONNE,0.30000000000000004,48.3520662513,2.36130827572
575,QUINCY-SOUS-SENART,7.9,48.6703327314,2.52837404941
576,RICHARVILLE,0.4,48.4685502881,1.99842610136
577,SERMAISE,1.7000000000000002,48.5310930707,2.08893971049
578,TIGERY,2.5,48.6444988439,2.51906038006
579,VAUHALLAN,2.0,48.7307999031,2.19905265979
580,LEVALLOIS-PERRET,63.4,48.895071672,2.28688268127
581,GAGNY,38.8,48.8820763119,2.5449484757
582,CRETEIL,89.4,48.7837401836,2.45463530415
583,SAINT-MAUR-DES-FOSSES,75.3,48.7990677797,2.49386450452
584,CHAUVRY,0.30000000000000004,49.0530490833,2.26887039033
585,CONDECOURT,0.5,49.0375647936,1.93659110857
586,DEUIL-LA-BARRE,21.7,48.9712690171,2.32616290144
587,ERMONT,27.6,48.98824217,2.25662443737
588,GARGES-LES-GONESSE,40.2,48.9701231267,2.40534038501
589,SARCELLES,59.4,48.9902250437,2.38160272749
590,VILLIERS-ADAM,0.8,49.0702888248,2.23950871871
591,VILLIERS-LE-SEC,0.2,49.0743088682,2.38688959984
592,AIZANVILLE,0.0,48.1116130217,4.89456102722
593,BELMONT,0.1,47.7200699243,5.55533089037
594,CHALINDREY,2.6,47.7928741357,5.44307044618
595,COUR-L'EVEQUE,0.2,47.9767999819,4.982031793
596,DOMMARTIN-LE-SAINT-PERE,0.30000000000000004,48.4011786255,4.91405367965
597,GERMISAY,0.0,48.3907421507,5.36918258943
598,MALAINCOURT-SUR-MEUSE,0.1,48.1553460415,5.6050993633
599,NIJON,0.1,48.195711108,5.64311984869
600,THONNANCE-LES-JOINVILLE,0.8,48.4622070885,5.18737757983
601,VIGNES-LA-COTE,0.1,48.2716451194,5.31184668552
602,VONCOURT,0.0,47.7174045888,5.67295513235
603,BEAUMONT-PIED-DE-BOEUF,0.2,47.9084771781,-0.440801679102
604,BOUESSAY,0.8,47.8721398411,-0.393398326513
605,CHAMMES,0.30000000000000004,48.0727932387,-0.384092789255
606,CUILLE,1.0,47.9658362794,-1.11498852858
607,FONTAINE-COUVERTE,0.4,47.9135795411,-1.13947861137
608,LIVRE-LA-TOUCHE,0.8,47.8891404451,-0.992643026604
609,MAYENNE,13.4,48.3074609449,-0.614799950799
610,SAINT-CALAIS-DU-DESERT,0.4,48.490532997,-0.250672513735
611,SAINT-DENIS-DU-MAINE,0.4,47.9806121004,-0.521686670231
612,SAINT-JEAN-SUR-MAYENNE,1.5,48.1413153806,-0.752524079247
613,SAINT-JULIEN-DU-TERROUX,0.30000000000000004,48.4835428783,-0.409443392744
614,SAINT-MARS-DU-DESERT,0.2,48.295036747,-0.169490797785
615,ABAUCOURT,0.30000000000000004,48.8928445916,6.26559712571
616,ANGOMONT,0.1,48.504868026,6.97199355795
617,BETTAINVILLERS,0.2,49.2970531393,5.90972467758
618,DROUVILLE,0.2,48.670392727,6.41174385859
619,FREMENIL,0.2,48.5614320905,6.70677381054
620,FRIAUVILLE,0.4,49.1432779641,5.83078364972
621,GRISCOURT,0.1,48.8410498647,6.01719019687
622,IGNEY,0.1,48.6323470746,6.81983012116
623,LAITRE-SOUS-AMANCE,0.4,48.7392097523,6.27378806825
624,LIVERDUN,6.0,48.7537166405,6.05235397303
625,MALAVILLERS,0.2,49.3574661069,5.86577468306
626,MANCIEULLES,1.7000000000000002,49.2810932813,5.89669694127
627,MARTINCOURT,0.1,48.8482925248,5.95195681774
628,MERVILLER,0.4,48.4739799839,6.77926594668
629,MONT-SUR-MEURTHE,1.1,48.5493164912,6.44216065788
630,MOUACOURT,0.1,48.6720340555,6.63993630871
631,PETTONVILLE,0.1,48.5301540618,6.74371187817
632,PULNEY,0.1,48.3909723712,6.03248056928
633,ROGEVILLE,0.2,48.8146914454,5.97727344525
634,SAINT-CLEMENT,0.9,48.5424165222,6.6233621308
635,SAINT-PANCRE,0.30000000000000004,49.5261729402,5.6387663725
636,THIAUCOURT-REGNIEVILLE,1.2,48.9331323678,5.90090345105
637,TRAMONT-SAINT-ANDRE,0.1,48.4143611906,5.92748990163
638,VAUDEVILLE,0.2,48.4549633063,6.20876642137
639,VILLERS-LA-CHEVRE,0.5,49.5055978223,5.68894758816
640,XERMAMENIL,0.5,48.5390973507,6.47693512099
641,AVOCOURT,0.1,49.2032158089,5.14229694314
642,BAUDREMONT,0.1,48.8371703603,5.39335538286
643,BUREY-LA-COTE,0.1,48.5001500482,5.68520575039
644,CHAUVENCY-SAINT-HUBERT,0.30000000000000004,49.5399729551,5.29668874531
645,DOMBRAS,0.1,49.3816772358,5.44815989683
646,DOMMARTIN-LA-MONTAGNE,0.1,49.0242520854,5.6017607408
647,ETRAYE,0.0,49.3271973903,5.35601277253
648,EUVILLE,1.7000000000000002,48.7444024501,5.64512103609
649,GUSSAINVILLE,0.0,49.1670483663,5.6624328239
650,LOISON,0.1,49.3040815275,5.59193126702
651,MONTIGNY-DEVANT-SASSEY,0.1,49.4269988159,5.13768878129
652,ROUVROIS-SUR-OTHAIN,0.2,49.3871461165,5.62761373552
653,RUPT-AUX-NONAINS,0.4,48.6626472968,5.09507160902
654,SAMOGNEUX,0.1,49.2582106398,5.34650093972
655,CLEGUER,3.3,47.8651441358,-3.36505283669
656,COURNON,0.7000000000000001,47.7490041075,-2.09816065532
657,GAVRES,0.8,47.6951381724,-3.33453004583
658,LE HEZO,0.7000000000000001,47.5806224027,-2.69210124119
659,MELRAND,1.5,47.9750761347,-3.09950962004
660,MESLAN,1.3,47.9879241099,-3.44802769432
661,MEUCON,2.1,47.7239745954,-2.77407412753
662,MONTERTELOT,0.4,47.8855029773,-2.41232336354
663,NIVILLAC,4.0,47.5405533272,-2.24923467173
664,PLOERMEL,9.0,47.9221801451,-2.38313563666
665,SAINT-GONNERY,1.1,48.1259650305,-2.82225083617
666,SAINT-JEAN-BREVELAY,2.7,47.831231207,-2.72758657957
667,SAINT-MARTIN-SUR-OUST,1.3,47.7625644099,-2.26391469379
668,SILFIAC,0.5,48.1449436665,-3.17252446086
669,LE SOURN,2.0,48.0382214758,-2.99470821094
670,ADELANGE,0.2,49.0079073828,6.60632652354
671,ASSENONCOURT,0.1,48.7664604694,6.79955530067
672,BEBING,0.2,48.7214398635,6.99109821572
673,BLIES-EBERSING,0.6000000000000001,49.1137018858,7.14221813754
674,CHATEAU-BREHAIN,0.1,48.898906621,6.52153311828
675,CHEMINOT,0.7000000000000001,48.9560682029,6.13779293585
676,CHERISEY,0.30000000000000004,49.0105765777,6.24566851068
677,GONDREXANGE,0.5,48.6916242352,6.90768275556
678,GUEBENHOUSE,0.4,49.0769015436,6.95086192119
679,HESTROFF,0.4,49.2636097823,6.42936599156
680,HUNTING,0.6000000000000001,49.4144357167,6.32945827777
681,LANDROFF,0.30000000000000004,48.965218434,6.6165180005
682,LANING,0.6000000000000001,49.0289145916,6.77148236689
683,MAIZIERES-LES-METZ,10.7,49.2085175228,6.15614048077
684,MEY,0.30000000000000004,49.1370275752,6.24143707513
685,NARBEFONTAINE,0.1,49.1367860634,6.54682213499
686,POMMERIEUX,0.7000000000000001,48.9950226786,6.18256631128
687,RORBACH-LES-DIEUZE,0.1,48.8290007353,6.84003792776
688,SARRALBE,4.6,48.9956964636,7.01158536668
689,STIRING-WENDEL,12.3,49.2025325702,6.93271905155
690,UCKANGE,7.1,49.3058767055,6.14931216735
691,VATIMONT,0.30000000000000004,48.9782586379,6.4742819411
692,WALDHOUSE,0.4,49.1394116711,7.45605227676
693,ARQUIAN,0.6000000000000001,47.5349426855,2.99793071135
694,CHAZEUIL,0.1,47.2780823598,3.40392511236
695,CIEZ,0.4,47.440576466,3.16319899612
696,CORBIGNY,1.6,47.2565578889,3.68948978336
697,LA FERMETE,0.7000000000000001,46.9561343358,3.32854721893
698,FLEURY-SUR-LOIRE,0.2,46.830039713,3.31570978537
699,FRASNAY-REUGNY,0.1,46.9922185296,3.52773836273
700,GUERIGNY,2.6,47.0928544134,3.21281103733
701,MARS-SUR-ALLIER,0.30000000000000004,46.8583738333,3.08787262562
702,SAINT-FRANCHY,0.1,47.1512468042,3.45504416231
703,SURGY,0.4,47.513493834,3.50606920534
704,TALON,0.1,47.3349431775,3.55610298077
705,VARZY,1.3,47.356767544,3.38692732286
706,VAUCLAIX,0.1,47.2273609671,3.81810901103
707,AIBES,0.4,50.233709404,4.09622701433
708,VILLENEUVE-D'ASCQ,63.8,50.6324372393,3.1535257221
709,BACHY,1.4,50.5435916608,3.26883958433
710,BEAURAIN,0.2,50.1779797016,3.55059200886
711,BEAURIEUX,0.2,50.1779588737,4.13702062275
712,BERSILLIES,0.30000000000000004,50.3244968872,3.99559417236
713,BOESEGHEM,0.7000000000000001,50.6691135946,2.44242706344
714,CHATEAU-L'ABBAYE,0.9,50.4858024683,3.47414949128
715,DUNKERQUE,92.9,51.0307229078,2.33752414095
716,FAMARS,2.5,50.3123396289,3.52179790977
717,GHYVELDE,3.3,51.0486014481,2.51379722419
718,HANTAY,1.0,50.5374677667,2.86845922313
719,HOUTKERQUE,0.9,50.8825678923,2.58249154938
720,MARESCHES,0.9,50.2940290785,3.57606019881
721,RADINGHEM-EN-WEPPES,1.3,50.6281404058,2.89866058213
722,SAINT-PYTHON,1.0,50.1935153197,3.47506674368
723,WALLON-CAPPEL,0.9,50.7278457083,2.48249397523
724,WARLAING,0.6000000000000001,50.4093268684,3.32433906396
725,WERVICQ-SUD,4.7,50.7620461406,3.05089776037
726,ZEGERSCAPPEL,1.5,50.8833052086,2.384587094
727,ARMANCOURT,0.6000000000000001,49.370833099,2.76400949363
728,AUCHY-LA-MONTAGNE,0.5,49.5739624558,2.11947399318
729,AUNEUIL,2.8,49.3702714618,1.99554869838
730,AUTRECHES,0.7000000000000001,49.449194192,3.12722554549
731,AVRIGNY,0.30000000000000004,49.3890770811,2.57702799562
732,BAUGY,0.30000000000000004,49.4559271908,2.75517506422
733,BLANCFOSSE,0.1,49.662501216,2.18953950322
734,BRETEUIL,4.4,49.6340425257,2.29183403499
735,COURTIEUX,0.2,49.3852025965,3.08510106889
736,CRAMOISY,0.7000000000000001,49.2489499722,2.39573291818
737,DUVY,0.5,49.2322741704,2.84879453989
738,LALANDE-EN-SON,0.7000000000000001,49.3890398972,1.78480094952
739,LAMORLAYE,9.3,49.1602771773,2.41972419406
740,LIHUS,0.4,49.6046293138,2.03925521235
741,LUCHY,0.6000000000000001,49.5519072556,2.11494855936
742,MAUCOURT,0.30000000000000004,49.6325787646,3.07814267123
743,MORANGLES,0.4,49.1948903601,2.30542739268
744,ORMOY-VILLERS,0.6000000000000001,49.1972207576,2.84690572589
745,ROCHY-CONDE,1.0,49.4041536099,2.1887872346
746,SAINT-ARNOULT,0.2,49.636114034,1.80591000401
747,THIESCOURT,0.7000000000000001,49.5596026493,2.86659655683
748,ANTOIGNY,0.1,48.5279445985,-0.36392452272
749,AUGUAISE,0.2,48.6981000827,0.551574938976
750,BURES,0.2,48.5579280908,0.401372198691
751,CALIGNY,0.8,48.8071056766,-0.603648177007
752,CEAUCE,1.2,48.4936450518,-0.634587693157
753,LES CHAMPEAUX,0.1,48.8883947737,0.134248218764
754,DANCE,0.4,48.365249697,0.760404854793
755,EPERRAIS,0.1,48.4156893337,0.54665296801
756,FORGES,0.2,48.4998772451,0.126366341678
757,FRESNAY-LE-SAMSON,0.1,48.872166928,0.207025608696
758,HABLOVILLE,0.30000000000000004,48.7905539735,-0.178098224902
759,LA LANDE-PATRY,1.8,48.7535484464,-0.598148128234
760,LE RENOUARD,0.2,48.9194110342,0.0988609548607
761,SAINT-ANDRE-DE-BRIOUZE,0.2,48.7338760322,-0.327257845989
762,SAINT-GERMAIN-DE-MARTIGNY,0.1,48.5873936203,0.467132104726
763,SAINT-NICOLAS-DE-SOMMAIRE,0.30000000000000004,48.8124271962,0.597978267366
764,SAINT-PIERRE-LA-RIVIERE,0.2,48.815421921,0.186207380362
765,SARCEAUX,0.9,48.7158736886,-0.0346146728609
766,TOUROUVRE,1.6,48.5889926319,0.659944291667
767,TRUN,1.3,48.8509334132,0.0461785983021
768,VILLERS-EN-OUCHE,0.30000000000000004,48.8650136139,0.454664158728
769,AFFRINGUES,0.2,50.6903350571,2.07492436119
770,ALQUINES,0.9,50.7335685811,1.99279258078
771,ANGRES,4.0,50.4095857133,2.75123923187
772,BOMY,0.6000000000000001,50.5693776323,2.22407829439
773,ENQUIN-LES-MINES,1.1,50.5860830884,2.29343023005
774,FIENNES,0.9,50.8239442286,1.83126229183
775,FLEURY,0.1,50.4235609474,2.25298412174
776,GRAINCOURT-LES-HAVRINCOURT,0.6000000000000001,50.1424794757,3.09706084719
777,HERLIN-LE-SEC,0.2,50.3533382181,2.33277640011
778,HEZECQUES,0.1,50.5341909306,2.19182773822
779,HOUCHIN,0.7000000000000001,50.4791705559,2.61907091985
780,HUCQUELIERS,0.5,50.5684694236,1.91564949795
781,HUMBERT,0.2,50.5005174956,1.90980020513
782,INCOURT,0.1,50.3873539733,2.15038878907
783,LENS,35.8,50.4374264148,2.82105851259
784,LONGVILLIERS,0.2,50.5350281811,1.74349784296
785,MAISNIL,0.30000000000000004,50.346716103,2.3577236191
786,MERCK-SAINT-LIEVIN,0.6000000000000001,50.6363344754,2.10761618871
787,MORINGHEM,0.5,50.7633897725,2.12682414351
788,SAINT-MARTIN-D'HARDINGHEM,0.30000000000000004,50.6112309641,2.10476829244
789,SAINT-NICOLAS,4.9,50.3086770117,2.78508314188
790,SENINGHEM,0.6000000000000001,50.6984836133,2.02702639439
791,SIBIVILLE,0.1,50.3047427649,2.33129283098
792,LA THIEULOYE,0.5,50.4137694617,2.43289315348
793,TRESCAULT,0.2,50.0904387311,3.09682034258
794,VERLINCTHUN,0.4,50.6285938608,1.69225464674
795,WIERRE-EFFROY,0.8,50.7718663253,1.73716281389
796,WILLEMAN,0.2,50.3594087947,2.16281250365
797,CHANAT-LA-MOUTEYRE,1.0,45.825281343,3.00698253027
798,CHANONAT,1.6,45.6953181074,3.08324914721
799,CHAPDES-BEAUFORT,1.0,45.8923408221,2.85542542398
800,CHARBONNIERES-LES-VIEILLES,1.0,45.9916492196,3.00764883452
801,COMBRONDE,2.0,45.9858171361,3.08063423598
802,JOZERAND,0.4,46.0248498581,3.09894573011
803,LEZOUX,5.6,45.8287562383,3.38628504923
804,MONTAIGUT,1.0,46.1800902439,2.80149714867
805,PRONDINES,0.30000000000000004,45.7591745171,2.68428069953
806,SAINT-CLEMENT-DE-VALORGUE,0.2,45.5006965349,3.93607974506
807,SAINT-ELOY-LES-MINES,3.7,46.1638179584,2.84278214683
808,SAINT-GAL-SUR-SIOULE,0.1,46.1079395641,2.99416305431
809,SAINT-MAURICE-PRES-PIONSAT,0.4,46.0687545413,2.59304544754
810,SAINT-QUENTIN-SUR-SAUXILLANGES,0.1,45.5452461177,3.41588566339
811,SAINT-REMY-DE-BLOT,0.2,46.0773790361,2.9483504199
812,ARBONNE,2.0,43.4221190537,-1.54906516427
813,ARBOUET-SUSSAUTE,0.30000000000000004,43.3718035763,-0.989499391955
814,ARTIX,3.4,43.3977948105,-0.574159913123
815,BAUDREIX,0.5,43.2056641864,-0.258861524454
816,BERROGAIN-LARUNS,0.1,43.2501740565,-0.862735447746
817,BUNUS,0.1,43.2072970793,-1.06452656523
818,ESTERENCUBY,0.4,43.0817332803,-1.18186745197
819,GARLIN,1.4,43.5599586619,-0.272296457605
820,LOURENTIES,0.30000000000000004,43.2864004571,-0.159610916229
821,MAZERES-LEZONS,2.0,43.2732972829,-0.35479385766
822,NARP,0.1,43.3839548451,-0.825430886901
823,PAGOLLE,0.30000000000000004,43.2250651513,-1.00007203267
824,ARREAU,0.8,42.9142857296,0.338038988881
825,BARLEST,0.30000000000000004,43.1500535146,-0.0958058355214
826,BOURREAC,0.1,43.1053670319,0.00269825078889
827,BRAMEVAQUE,0.0,42.9775013643,0.559652236891
828,CADEAC,0.2,42.894013886,0.335111025922
829,CAMOUS,0.0,42.9402787603,0.389064470055
830,CASTELBAJAC,0.1,43.1819809472,0.356269583215
831,CAUSSADE-RIVIERE,0.1,43.5165153859,0.009786188295
832,CAUTERETS,1.1,42.8522083035,-0.126528407421
833,LASLADES,0.4,43.2304728913,0.165662705335
834,LOUEY,1.0,43.1791075195,0.0196023682592
835,ORDIZAN,0.5,43.1071734446,0.141440645856
836,SABALOS,0.1,43.2845871037,0.145076212959
837,CABESTANY,8.9,42.6790392044,2.94628633406
838,CAMPOUSSY,0.0,42.6951710472,2.45222227409
839,FELLUNS,0.1,42.7608211376,2.48853840388
840,FUILLA,0.4,42.5642517,2.35588100076
841,LANSAC,0.1,42.768061594,2.56512635708
842,MANTET,0.0,42.4532803899,2.29477774171
843,NEFIACH,1.1,42.6961258361,2.65843590263
844,PEYRESTORTES,1.3,42.7483532712,2.8456847121
845,SOURNIA,0.4,42.7145850247,2.41454778007
846,TARERACH,0.1,42.6850004554,2.51090245856
847,TAUTAVEL,0.9,42.8136035868,2.72010210415
848,URBANYA,0.0,42.6433739876,2.29947678761
849,VINGRAU,0.6000000000000001,42.8577422264,2.7906568133
850,ADAMSWILLER,0.4,48.9062078499,7.20176753115
851,ALLENWILLER,0.5,48.6536185967,7.36691370722
852,BAERENDORF,0.30000000000000004,48.8306192171,7.08989424787
853,BETTWILLER,0.30000000000000004,48.8879941966,7.17495885923
854,BIRKENWALD,0.30000000000000004,48.65557085,7.33197631837
855,BURBACH,0.30000000000000004,48.8975113337,7.11153585144
856,DOSSENHEIM-SUR-ZINSEL,1.1,48.814142481,7.37763215457
857,DRACHENBRONN-BIRLENBACH,1.0,48.9809878964,7.87807854084
858,GOXWILLER,0.8,48.4309239256,7.48344951435
859,HERRLISHEIM,4.7,48.7325109113,7.91012947405
860,HURTIGHEIM,0.5,48.6171752515,7.6034009548
861,INNENHEIM,1.1,48.4975444021,7.57352976158
862,NEUGARTHEIM-ITTLENHEIM,0.8,48.6565369611,7.5414687691
863,MONSWILLER,2.2,48.7521963056,7.38626447438
864,OBERROEDERN,0.5,48.9271368909,7.97102967191
865,OTTROTT,1.7000000000000002,48.4434374839,7.36707935429
866,OTTWILLER,0.2,48.8634372221,7.22875830656
867,REICHSFELD,0.30000000000000004,48.3632176114,7.38013240259
868,RETSCHWILLER,0.30000000000000004,48.9509410927,7.8859650468
869,RHINAU,2.7,48.3122226913,7.70444455631
870,RUSS,1.2,48.485644468,7.26907262122
871,SALMBACH,0.6000000000000001,48.9761241768,8.07012964746
872,STEINBOURG,2.0,48.7639649052,7.41351196572
873,TRAENHEIM,0.7000000000000001,48.5940735838,7.46515518656
874,URMATT,1.4,48.5390014537,7.29527991151
875,BRINCKHEIM,0.30000000000000004,47.6210927169,7.45833574797
876,FRANKEN,0.4,47.5945824627,7.35367569573
877,GOLDBACH-ALTENBACH,0.30000000000000004,47.8792538738,7.10493674734
878,GRUSSENHEIM,0.8,48.1464465778,7.49149736481
879,GUEBERSCHWIHR,0.8,48.0068225604,7.25975546236
880,HATTSTATT,0.8,48.0147694216,7.27362142833
881,HEIMSBRUNN,1.5,47.7248268389,7.21972228432
882,HEITEREN,0.9,47.9616184488,7.54628533058
883,KOETZINGUE,0.6000000000000001,47.6485508091,7.39253593441
884,LABAROCHE,2.3,48.1102898888,7.19554860246
885,LIGSDORF,0.30000000000000004,47.4667364645,7.30073437395
886,RIQUEWIHR,1.2,48.1787804995,7.27259187393
887,SAINTE-MARIE-AUX-MINES,5.5,48.2285762223,7.16926143657
888,SCHLIERBACH,1.2,47.6843290932,7.43002796283
889,STEINBRUNN-LE-HAUT,0.6000000000000001,47.6599109756,7.34109225666
890,TRAUBACH-LE-HAUT,0.5,47.6706097792,7.09565668471
891,ZIMMERSHEIM,1.1,47.7187838073,7.38181973945
892,BRIGNAIS,11.4,45.678117475,4.75268787981
893,CHIROUBLES,0.4,46.1855528278,4.65508587528
894,COURZIEU,1.2,45.7410710306,4.5702660914
895,FLEURIE,1.3,46.195108023,4.69220963015
896,QUINCIE-EN-BEAUJOLAIS,1.2,46.1132737898,4.60801374116
897,RONTALON,1.1,45.6566700054,4.61833164833
898,SAIN-BEL,2.2,45.8121205501,4.59925971252
899,SAINT-ANDRE-LA-COTE,0.30000000000000004,45.6322671317,4.59660370042
900,SAINT-CYR-SUR-LE-RHONE,1.2,45.5166530821,4.83257725316
901,SAINT-JUST-D'AVRAY,0.7000000000000001,45.9996999746,4.4526558128
902,SAINT-LAURENT-DE-CHAMOUSSET,1.8,45.7378229671,4.46479069472
903,TREVES,0.7000000000000001,45.5348002841,4.68968539242
904,SAINT-BONNET-DE-MURE,6.3,45.6961833142,5.02220384173
905,SAINT-PIERRE-DE-CHANDIEU,4.5,45.6448417915,5.00876036664
906,ACHEY,0.1,47.5770070289,5.60745476371
907,AINVELLE,0.2,47.8479400704,6.24391333161
908,ANDELARRE,0.1,47.5902572051,6.09074936306
909,AVRIGNEY-VIREY,0.4,47.3393039112,5.77571250318
910,BLONDEFONTAINE,0.2,47.8855876532,5.87130104074
911,BOREY,0.2,47.5806974157,6.35176301516
912,CHASSEY-LES-MONTBOZON,0.2,47.5237818332,6.32649306031
913,COMBEAUFONTAINE,0.6000000000000001,47.7097115215,5.89708044374
914,COUTHENANS,0.8,47.5901202306,6.72594262625
915,EQUEVILLEY,0.1,47.7814086958,6.18035892728
916,LIEVANS,0.1,47.6356797971,6.34783020976
917,LOULANS-VERCHAMP,0.5,47.4450028639,6.20512225954
918,MONTIGNY-LES-CHERLIEU,0.2,47.7872395277,5.81643260789
919,NEUVELLE-LES-CROMARY,0.30000000000000004,47.4079331287,6.06801697703
920,LA PISSEURE,0.0,47.8628951813,6.22816351051
921,PONT-DU-BOIS,0.1,47.9799459833,6.12513402916
922,PROVENCHERE,0.30000000000000004,47.7220120266,6.12391376689
923,PUSEY,1.6,47.6516903952,6.12098049033
924,ROYE,1.3,47.6771506136,6.5417073316
925,RUHANS,0.1,47.4586029452,6.13611036394
926,TINCEY-ET-PONTREBEAU,0.1,47.6032317362,5.78494948833
927,VAIVRE-ET-MONTOILLE,2.3,47.633860629,6.10644479493
928,VANTOUX-ET-LONGEVELLE,0.2,47.4485121912,5.83803356504
929,VAUX-LE-MONCELOT,0.1,47.4769782546,5.90408520859
930,BOUZERON,0.2,46.8915695256,4.72745431658
931,CHAMPLECY,0.2,46.4628044788,4.22805088541
932,CHARNAY-LES-MACON,6.8,46.3041852737,4.78693813476
933,CURBIGNY,0.30000000000000004,46.3116932174,4.31698207413
934,ETRIGNY,0.4,46.5892768003,4.79160201098
935,FONTENAY,0.0,46.4766084028,4.29956693128
936,LA GENETE,0.5,46.549436103,5.04979591392
937,GUERFAND,0.2,46.782165395,5.02905971383
938,HUILLY-SUR-SEILLE,0.30000000000000004,46.6051659343,5.053133023
939,ISSY-L'EVEQUE,0.8,46.7135521882,4.0005402064
940,LALHEUE,0.4,46.650155549,4.79257635293
941,MANCEY,0.4,46.5696717803,4.84535325128
942,MARMAGNE,1.3,46.8429753005,4.37123447631
943,MARTIGNY-LE-COMTE,0.4,46.5367776065,4.33366674854
944,MONT-SAINT-VINCENT,0.30000000000000004,46.6461358907,4.49195438858
945,ORMES,0.5,46.6333104747,4.96657248032
946,PALINGES,1.5,46.547452342,4.20782928989
947,SAINT-BONNET-EN-BRESSE,0.5,46.8588763872,5.17827286067
948,SAINT-DESERT,0.9,46.7571405125,4.71340832367
949,SAINT-LEGER-DU-BOIS,0.5,47.0229494919,4.43237550476
950,SAINT-MAURICE-DES-CHAMPS,0.1,46.6238661451,4.62609375909
951,SAINT-SERNIN-DU-BOIS,1.8,46.8386475435,4.42378430368
952,SERLEY,0.6000000000000001,46.7884184366,5.24237687165
953,VILLENEUVE-EN-MONTAGNE,0.1,46.7620859327,4.58923358635
954,VINDECY,0.30000000000000004,46.3534713337,4.00762169293
955,BEAUFAY,1.4,48.1423466194,0.342290713803
956,BIEUJAC,0.5,44.5383649764,-0.154398483279
957,BOMMES,0.5,44.5529791814,-0.344933084862
958,BRACH,0.5,45.0409201338,-0.948184300809
959,BRANNE,1.3,44.8281852222,-0.180276839156
960,CASTELMORON-D'ALBRET,0.1,44.6794782931,-0.0114847499916
961,GABARNAC,0.30000000000000004,44.6165155968,-0.262725759039
962,HOSTENS,1.3,44.4849173448,-0.656859781081
963,LANDIRAS,2.1,44.5665616702,-0.442802950502
964,LEGE-CAP-FERRET,7.5,44.7609440223,-1.19293697437
965,LES LEVES-ET-THOUMEYRAGUES,0.5,44.7828737867,0.185216218657
966,MERIGNAC,66.5,44.8322953289,-0.681733084891
967,MONTAGNE,1.6,44.9320818849,-0.126958398554
968,PUISSEGUIN,0.9,44.9327886127,-0.0632513144683
969,QUINSAC,2.0,44.7509609178,-0.490697647694
970,SAINT-AVIT-DE-SOULEGE,0.1,44.8116266609,0.120263165999
971,SAINT-YZAN-DE-SOUDIAC,2.1,45.1520899174,-0.405167820724
972,AUMES,0.4,43.4638784757,3.46993966613
973,CABRIERES,0.5,43.5777973112,3.34800607563
974,CAZOULS-LES-BEZIERS,4.3,43.3976310061,3.09968408339
975,CEILHES-ET-ROCOZELS,0.30000000000000004,43.809322318,3.09184232431
976,CLAPIERS,5.1,43.6620192267,3.88689748204
977,COURNIOU,0.6000000000000001,43.489357501,2.69325210308
978,LESPIGNAN,3.1,43.2737109255,3.16982256617
979,PAILHES,0.5,43.4371324494,3.18478770413
980,PERET,0.8,43.5749250914,3.39831770364
981,POPIAN,0.4,43.6241428585,3.53329416559
982,ROQUEREDONDE,0.2,43.7962962251,3.20797377545
983,SAINT-GENIES-DES-MOURGUES,1.6,43.6972031545,4.03751252164
984,SAINT-JULIEN,0.2,43.5848869061,2.9022163453
985,SERVIAN,4.2,43.4143351267,3.30645261407
986,TAUSSAC-LA-BILLIERE,0.5,43.6330025046,3.07651674533
987,VIAS,5.4,43.3131142636,3.39889710362
988,BONNEMAIN,1.3,48.4711533763,-1.7614236564
989,LES BRULAIS,0.5,47.8907025068,-2.05725373415
990,COGLES,0.6000000000000001,48.4546950908,-1.36403299793
991,COMBOURTILLE,0.6000000000000001,48.2659507718,-1.26462449893
992,DROUGES,0.5,47.9018762772,-1.26101928892
993,LAIGNELET,1.0,48.379896716,-1.152249408
994,LE LOROUX,0.6000000000000001,48.3948985787,-1.0831112937
995,PIPRIAC,3.5,47.8116756729,-1.93781141913
996,SAINT-SYMPHORIEN,0.5,48.280614851,-1.80334544561
997,TAILLIS,1.0,48.1846341773,-1.24010156402
998,ANJOUIN,0.30000000000000004,47.2008943989,1.80745396051
999,BAUDRES,0.5,47.0521492475,1.57305496545
1000,LA CHATRE,4.5,46.5738617061,1.99112468906
1001,DIORS,0.7000000000000001,46.8294887211,1.81115700532
1002,LURAIS,0.2,46.6878513491,0.937216531821
1003,LE PONT-CHRETIEN-CHABENET,1.0,46.6284901287,1.50039089772
1004,POULIGNY-SAINT-MARTIN,0.2,46.5149038846,2.00555545984
1005,SAINT-GENOU,1.0,46.911791678,1.3504650552
1006,AZAY-LE-RIDEAU,3.4,47.2729677305,0.469464530446
1007,BARROU,0.5,46.8814967134,0.77481154577
1008,BERTHENAY,0.7000000000000001,47.3604120561,0.525356323149
1009,CHATEAU-RENAULT,5.2,47.592456846,0.909725910608
1010,CUSSAY,0.6000000000000001,47.0190077261,0.768935236733
1011,DAME-MARIE-LES-BOIS,0.30000000000000004,47.5494780596,1.04682075879
1012,L'ILE-BOUCHARD,1.8,47.1228671821,0.423044659345
1013,MONNAIE,3.9,47.4985433749,0.786215614417
1014,REIGNAC-SUR-INDRE,1.2,47.2227739628,0.916489887764
1015,RIGNY-USSE,0.5,47.2510833854,0.305125199741
1016,SAINT-PATRICE,0.7000000000000001,47.2909121663,0.301054429899
1017,LA TOUR-SAINT-GELIN,0.6000000000000001,47.0616135081,0.395504647146
1018,VERNOU-SUR-BRENNE,2.7,47.4364709418,0.840522961701
1019,BRESSON,0.7000000000000001,45.1342682884,5.7510667411
1020,CHOLONGE,0.30000000000000004,45.00953005,5.80042911012
1021,CLONAS-SUR-VAREZE,1.5,45.4145802588,4.79236442681
1022,LALLEY,0.2,44.74656983,5.68463742085
1023,LAVALDENS,0.2,44.9921098746,5.90329398345
1024,MAYRES-SAVEL,0.1,44.8864456242,5.71096631054
1025,MIRIBEL-LES-ECHELLES,1.7000000000000002,45.4371806956,5.70815670688
1026,NOTRE-DAME-DE-COMMIERS,0.5,45.009447432,5.70400358606
1027,OZ,0.2,45.1279422675,6.07379501436
1028,POISAT,2.1,45.1541844702,5.77015327234
1029,PORCIEU-AMBLAGNIEU,1.6,45.8376455099,5.3925679772
1030,QUAIX-EN-CHARTREUSE,0.9,45.2568837675,5.73045716055
1031,LA RIVIERE,0.6000000000000001,45.2240239365,5.51354806573
1032,ROYBON,1.3,45.248160347,5.24908854809
1033,SAINT-AGNIN-SUR-BION,0.8,45.5389105231,5.23930299059
1034,SAINT-ANTOINE-L'ABBAYE,1.0,45.1722353559,5.21609050981
1035,SAINT-LATTIER,1.3,45.0933060303,5.18523637419
1036,SAINT-LAURENT-DU-PONT,4.5,45.3801495125,5.73532117087
1037,SARDIEU,1.0,45.3601004595,5.22079778885
1038,SICCIEU-SAINT-JULIEN-ET-CARISIEU,0.6000000000000001,45.7304007028,5.31489253784
1039,SIEVOZ,0.1,44.9050907619,5.85034623903
1040,TREPT,1.7000000000000002,45.6887973335,5.32417967781
1041,VAUJANY,0.4,45.1859501917,6.10152969645
1042,LE VERSOUD,4.5,45.2221893714,5.85871984364
1043,VILLARD-BONNOT,7.3,45.2446205727,5.88906725424
1044,VIZILLE,7.6,45.075027515,5.77956710747
1045,BIARNE,0.4,47.1454413505,5.45151056819
1046,CHILLY-LE-VIGNOBLE,0.6000000000000001,46.6596723262,5.49690965689
1047,CUTTURA,0.30000000000000004,46.4175271343,5.81942300559
1048,CUVIER,0.2,46.8392780314,6.06612873386
1049,GIGNY,0.30000000000000004,46.4543990771,5.4715682164
1050,GRAYE-ET-CHARNAY,0.1,46.4731744736,5.44898680296
1051,LESCHERES,0.2,46.4602324129,5.829681829
1052,LA MARRE,0.30000000000000004,46.7337108015,5.70313863162
1053,MAYNAL,0.30000000000000004,46.5672563014,5.4124890744
1054,MESSIA-SUR-SORNE,0.8,46.6631538185,5.51569429363
1055,MOLAIN,0.1,46.8251611212,5.81711896426
1056,MOURNANS-CHARBONNY,0.1,46.7768224778,5.99039184457
1057,NOZEROY,0.4,46.7701820347,6.03611938375
1058,SAINT-DIDIER,0.30000000000000004,46.7082790966,5.51275222992
1059,SAINT-JULIEN,0.5,46.3963208,5.4577858737
1060,SELLIERES,0.8,46.8254197035,5.55675238512
1061,VARESSIA,0.0,46.5577977986,5.53855589458
1062,VERTAMBOZ,0.1,46.6012469433,5.7478516954
1063,VILLERS-LES-BOIS,0.2,46.9258758572,5.56896755251
1064,BROCAS,0.8,44.0455210559,-0.542490022307
1065,CAMPAGNE,0.9,43.8621880955,-0.639177519978
1066,CAZERES-SUR-L'ADOUR,1.1,43.7643443034,-0.284507617354
1067,LABATUT,1.4,43.5522821806,-0.998234258589
1068,LAGRANGE,0.2,43.9663777626,-0.0809775646535
1069,MEILHAN,1.1,43.859612287,-0.695576864864
1070,MONGET,0.1,43.5593376119,-0.534718563495
1071,PARLEBOSCQ,0.5,43.9367664838,0.0351952892185
1072,PERQUIE,0.4,43.8652740787,-0.259063965036
1073,PIMBO,0.2,43.577275978,-0.376833921206
1074,SAINT-AUBIN,0.5,43.7176125498,-0.720049420031
1075,TOULOUZETTE,0.30000000000000004,43.7552090028,-0.673971025174
1076,VIELLE-SOUBIRAN,0.2,44.0556601833,-0.17137876019
1077,BAILLOU,0.2,47.9837179954,0.853704116727
1078,COUTURE-SUR-LOIR,0.4,47.7491446758,0.685596092581
1079,HOUSSAY,0.4,47.7446954686,0.947069193008
1080,OUCHAMPS,0.8,47.474967269,1.31995907778
1081,PRUNAY-CASSEREAU,0.6000000000000001,47.6845526893,0.912628813807
1082,RAHART,0.30000000000000004,47.869943021,1.06095189274
1083,RENAY,0.2,47.8392110621,1.17285657827
1084,SAINT-GERVAIS-LA-FORET,3.3,47.5607456407,1.36138962511
1085,SEUR,0.5,47.5120775823,1.33780476755
1086,VILLEBAROU,2.6,47.6266800111,1.3190312927
1087,VILLENY,0.4,47.6229791934,1.75261229637
1088,AMBIERLE,1.8,46.1059597472,3.89158878833
1089,BURDIGNES,0.30000000000000004,45.2639294858,4.55951022656
1090,CHALAIN-D'UZORE,0.5,45.6726268892,4.06032311486
1091,CREMEAUX,0.9,45.9152976183,3.92450322981
1092,SAIL-SOUS-COUZAN,1.0,45.7364287162,3.96098461916
1093,SAINT-MARTIN-LESTRA,0.9,45.731526312,4.3688277633
1094,SOLEYMIEUX,0.6000000000000001,45.5062879483,4.06396167678
1095,LA TOURETTE,0.6000000000000001,45.423867276,4.08330513601
1096,LA VALLA-SUR-ROCHEFORT,0.1,45.7570573069,3.84373877987
1097,LA VALLA-EN-GIER,0.9,45.4052097313,4.52491972285
1098,BONNEVAL,0.1,45.3071974521,3.73265669732
1099,LA CHAPELLE-D'AUREC,0.9,45.3308947174,4.205185256
1100,LAVAUDIEU,0.2,45.2627483752,3.45499387355
1101,RETOURNAC,2.7,45.2190833833,4.0281941736
1102,SAINT-PREJET-ARMANDON,0.1,45.2494259464,3.55233411018
1103,SAINT-PRIVAT-DU-DRAGON,0.2,45.194796266,3.44322904217
1104,SAINT-ROMAIN-LACHALM,1.0,45.2650235989,4.33989066795
1105,SAINT-VICTOR-MALESCOURS,0.8,45.2943304706,4.32399276443
1106,CHEMERE,2.2,47.138874575,-1.88952152249
1107,GETIGNE,3.4,47.0812318041,-1.21795705627
1108,LUSANGER,1.0,47.6764268397,-1.58177485033
1109,MACHECOUL,5.9,46.9910784513,-1.82345670327
1110,PONTCHATEAU,9.5,47.433636363,-2.09556089039
1111,SAINT-COLOMBAN,3.1,47.0251492396,-1.55906118865
1112,SAINT-ETIENNE-DE-MONTLUC,6.6,47.265112989,-1.78426879748
1113,SAINT-JULIEN-DE-CONCELLES,6.8,47.246301757,-1.40639571844
1114,VERTOU,21.3,47.1603732625,-1.47052291749
1115,BRAY-EN-VAL,1.4,47.8291578282,2.38062384404
1116,DAMMARIE-SUR-LOING,0.5,47.7817425428,2.87377434188
1117,DRY,1.4,47.7916018674,1.7282632469
1118,FAY-AUX-LOGES,3.3,47.9326007256,2.16025043268
1119,FEINS-EN-GATINAIS,0.1,47.746772016,2.83706429423
1120,LA FERTE-SAINT-AUBIN,7.1,47.7119750833,1.92714666074
1121,LORRIS,2.9,47.86274799,2.49842209081
1122,MARIGNY-LES-USAGES,1.1,47.9586997126,2.01335739058
1123,ORVEAU-BELLESAUVE,0.4,48.2864785648,2.33847894269
1124,PRESNOY,0.2,47.9580605247,2.5589554736
1125,ROZOY-LE-VIEIL,0.4,48.1183432161,2.95141929917
1126,SAINT-BRISSON-SUR-LOIRE,1.0,47.6322639103,2.67602869119
1127,SAINT-LOUP-DE-GONOIS,0.1,48.0636348255,2.92514568518
1128,CANIAC-DU-CAUSSE,0.30000000000000004,44.6300356626,1.65611420144
1129,ESPAGNAC-SAINTE-EULALIE,0.1,44.5924781077,1.86121136331
1130,GRAMAT,3.5,44.7635603644,1.71620459363
1131,ORNIAC,0.1,44.5429306051,1.67747447618
1132,SAINT-JEAN-MIRABEL,0.2,44.632783042,2.10766721275
1133,SENAILLAC-LAUZES,0.1,44.58919537,1.65078295529
1134,SENIERGUES,0.1,44.714653063,1.560844102
1135,BESSONIES,0.1,44.8085327316,2.14444051482
1136,BIAS,3.2,44.410110122,0.669751567768
1137,LAGARRIGUE,0.30000000000000004,44.2900011672,0.385094294194
1138,MONCLAR,0.8,44.4444866326,0.520661988159
1139,PAULHIAC,0.30000000000000004,44.5751133813,0.826150001354
1140,PRAYSSAS,0.9,44.2940807275,0.514265870524
1141,SAINTE-COLOMBE-DE-VILLENEUVE,0.4,44.3573026111,0.6571276816
1142,SAINT-ETIENNE-DE-VILLEREAL,0.30000000000000004,44.6120850351,0.762177045599
1143,SAINTE-MARTHE,0.5,44.415315629,0.148396676303
1144,SAINT-SERNIN,0.4,44.7063934803,0.238983913386
1145,SAINT-VITE,1.2,44.4672729873,0.933693165235
1146,SEGALAS,0.2,44.5896223889,0.531957524154
1147,VILLEFRANCHE-DU-QUEYRAN,0.4,44.3035817658,0.212075905878
1148,VILLENEUVE-DE-DURAS,0.30000000000000004,44.7431410072,0.236705343695
1149,ALBARET-SAINTE-MARIE,0.6000000000000001,44.8864422814,3.25064355451
1150,ARZENC-DE-RANDON,0.2,44.6534793285,3.6149096338
1151,MALBOUZON,0.1,44.7070956214,3.13030307295
1152,PALHERS,0.2,44.5204094847,3.30780766253
1153,RECOULES-DE-FUMAS,0.1,44.6318260486,3.3333350494
1154,SAINT-BONNET-DE-MONTAUROUX,0.1,44.8174157178,3.72227564708
1155,SAINT-LAURENT-DE-MURET,0.2,44.5986955189,3.17537194079
1156,SAINT-SAUVEUR-DE-GINESTOUX,0.1,44.7018049753,3.61535812137
1157,BAUGE,3.7,47.5466894738,-0.109021794815
1158,CHIGNE,0.30000000000000004,47.5762354871,0.111148577918
1159,DENEZE-SOUS-DOUE,0.4,47.2528537089,-0.259868894277
1160,FONTAINE-GUERIN,0.9,47.4829167789,-0.174198642479
1161,JARZE,1.6,47.5576434301,-0.24007574412
1162,MARCE,0.9,47.5822974995,-0.300211738642
1163,MONTFORT,0.1,47.1888469498,-0.215553855338
1164,MONTREVAULT,1.3,47.255395404,-1.05160971025
1165,NEUVY-EN-MAUGES,0.8,47.2681820475,-0.812522922863
1166,SAINT-AUGUSTIN-DES-BOIS,1.0,47.4545053471,-0.800399129373
1167,SAINT-SIGISMOND,0.4,47.4512573953,-0.942796446768
1168,SCEAUX-D'ANJOU,0.9,47.6313080266,-0.60969581753
1169,SEGRE,6.7,47.7016654227,-0.863354104119
1170,SOMLOIRE,0.9,47.0353125936,-0.595627270209
1171,CHAMPREPUS,0.30000000000000004,48.8340009078,-1.31607889446
1172,FERRIERES,0.1,48.5454487171,-0.954974481405
1173,LE GRAND-CELLAND,0.6000000000000001,48.6882059438,-1.17301300163
1174,HUDIMESNIL,0.9,48.870028751,-1.46798288631
1175,LIESVILLE-SUR-DOUVE,0.2,49.3526847756,-1.322250003
1176,LONGUEVILLE,0.6000000000000001,48.8585636393,-1.5352864546
1177,LE MESNIL-ROUXELIN,0.5,49.1423322166,-1.07833436341
1178,MILLIERES,0.7000000000000001,49.1906741242,-1.45514260552
1179,MONTMARTIN-EN-GRAIGNES,0.6000000000000001,49.2674470247,-1.16552700264
1180,ORGLANDES,0.30000000000000004,49.4240734293,-1.44023948223
1181,QUINEVILLE,0.30000000000000004,49.5108915382,-1.30534056299
1182,LE ROZEL,0.30000000000000004,49.4814801103,-1.82868622801
1183,SAINTE-CROIX-HAGUE,0.7000000000000001,49.642621281,-1.76503469066
1184,SAINT-GEORGES-DE-BOHON,0.4,49.2565704383,-1.25960466243
1185,SAINT-LO-D'OURVILLE,0.5,49.3317884523,-1.67378144777
1186,SAINT-PELLERIN,0.4,49.2953094902,-1.18923938817
1187,TREAUVILLE,0.7000000000000001,49.5379513416,-1.82387618642
1188,VALOGNES,7.2,49.5128276096,-1.47383499973
1189,VASTEVILLE,1.1,49.5990015094,-1.7918666797
1190,VILLIERS-LE-PRE,0.2,48.5328566587,-1.38845596888
1191,ATHIS,0.8,49.0072417062,4.12566505905
1192,BERGERES-LES-VERTUS,0.6000000000000001,48.8730736689,4.00812828777
1193,BUSSY-LE-REPOS,0.1,48.9030368503,4.74003720995
1194,CERNAY-LES-REIMS,1.3,49.2538223791,4.10981558086
1195,COURTAGNON,0.1,49.1443836828,3.94593690729
1196,DAMERY,1.5,49.080484604,3.87786708147
1197,LES ESSARTS-LES-SEZANNE,0.30000000000000004,48.7648493747,3.63896907299
1198,FONTAINE-EN-DORMOIS,0.0,49.2404904108,4.72158432493
1199,LA FORESTIERE,0.2,48.6603046786,3.6042984967
1200,GERMAINE,0.5,49.1188404223,4.03185929464
1201,GRANGES-SUR-AUBE,0.2,48.5884688345,3.85896108603
1202,HANS,0.2,49.1139160574,4.74397425381
1203,HERPONT,0.1,48.9901236506,4.71862295964
1204,ISSE,0.1,49.0697584759,4.21594077406
1205,JONCHERY-SUR-SUIPPE,0.2,49.1397315843,4.47372094597
1206,LENHARREE,0.1,48.7792639645,4.11685316512
1207,MAIRY-SUR-MARNE,0.6000000000000001,48.8677969763,4.39336523723
1208,MARCILLY-SUR-SEINE,0.6000000000000001,48.5553652866,3.71047973437
1209,LE MEIX-SAINT-EPOING,0.30000000000000004,48.69506554,3.65422262759
1210,OUTINES,0.1,48.5586240355,4.66870052428
1211,PLICHANCOURT,0.2,48.7405847183,4.67233357502
1212,POUILLON,0.5,49.3134262923,3.94532083722
1213,RILLY-LA-MONTAGNE,1.0,49.1634301759,4.0458133231
1214,SAINT-EULIEN,0.4,48.6835488012,4.87961420424
1215,SAUDOY,0.4,48.6819330141,3.69807910524
1216,UNCHAIR,0.2,49.2870911732,3.74648367671
1217,VASSIMONT-ET-CHAPELAINE,0.1,48.7597343436,4.13985568358
1218,PRUNELLI-DI-FIUMORBO,3.3,42.0072330034,9.36772895124
1219,SPELONCATO,0.30000000000000004,42.5743163085,8.96966763769
1220,SANTO-PIETRO-DI-TENDA,0.30000000000000004,42.6724371425,9.20380969804
1221,VIGNALE,0.2,42.5371661003,9.39510195579
1222,VIVARIO,0.5,42.1523820761,9.12065538823
1223,SAN-GAVINO-DI-FIUMORBO,0.2,41.9714498244,9.24775602009
1224,AUMESSAS,0.2,44.0113365754,3.51374005993
1225,MASSANES,0.2,44.0223485002,4.11089321183
1226,NERS,0.7000000000000001,44.0243244124,4.15845569543
1227,NIMES,140.7,43.844938394,4.34806796996
1228,RIBAUTE-LES-TAVERNES,1.7000000000000002,44.0418878865,4.08501586323
1229,SAINT-ANDRE-DE-MAJENCOULES,0.6000000000000001,44.0274774754,3.67645577466
1230,SAINT-ANDRE-DE-VALBORGNE,0.5,44.1476476774,3.68551072033
1231,SAINT-BENEZET,0.30000000000000004,43.9911168428,4.13585383193
1232,SAINT-BONNET-DE-SALENDRINQUE,0.1,44.0361215826,3.8716582524
1233,SAINT-DEZERY,0.4,43.9956592044,4.26527748265
1234,SAINT-SEBASTIEN-D'AIGREFEUILLE,0.5,44.1146870465,3.99030045103
1235,THARAUX,0.1,44.2419428616,4.32299911725
1236,THEZIERS,1.0,43.9037474433,4.6260789572
1237,VERS-PONT-DU-GARD,1.7000000000000002,43.9668458822,4.51945060223
1238,AUZAS,0.2,43.1744807427,0.894158891084
1239,BELLESSERRE,0.1,43.7873665231,1.10128941207
1240,BERAT,2.7,43.377910708,1.17131231039
1241,CAPENS,0.5,43.3349294314,1.25981787784
1242,CARBONNE,5.2,43.3014494679,1.21849966052
1243,CASTELGAILLARD,0.1,43.352091246,0.901912825584
1244,CAZAUX-LAYRISSE,0.1,42.8715028336,0.59693837031
1245,FLOURENS,1.8,43.5977742595,1.55391307823
1246,FRANCON,0.2,43.26180406,0.988074142918
1247,GOUDEX,0.0,43.379000165,0.956722532352
1248,GOYRANS,0.9,43.4816353803,1.42653323258
1249,JUZET-D'IZAUT,0.2,42.9699962027,0.757388801207
1250,LAVELANET-DE-COMMINGES,0.6000000000000001,43.2526939851,1.11470722168
1251,MARTRES-DE-RIVIERE,0.4,43.0829629746,0.64483561143
1252,MASSABRAC,0.1,43.2218312967,1.36710649569
1253,MONTAUT,0.5,43.3455690999,1.31066640833
1254,MONTBRUN-BOCAGE,0.5,43.1195780479,1.24932023681
1255,NOUEILLES,0.30000000000000004,43.4150222311,1.52583069326
1256,PAULHAC,1.1,43.7542223312,1.55478228901
1257,PIBRAC,8.0,43.6274385363,1.26139475262
1258,PUYSSEGUR,0.1,43.7519671546,1.06615759128
1259,SAINT-CLAR-DE-RIVIERE,1.2,43.4758983843,1.20896843964
1260,SAINTE-FOY-DE-PEYROLIERES,2.0,43.4808986734,1.13693209455
1261,SAINT-JULIA,0.4,43.4940652738,1.89419935625
1262,SAVARTHES,0.1,43.1222207361,0.803999322883
1263,TERREBASSE,0.1,43.2393487064,0.972479677167
1264,VENDINE,0.2,43.5907350293,1.7654488225
1265,ARBLADE-LE-HAUT,0.30000000000000004,43.7407745105,-0.061788186637
1266,BETPLAN,0.1,43.4186571432,0.209559608431
1267,BEZOLLES,0.1,43.8198696672,0.349413989939
1268,FREGOUVILLE,0.30000000000000004,43.57691237,0.95458639452
1269,PEBEES,0.1,43.4606720707,1.02549034693
1270,REANS,0.30000000000000004,43.8713310328,0.0375331415529
1271,SAINTE-CHRISTIE-D'ARMAGNAC,0.4,43.7937355004,-0.00494982246103
1272,SAINT-CLAR,1.0,43.8928262507,0.761393836193
1273,SOLOMIAC,0.4,43.8030207039,0.886775990796
1274,TOURDUN,0.1,43.5472486577,0.160157307387
1275,VIELLA,0.5,43.6004267711,-0.138847798768
1276,COURDEMANCHE,0.5,48.8022859071,1.27664231305
1277,GISORS,11.7,49.2786723691,1.76876649685
1278,GIVERVILLE,0.30000000000000004,49.1913962513,0.56791752866
1279,JOUY-SUR-EURE,0.6000000000000001,49.0495174919,1.29182535231
1280,LILLY,0.1,49.4029373278,1.56677975295
1281,LOUVIERS,17.9,49.2206099164,1.15340030158
1282,MALOUY,0.1,49.1279630257,0.528705330405
1283,MARBEUF,0.4,49.1542331428,0.962852626564
1284,LE NEUBOURG,4.2,49.1482790328,0.897176574238
1285,NOARDS,0.1,49.2105065692,0.509712795627
1286,NOTRE-DAME-D'EPINE,0.1,49.1946525177,0.597493274128
1287,SAINT-ANDRE-DE-L'EURE,3.4,48.9026554238,1.27831847187
1288,SAINT-AQUILIN-DE-PACY,0.6000000000000001,49.009709894,1.3508836256
1289,SAINT-AUBIN-SUR-QUILLEBEUF,0.6000000000000001,49.4493583444,0.52491272728
1290,SAINT-PIERRE-D'AUTILS,1.0,49.1247226398,1.42757883958
1291,SAINT-PIERRE-DU-MESNIL,0.1,48.9313598813,0.575173160724
1292,TOURVILLE-LA-CAMPAGNE,0.9,49.2254432812,0.899258865151
1293,VAUX-SUR-EURE,0.30000000000000004,49.0358655826,1.33388811683
1294,BARMAINVILLE,0.1,48.259028961,1.95473845597
1295,CHALLET,0.4,48.5557196797,1.42782660043
1296,CLEVILLIERS,0.7000000000000001,48.5510764723,1.38436336991
1297,MEZIERES-AU-PERCHE,0.1,48.2503282821,1.27119066216
1298,SAINT-LUBIN-DE-CRAVANT,0.1,48.7071767352,1.10138248239
1299,SERAZEREUX,0.5,48.5949002026,1.43635782347
1300,SERVILLE,0.4,48.7695206769,1.48740784688
1301,YEVRES,1.7000000000000002,48.1911088268,1.1911717339
1302,BRELES,0.8,48.4709032483,-4.68640383039
1303,CLEDEN-POHER,1.1,48.2430990086,-3.66446573212
1304,CORAY,1.8,48.0658709885,-3.85508306366
1305,ESQUIBIEN,1.6,48.0285435257,-4.56510692313
1306,CONFORT-MEILARS,0.9,48.0555503715,-4.43487649608
1307,PLOUESCAT,3.7,48.6657604594,-4.17989213924
1308,PLOUGOULM,1.8,48.655920654,-4.04176176078
1309,PLOUNEOUR-MENEZ,1.2,48.4451584128,-3.88112677396
1310,PLOUNEVEZEL,1.2,48.3124244266,-3.57451157796
1311,SAINT-DERRIEN,0.7000000000000001,48.5448011454,-4.1857054177
1312,TELGRUC-SUR-MER,2.1,48.2337280531,-4.35717463573
1313,OLMICCIA,0.1,41.6701338778,9.03297164192
1314,ORTO,0.1,42.1989987238,8.95741133196
1315,SERRA-DI-FERRO,0.5,41.7410474334,8.81250812436
1316,VIGGIANELLO,0.6000000000000001,41.6691692239,8.94530373652
1317,ZIGLIARA,0.1,41.8346717318,8.9837582773
1318,AREGNO,0.6000000000000001,42.591747308,8.8768922389
1319,CAMPITELLO,0.1,42.526148234,9.3252006896
1320,LINGUIZZETTA,1.1,42.2176450793,9.51024497679
1321,MONTE,0.6000000000000001,42.4830064392,9.40129428843
1322,NONZA,0.1,42.7882252962,9.35435781818
1323,PIAZZALI,0.0,42.3198576834,9.40593909318
1324,CHERONVILLIERS,0.5,48.7921490102,0.760679577502
1325,COURBEPINE,0.7000000000000001,49.1293094881,0.566197050846
1326,DAMPSMESNIL,0.2,49.1668973891,1.65040143759
1327,LE FAVRIL,0.2,49.1831075532,0.525458384869
1328,FONTAINE-LA-LOUVET,0.30000000000000004,49.1584396153,0.445984273017
1329,FONTENAY,0.30000000000000004,49.2107584933,1.57385495221
1330,GARENCIERES,0.6000000000000001,48.9496964914,1.25678069483
1331,GIVERNY,0.5,49.0819438915,1.53288773518
1332,HEUDEBOUVILLE,0.8,49.1927471606,1.23713234517
1333,LIEUREY,1.4,49.2331857585,0.500797947975
1334,PUCHAY,0.6000000000000001,49.3540348,1.52612367067
1335,SAINT-CYR-DE-SALERNE,0.2,49.1855526702,0.65343557534
1336,SAINT-DIDIER-DES-BOIS,0.8,49.2421475882,1.03799697166
1337,SAINT-LUC,0.2,48.9736657666,1.23335452626
1338,SAINT-OUEN-DE-PONTCHEUIL,0.1,49.2347786793,0.950431640532
1339,SAINT-OUEN-DE-THOUBERVILLE,2.3,49.3490825032,0.895681824857
1340,SAINT-PIERRE-DE-CERNIERES,0.2,48.9309306433,0.519530805974
1341,SAINT-PIERRE-DU-BOSGUERARD,1.0,49.2603785752,0.889845765495
1342,SASSEY,0.2,49.0502192536,1.2227926418
1343,TOURNY,0.9,49.1874468221,1.54640394705
1344,VEZILLON,0.2,49.2217888937,1.3986752654
1345,AUNAY-SOUS-CRECY,0.6000000000000001,48.6575767516,1.30387542544
1346,DANCY,0.2,48.1527632149,1.46203314181
1347,ECLUZELLES,0.2,48.7084339399,1.42195083018
1348,FONTENAY-SUR-EURE,0.8,48.4059853535,1.42241249487
1349,ORMOY,0.2,48.6243546141,1.47177078539
1350,PEZY,0.30000000000000004,48.3154558821,1.56655434784
1351,PRUNAY-LE-GILLON,0.9,48.3665143772,1.63539609302
1352,ROHAIRE,0.1,48.6667438404,0.839547342501
1353,SANTEUIL,0.30000000000000004,48.3828802713,1.7401363101
1354,SANTILLY,0.4,48.1486900011,1.87957339759
1355,SAULNIERES,0.6000000000000001,48.6650549297,1.26632253638
1356,UMPEAU,0.4,48.4684563155,1.66580333613
1357,BRENNILIS,0.5,48.3596142812,-3.85052670212
1358,LA FOREST-LANDERNEAU,1.8,48.4342711427,-4.31491864921
1359,GUILVINEC,2.9,47.8012448483,-4.28617785695
1360,LAMPAUL-GUIMILIAU,2.0,48.4836867404,-4.04069753915
1361,LOCUNOLE,1.1,47.9243454961,-3.48583985781
1362,LOPERHET,3.6,48.3840209584,-4.31381265183
1363,LOQUEFFRET,0.4,48.3294972267,-3.85916862997
1364,LA MARTYRE,0.8,48.4367154083,-4.17012102648
1365,PLOMEUR,3.6,47.8382971548,-4.29445064417
1366,PLOUEGAT-GUERAND,1.1,48.621971426,-3.6705039462
1367,PLOUGONVEN,3.3,48.5052769563,-3.72721201852
1368,ROSNOEN,1.0,48.2716564234,-4.19913863918
1369,SAINT-GOAZEC,0.7000000000000001,48.1512436347,-3.76561570465
1370,LE TREHOU,0.6000000000000001,48.3938578197,-4.12922038869
1371,ALTAGENE,0.1,41.7091975922,9.07705100575
1372,CASAGLIONE,0.4,42.0695824094,8.75999305453
1373,MARIGNANA,0.1,42.2083267447,8.72012145017
1374,MURZO,0.1,42.1585493633,8.84670847877
1375,UCCIANI,0.5,42.0469909829,8.98239119896
1376,ALBERTACCE,0.2,42.3117941076,8.92423033485
1377,GHISONACCIA,3.7,42.0437178075,9.42260770968
1378,SILVARECCIO,0.1,42.4530552903,9.41788528717
1379,SISCO,1.0,42.8144761556,9.44224958213
1380,SANT'ANDREA-DI-COTONE,0.2,42.3152789524,9.47199287722
1381,BEAUCAIRE,15.9,43.7797429509,4.59380296865
1382,GARONS,4.4,43.7717357731,4.43848561872
1383,MUS,1.3,43.7371547201,4.20278682851
1384,NAVACELLES,0.30000000000000004,44.1655136913,4.23593579297
1385,SAINT-JUST-ET-VACQUIERES,0.30000000000000004,44.1005216678,4.23587499395
1386,SEYNES,0.1,44.1120676608,4.29388522611
1387,AUSSONNE,6.2,43.6836034494,1.32887054853
1388,AZAS,0.5,43.7200477116,1.67437358788
1389,BAREN,0.0,42.8676983193,0.634971126368
1390,BAZUS,0.6000000000000001,43.7357441741,1.51960464279
1391,BEAUPUY,1.3,43.6525825042,1.55869879525
1392,BOISSEDE,0.1,43.4071039513,0.826216857936
1393,CASTIES-LABRANDE,0.1,43.3277537605,0.993442219827
1394,COURET,0.2,43.0492105288,0.816891672701
1395,DAUX,1.8,43.6872531862,1.26634638544
1396,JURVIELLE,0.0,42.8293252731,0.475016792399
1397,JUZES,0.1,43.4471276111,1.79347652101
1398,LABASTIDE-PAUMES,0.1,43.3331852393,0.935633531928
1399,MARIGNAC-LASPEYRES,0.2,43.2127779264,0.961748306481
1400,MONES,0.1,43.4181669738,1.03320759
1401,MONTESQUIEU-LAURAGAIS,0.9,43.4073286541,1.62763249857
1402,MONTGISCARD,2.1,43.4551909277,1.57052406322
1403,POINTIS-DE-RIVIERE,0.9,43.0908571473,0.625846864385
1404,AIGNAN,0.8,43.6944329355,0.0870356646596
1405,BEAUMONT,0.1,43.9377749989,0.290830760764
1406,BERRAC,0.1,44.0109156469,0.549268735595
1407,CASTILLON-DEBATS,0.30000000000000004,43.7311656777,0.219388894885
1408,CASTILLON-MASSAS,0.2,43.7164195467,0.541095638869
1409,CLERMONT-POUYGUILLES,0.2,43.4769070936,0.524132562872
1410,ESTIPOUY,0.2,43.5489973187,0.387102294766
1411,JUILLAC,0.1,43.542341334,0.12212200093
1412,MARCIAC,1.2,43.521249291,0.156300856185
1413,MIRAMONT-D'ASTARAC,0.4,43.5464182509,0.466668332736
1414,MONLAUR-BERNET,0.2,43.3481362028,0.512127645248
1415,MONTIES,0.1,43.3922616846,0.681459994602
1416,PRECHAC,0.2,43.7937593553,0.571624025705
1417,RIGUEPEU,0.2,43.6535301876,0.33796916031
1418,SAINT-GERMIER,0.2,43.6735302735,0.958403748596
1419,SAINT-MONT,0.30000000000000004,43.644278367,-0.140293846717
1420,SEAILLES,0.1,43.7514305995,0.114512954869
1421,SEGOUFIELLE,0.9,43.6308520432,1.13179553628
1422,SION,0.1,43.7385172252,0.00694029639365
1423,TILLAC,0.30000000000000004,43.4781527025,0.264769117337
1424,VALENCE-SUR-BAISE,1.2,43.8682182718,0.363460547299
1425,ARBIS,0.30000000000000004,44.6725868035,-0.2547200817
1426,AUDENGE,5.8,44.7138966628,-0.944173294479
1427,AYGUEMORTE-LES-GRAVES,0.9,44.702438627,-0.484145189594
1428,LES BILLAUX,1.1,44.962026014,-0.242724056573
1429,BONZAC,0.8,45.0072015945,-0.221528081748
1430,CARS,1.2,45.1284908523,-0.616952904879
1431,CASTELVIEL,0.2,44.6665619029,-0.152086542362
1432,CESTAS,16.4,44.7237410966,-0.726825410115
1433,CUSSAC-FORT-MEDOC,2.0,45.1199548347,-0.72618379335
1434,IZON,5.4,44.922024323,-0.355652161244
1435,LANGOIRAN,2.2,44.7077300213,-0.374262816088
1436,LARTIGUE,0.1,44.252892627,-0.0912924578468
1437,LIBOURNE,23.8,44.9130767869,-0.234709332068
1438,LIGNAN-DE-BAZAS,0.30000000000000004,44.432658053,-0.276912828373
1439,LOUCHATS,0.7000000000000001,44.51328218,-0.57113615369
1440,MASSUGAS,0.30000000000000004,44.7697025762,0.101172936078
1441,MONTUSSAN,2.6,44.8830118626,-0.429149844535
1442,QUEYRAC,1.4,45.3608901239,-1.00082649674
1443,SAINT-GENIS-DU-BOIS,0.1,44.6998143396,-0.183471650836
1444,SAINT-HILAIRE-DU-BOIS,0.1,44.6612294768,-0.0744756650033
1445,SAINT-LAURENT-DU-PLAN,0.1,44.6255670089,-0.117013007902
1446,SAINT-MARTIAL,0.2,44.6326268868,-0.177651348773
1447,SAINT-MARTIN-LACAUSSADE,1.0,45.142779014,-0.642629661548
1448,SAINT-PIERRE-DE-BAT,0.30000000000000004,44.6700408345,-0.219919179937
1449,SAINT-QUENTIN-DE-CAPLONG,0.2,44.7954078713,0.137421248916
1450,SAINT-SEURIN-SUR-L'ISLE,2.9,45.0105769146,-0.0011367508014
1451,SAINT-SULPICE-ET-CAMEYRAC,4.3,44.9006929748,-0.386356667148
1452,SAUTERNES,0.7000000000000001,44.531082109,-0.341531541732
1453,VAYRES,3.4,44.8910656059,-0.32583268578
1454,BABEAU-BOULDOUX,0.30000000000000004,43.4382106135,2.89298078323
1455,BRENAS,0.0,43.6412617949,3.25359817589
1456,GIGNAC,5.3,43.6393937216,3.57384628868
1457,LOUPIAN,2.1,43.4494192218,3.62638267982
1458,NISSAN-LEZ-ENSERUNE,3.5,43.2811833354,3.11227016
1459,PAULHAN,3.6,43.5382461437,3.45878001705
1460,SAINT-ANDRE-DE-BUEGES,0.1,43.8538870813,3.64957493521
1461,SOUMONT,0.1,43.7254656283,3.34970945877
1462,LA VACQUERIE-ET-SAINT-MARTIN-DE-CASTRIES,0.1,43.7940763777,3.481075382
1463,ARBRISSEL,0.30000000000000004,47.9272051902,-1.29532585223
1464,BAGUER-PICAN,1.3,48.5500094703,-1.69120416285
1465,BAINS-SUR-OUST,3.4,47.7118573151,-2.0751766873
1466,BALAZE,2.1,48.1777363541,-1.18302870433
1467,GUIGNEN,3.4,47.9235807621,-1.8619758657
1468,IRODOUER,2.0,48.246152189,-1.95021443067
1469,LE MINIHIC-SUR-RANCE,1.4,48.5755697077,-2.01309736708
1470,MONTFORT-SUR-MEU,6.3,48.1261000349,-1.9630334162
1471,MONTHAULT,0.30000000000000004,48.5121983633,-1.17562696085
1472,SAINT-GEORGES-DE-CHESNE,0.6000000000000001,48.2704626521,-1.30957375429
1473,SAINT-GERMAIN-EN-COGLES,2.0,48.3974434735,-1.26442564597
1474,SAINT-HILAIRE-DES-LANDES,1.0,48.3383000653,-1.36660733195
1475,SAINT-MEEN-LE-GRAND,4.4,48.1925581351,-2.19497591455
1476,TREMEHEUC,0.4,48.4389203583,-1.69745222978
1477,ARGENTON-SUR-CREUSE,5.2,46.5787862593,1.4926283101
1478,LA CHAMPENOISE,0.30000000000000004,46.9393942859,1.79291889355
1479,CLION,1.1,46.9379936712,1.22161991718
1480,DIOU,0.30000000000000004,47.0454733452,2.00611539537
1481,MOSNAY,0.5,46.6262386861,1.62506020727
1482,NEUILLAY-LES-BOIS,0.7000000000000001,46.7623476722,1.4785357393
1483,LE PECHEREAU,2.0,46.5845928645,1.57047280121
1484,POULIGNY-NOTRE-DAME,0.6000000000000001,46.4730747606,2.00655850845
1485,SAINT-AOUSTRILLE,0.2,46.9325345658,1.92998752621
1486,SAINTE-CECILE,0.1,47.1840958143,1.67516033541
1487,SAINTE-GEMME,0.30000000000000004,46.8595428398,1.33333500724
1488,SAINTE-LIZAIGNE,1.2,47.0110071957,1.99544056226
1489,THIZAY,0.30000000000000004,46.8989940984,1.92934750416
1490,ANCHE,0.4,47.1322445676,0.307767797978
1491,RAZINES,0.2,46.9748443751,0.394788400898
1492,SAINT-MARTIN-LE-BEAU,2.8,47.3613543999,0.909919604886
1493,SAVIGNY-EN-VERON,1.4,47.2111243782,0.130191774161
1494,VILLEDOMER,1.3,47.5513740132,0.869987989658
1495,BARRAUX,1.8,45.4360335449,5.98047363076
1496,BIZONNES,0.8,45.4468823262,5.37901659647
1497,CHATEAU-BERNARD,0.30000000000000004,44.9815645437,5.56326109526
1498,CULIN,0.7000000000000001,45.5238182422,5.24556322676
1499,LE GRAND-LEMPS,2.9,45.3962642718,5.4186427969
1500,MIRIBEL-LANCHATRE,0.4,44.973161587,5.61005061532
1501,MOIRANS,7.8,45.3189486892,5.56212081976
1502,LE MONESTIER-DU-PERCY,0.2,44.7844141969,5.64878046907
1503,MONTAGNE,0.30000000000000004,45.1427039465,5.20042343042
1504,MONTCHABOUD,0.4,45.0928956374,5.76098049287
1505,PENOL,0.30000000000000004,45.3732511215,5.18172674953
1506,SAINT-GEOIRE-EN-VALDAINE,2.4,45.4609404816,5.63629815728
1507,SAINT-HILAIRE-DE-BRENS,0.5,45.6755777946,5.2906631807
1508,SAINT-JOSEPH-DE-RIVIERE,1.1,45.3646525632,5.69102202537
1509,SAINTE-LUCE,0.0,44.8504153429,5.90543846045
1510,SAINT-MARTIN-DE-CLELLES,0.2,44.8467463314,5.60218937166
1511,SAINT-QUENTIN-SUR-ISERE,1.3,45.277528088,5.54771829456
1512,SARCENAS,0.2,45.2847568738,5.75992972544
1513,LA VERPILLIERE,6.4,45.637750025,5.14915516278
1514,VERTRIEU,0.7000000000000001,45.8703431976,5.36496686983
1515,BELLECOMBE,0.1,46.3093062436,5.90889687152
1516,BLYE,0.1,46.6284281077,5.69599874066
1517,BOISSIA,0.1,46.5806605913,5.7211528831
1518,CESANCEY,0.4,46.6227403643,5.4919593002
1519,CHARCIER,0.1,46.6290312371,5.7635543146
1520,CHAREZIER,0.2,46.6145121643,5.72720293776
1521,CHOUX,0.1,46.301599898,5.77007174218
1522,DAMPIERRE,1.2,47.1650509305,5.74228998802
1523,LE DESCHAUX,1.0,46.9505140483,5.49877819906
1524,MAISOD,0.30000000000000004,46.4791457718,5.69233262933
1525,MORBIER,2.3,46.55692328,6.01610878304
1526,PUBLY,0.30000000000000004,46.6295899553,5.65124745442
1527,LES ROUSSES,3.1,46.4984696055,6.07006530541
1528,RUFFEY-SUR-SEILLE,0.8,46.7294818864,5.49587228599
1529,THOISSIA,0.0,46.4261882926,5.39554935173
1530,VILLARD-SUR-BIENNE,0.2,46.4858586552,5.89736415206
1531,EYRES-MONCUBE,0.4,43.7148219031,-0.552172666549
1532,HAUT-MAUCO,0.8,43.8292265274,-0.562242768558
1533,LOSSE,0.30000000000000004,44.09500776,-0.0901039836208
1534,MAILLAS,0.1,44.2130883384,-0.177666855648
1535,MORCENX,4.6,44.0410936254,-0.888623636398
1536,VIELLE-SAINT-GIRONS,1.2,43.9395837379,-1.32552380465
1537,BREVAINVILLE,0.2,47.9489615518,1.26872113426
1538,CELLETTES,2.3,47.5283508082,1.38123647264
1539,CHAMPIGNY-EN-BEAUCE,0.7000000000000001,47.7177889703,1.25697557879
1540,CHAON,0.4,47.6121257976,2.162800504
1541,CHATEAUVIEUX,0.6000000000000001,47.2199501992,1.36069389103
1542,CHAUMONT-SUR-THARONNE,1.1,47.6135106337,1.92322250059
1543,LISLE,0.2,47.8690069575,1.10711931801
1544,MOREE,1.1,47.9158762496,1.24887473197
1545,PONTLEVOY,1.6,47.3967107707,1.2300894563
1546,SAINTE-GEMMES,0.1,47.7960525233,1.24957595436
1547,SAINT-MARTIN-DES-BOIS,0.6000000000000001,47.7252568405,0.824501862365
1548,THENAY,0.8,47.3940920291,1.30329198207
1549,CEZAY,0.2,45.8025245236,3.96521124284
1550,DEBATS-RIVIERE-D'ORPRA,0.2,45.7576644008,3.9420526909
1551,FIRMINY,17.2,45.3788146093,4.28879456136
1552,LA GRAND-CROIX,5.1,45.5040795864,4.55860381813
1553,GREZOLLES,0.30000000000000004,45.8639049425,3.94846074499
1554,L'HOPITAL-SOUS-ROCHEFORT,0.1,45.772221105,3.93582231796
1555,L'HORME,4.7,45.4920272407,4.54055415513
1556,LAVIEU,0.1,45.5403767442,4.04199917394
1557,ROZIER-COTES-D'AUREC,0.4,45.3763346252,4.1143178936
1558,SAINT-CHRISTO-EN-JAREZ,1.8,45.5362867258,4.4671653165
1559,SAINT-JEAN-LA-VETRE,0.30000000000000004,45.7746461063,3.79161072319
1560,SAINT-POLGUES,0.2,45.909623488,3.981388774
1561,SAINT-PRIEST-LA-VETRE,0.1,45.8015242352,3.80979787497
1562,BEAULIEU,0.9,45.1427890679,3.95088637654
1563,LE BOUCHET-SAINT-NICOLAS,0.2,44.8870691928,3.78767619023
1564,LA CHAPELLE-GENESTE,0.1,45.3533341327,3.67413937548
1565,ESPALY-SAINT-MARCEL,3.6,45.0463892072,3.85796806236
1566,FONTANNES,1.1,45.2888928849,3.43014729837
1567,LISSAC,0.30000000000000004,45.1342038026,3.75987831256
1568,MONTREGARD,0.6000000000000001,45.1595314738,4.35494636429
1569,PRADES,0.1,45.0245718989,3.59400900107
1570,RAUCOULES,0.9,45.1915194359,4.28286048078
1571,ROSIERES,1.4,45.1310458657,4.00299232791
1572,SAINT-BEAUZIRE,0.30000000000000004,45.2770787888,3.28293781034
1573,SIAUGUES-SAINTE-MARIE,0.8,45.0787632702,3.62714763448
1574,AVESSAC,2.4,47.635436304,-1.97050871505
1575,BARBECHAT,1.3,47.2820568846,-1.29827542127
1576,BONNOEUVRE,0.6000000000000001,47.5197897111,-1.2316486796
1577,BOUEE,0.8,47.304903513,-1.91266951692
1578,BRAINS,2.6,47.1701591492,-1.72606479691
1579,LA CHAPELLE-HEULIN,3.0,47.1722913827,-1.34993806222
1580,JOUE-SUR-ERDRE,2.1,47.5092437538,-1.42943494948
1581,LES MOUTIERS-EN-RETZ,1.3,47.0616219129,-1.99001867615
1582,LE PIN,0.7000000000000001,47.5921101403,-1.1470215048
1583,SION-LES-MINES,1.6,47.7291886842,-1.58109954157
1584,CHAMPOULET,0.0,47.6510461411,2.9231554998
1585,COUDRAY,0.4,48.2670120641,2.36970473129
1586,COULLONS,2.4,47.6179791467,2.50615129884
1587,DAMPIERRE-EN-BURLY,1.2,47.76127445,2.54303804345
1588,GERMIGNY-DES-PRES,0.7000000000000001,47.8392387669,2.26614623984
1589,HUETRE,0.2,48.0255590389,1.80141041043
1590,LOMBREUIL,0.30000000000000004,47.9423074217,2.62713331194
1591,MENESTREAU-EN-VILLETTE,1.5,47.7097936661,2.03537007798
1592,NOYERS,0.7000000000000001,47.9091167277,2.53634979888
1593,POILLY-LEZ-GIEN,2.3,47.6604278925,2.59453051579
1594,VARENNES-CHANGY,1.5,47.8623950177,2.6635119696
1595,VILLAMBLAIN,0.30000000000000004,48.0129025653,1.55246267039
1596,ANGLARS-NOZAC,0.30000000000000004,44.7827204407,1.40862887217
1597,CALVIAC,0.2,44.9180119841,2.06736434321
1598,CASSAGNES,0.2,44.5630523777,1.1285177981
1599,CORN,0.2,44.6061471898,1.88882538803
1600,DOUELLE,0.8,44.4711707333,1.35541899313
1601,FELZINS,0.4,44.6095612656,2.15053532047
1602,FRANCOULES,0.2,44.5564275436,1.4876971855
1603,GINDOU,0.30000000000000004,44.6266225054,1.26418092568
1604,GLANES,0.30000000000000004,44.9190594045,1.87327454002
1605,LAMAGDELAINE,0.8,44.4740446239,1.50163136259
1606,LAMATIVIE,0.1,44.9642883352,2.04685398056
1607,PRADINES,3.4,44.464606105,1.38849304756
1608,SAIGNES,0.1,44.7891039927,1.82108642363
1609,SAINT-LAURENT-LES-TOURS,0.9,44.8817459131,1.90434395957
1610,SAINT-MICHEL-DE-BANNIERES,0.30000000000000004,44.9755608245,1.68434656642
1611,AUBIAC,1.0,44.1378277846,0.568271708498
1612,POUSSIGNAC,0.30000000000000004,44.3527772053,0.074662493896
1613,SAINTE-GEMME-MARTAILLAC,0.30000000000000004,44.3678329817,0.161788672712
1614,SAINT-GERAUD,0.1,44.6226768076,0.157164651677
1615,SAUVETERRE-SAINT-DENIS,0.5,44.1498250979,0.700092181215
1616,LE BORN,0.2,44.587957569,3.55902737103
1617,RIBENNES,0.2,44.6498972232,3.386003003
1618,ANGERS,147.3,47.476837416,-0.556125995444
1619,BEAUPREAU,6.7,47.2125984545,-0.983619028639
1620,BEGROLLES-EN-MAUGES,1.8,47.133273239,-0.931697835787
1621,ECUILLE,0.6000000000000001,47.6151527391,-0.560819094743
1622,FOUGERE,0.8,47.6223930474,-0.152074408331
1623,GENNES,2.0,47.3145776087,-0.253486023918
1624,MONTREUIL-SUR-MAINE,0.7000000000000001,47.6603355661,-0.71140770195
1625,PARNAY,0.5,47.2209572382,0.00402105248715
1626,LE PIN-EN-MAUGES,1.3,47.2560928311,-0.900396419148
1627,LES PONTS-DE-CE,11.6,47.4272536106,-0.512677371617
1628,SAINT-FLORENT-LE-VIEIL,2.7,47.3444877999,-1.00319004701
1629,TORFOU,2.1,47.0477170585,-1.08966073192
1630,BERIGNY,0.4,49.1372472004,-0.947359698893
1631,BRECEY,2.2,48.7250596734,-1.17310373114
1632,CEAUX,0.4,48.6305274048,-1.38499101591
1633,LA GLACERIE,5.5,49.6076921715,-1.58562818895
1634,GOUVILLE-SUR-MER,2.1,49.0979435491,-1.57923308824
1635,HAUTEVILLE-LA-GUICHARD,0.5,49.1244193511,-1.3030503118
1636,LA HAYE-BELLEFOND,0.1,48.9808356321,-1.18892406479
1637,LIEUSAINT,0.4,49.4836142567,-1.47249258747
1638,LITHAIRE,0.6000000000000001,49.2964016031,-1.48893562927
1639,LES LOGES-MARCHIS,1.0,48.5342583933,-1.08560477293
1640,MAGNEVILLE,0.30000000000000004,49.452860666,-1.5484188019
1641,MAUPERTUIS,0.1,48.9551865483,-1.20001198671
1642,MONTRABOT,0.1,49.1078812835,-0.896591935347
1643,OMONVILLE-LA-PETITE,0.1,49.6929987074,-1.88472538238
1644,QUETTREVILLE-SUR-SIENNE,1.4,48.9618413224,-1.46914956989
1645,SAINT-LOUP,0.7000000000000001,48.6657307643,-1.30380060924
1646,THEVILLE,0.30000000000000004,49.6482237983,-1.41776532413
1647,VARENGUEBEC,0.4,49.3375063908,-1.49183766292
1648,AUVE,0.2,49.0286926359,4.68669645123
1649,BASSU,0.1,48.833946829,4.69258148533
1650,BEINE-NAUROY,1.0,49.2458158743,4.23851235844
1651,BETHENY,6.4,49.2956894813,4.06006294917
1652,BOUCHY-SAINT-GENEST,0.2,48.6567156677,3.48974064428
1653,CAUREL,0.7000000000000001,49.3039168337,4.14507952597
1654,CONFLANS-SUR-SEINE,0.7000000000000001,48.5481786951,3.68299893221
1655,DOMMARTIN-VARIMONT,0.1,48.9782968112,4.77366726266
1656,DORMANS,2.9,49.062193047,3.6454130311
1657,GIFFAUMONT-CHAMPAUBERT,0.30000000000000004,48.5598653758,4.74815226277
1658,LOISY-SUR-MARNE,0.9,48.7501424119,4.54084010874
1659,MONT-SUR-COURVILLE,0.1,49.2560688238,3.67592575502
1660,OEUILLY,0.6000000000000001,49.0634098763,3.79757014256
1661,POMACLE,0.4,49.3365316045,4.14756415081
1662,PROSNES,0.5,49.2004306897,4.3048573886
1663,SAINT-IMOGES,0.30000000000000004,49.1069746679,3.98465817198
1664,VAUCHAMPS,0.30000000000000004,48.8809936566,3.62624789917
1665,BOURG-LE-ROI,0.30000000000000004,48.3460739531,0.132093521683
1666,BOUSSE,0.4,47.7609072838,-0.0629491331709
1667,LA CHAPELLE-SAINT-REMY,0.9,48.1038981246,0.465068388198
1668,LE CHEVAIN,0.6000000000000001,48.4251542768,0.140511148481
1669,COURCEBOEUFS,0.6000000000000001,48.1265537944,0.282062390388
1670,FERCE-SUR-SARTHE,0.6000000000000001,47.8973212837,-0.0356446886658
1671,FONTENAY-SUR-VEGRE,0.30000000000000004,47.9074369831,-0.214830997282
1672,LAVERNAT,0.6000000000000001,47.7185957169,0.346298771657
1673,PARIGNE-L'EVEQUE,4.7,47.9315338021,0.371756176736
1674,PEZE-LE-ROBERT,0.4,48.202501305,-0.0424195278143
1675,SAINT-RIGOMER-DES-BOIS,0.4,48.4009719151,0.172331723391
1676,TELOCHE,3.0,47.8904177884,0.278475546841
1677,VILLAINES-SOUS-MALICORNE,1.0,47.7570761042,-0.104784379095
1678,LES ALLUES,1.9,45.3697146214,6.58767852898
1679,LA BAUCHE,0.4,45.4819870888,5.7703646358
1680,CHAMPAGNEUX,0.6000000000000001,45.6266318375,5.66751566229
1681,CHATEAUNEUF,0.7000000000000001,45.5473788658,6.18096637147
1682,HAUTECOUR,0.30000000000000004,45.5170974575,6.54362483947
1683,HAUTELUCE,0.9,45.7639265553,6.61481598841
1684,MONTHION,0.5,45.6225222086,6.37284425509
1685,SAINT-PIERRE-DE-BELLEVILLE,0.2,45.4537564041,6.25884593711
1686,TERMIGNON,0.4,45.3441528771,6.84789108583
1687,AYSE,2.0,46.0869924496,6.44601645014
1688,BEAUMONT,2.1,46.0976635697,6.12074518078
1689,LA CHAPELLE-D'ABONDANCE,0.8,46.3009535709,6.79280453698
1690,CLARAFOND-ARCINE,0.9,46.074723886,5.89580535006
1691,LUGRIN,2.3,46.3933090904,6.67397267401
1692,MENTHONNEX-SOUS-CLERMONT,0.6000000000000001,45.9618992174,5.93569269941
1693,MIEUSSY,2.1,46.1453438048,6.53345961052
1694,MONNETIER-MORNEX,2.2,46.1525800446,6.21241233878
1695,PUBLIER,6.2,46.3896985259,6.54164965422
1696,SERVOZ,0.9,45.9454311308,6.78543826857
1697,SEYTHENEX,0.6000000000000001,45.7066487132,6.28616971906
1698,VERSONNEX,0.5,45.9261649892,5.92765676795
1699,PARIS-6E-ARRONDISSEMENT,43.1,48.8489680919,2.33267089859
1700,AUVILLIERS,0.1,49.7577790499,1.57468218084
1701,BEAUTOT,0.1,49.63626441,1.04779451017
1702,BENESVILLE,0.2,49.7517164964,0.828144576549
1703,BIVILLE-LA-RIVIERE,0.1,49.775723221,0.920460711671
1704,BLANGY-SUR-BRESLE,3.0,49.9167725576,1.62061411438
1705,BOOS,3.2,49.3807198893,1.20294822782
1706,BOSC-MESNIL,0.30000000000000004,49.6687076974,1.3483005444
1707,CANVILLE-LES-DEUX-EGLISES,0.30000000000000004,49.7745209331,0.836317584091
1708,CLAIS,0.2,49.8139194785,1.47363845661
1709,DENESTANVILLE,0.2,49.8076990948,1.0908205692
1710,EPOUVILLE,2.8,49.5632255927,0.23002991813
1711,ETALLEVILLE,0.4,49.7326211245,0.825031387746
1712,GANCOURT-SAINT-ETIENNE,0.2,49.5451067998,1.71017890285
1713,GERVILLE,0.4,49.697965438,0.328351503279
1714,GONNEVILLE-LA-MALLET,1.3,49.6315125266,0.213546027187
1715,MONCHAUX-SORENG,0.6000000000000001,49.9466134625,1.57307821463
1716,MONTMAIN,1.4,49.4093538356,1.24612086223
1717,NOTRE-DAME-DE-GRAVENCHON,8.2,49.4895859593,0.572888177014
1718,PETIT-COURONNE,9.2,49.3807622557,1.03422612047
1719,LA POTERIE-CAP-D'ANTIFER,0.4,49.6783628089,0.178454970928
1720,REUVILLE,0.1,49.747178396,0.862712359723
1721,SAINT-HELLIER,0.4,49.739289577,1.19753481134
1722,SAINT-PIERRE-EN-VAL,1.1,50.0107632796,1.43978370706
1723,SAINT-RIQUIER-ES-PLAINS,0.6000000000000001,49.8203788901,0.666311281625
1724,SAINT-SAENS,2.5,49.6745670639,1.27720644287
1725,SAINT-SYLVAIN,0.2,49.8484962406,0.659644350897
1726,SOTTEVILLE-LES-ROUEN,29.3,49.4104887444,1.09509946531
1727,YPORT,0.9,49.7346149721,0.314361829499
1728,YQUEBEUF,0.2,49.5932680679,1.2590988695
1729,AMILLIS,0.8,48.7355504117,3.13534283623
1730,BOUTIGNY,0.9,48.9127981727,2.9292515848
1731,CHAMPAGNE-SUR-SEINE,6.4,48.4093568314,2.8079339272
1732,LA CHAPELLE-MOUTILS,0.4,48.7774367045,3.38271618157
1733,DIANT,0.2,48.2914084366,3.00508294667
1734,ISLES-LES-VILLENOY,0.9,48.9170644276,2.83057358355
1735,JOUARRE,4.2,48.9025410128,3.11280532504
1736,LEUDON-EN-BRIE,0.1,48.7304236391,3.2680908114
1737,LONGPERRIER,2.4,49.0509695359,2.65542471026
1738,LONGUEVILLE,1.7000000000000002,48.5144915649,3.23853264046
1739,MARCHEMORET,0.6000000000000001,49.0528552524,2.75169281381
1740,MORTERY,0.2,48.5914990543,3.24833157158
1741,SAINT-MAMMES,3.2,48.3867865582,2.81899706389
1742,LA TRETOIRE,0.4,48.8788972003,3.24649489754
1743,VILLEMARECHAL,0.8,48.2716975707,2.86854814458
1744,VILLEMAREUIL,0.4,48.9202287763,2.98474504505
1745,VILLE-SAINT-JACQUES,0.7000000000000001,48.3445385787,2.89832891808
1746,BAILLY,3.9,48.8366896896,2.08067809572
1747,BLARU,0.9,49.0407915695,1.48063662849
1748,BOISSY-SANS-AVOIR,0.6000000000000001,48.8210401327,1.79753784845
1749,BONNELLES,1.9,48.6181895067,2.0296290825
1750,CHANTELOUP-LES-VIGNES,9.5,48.9759961298,2.03199829577
1751,CHOISEL,0.5,48.6739368242,2.01450641994
1752,CRESPIERES,1.6,48.8822021619,1.921122695
1753,LA FALAISE,0.6000000000000001,48.9369496827,1.82537874212
1754,PRUNAY-EN-YVELINES,0.8,48.5267627187,1.80513972814
1755,LA QUEUE-LES-YVELINES,2.1,48.8027893482,1.76744000641
1756,SAINT-MARTIN-DE-BRETHENCOURT,0.6000000000000001,48.5148592192,1.91568171795
1757,DOUX,0.2,46.7391098577,0.00671432055399
1758,MOUTIERS-SOUS-CHANTEMERLE,0.6000000000000001,46.6878996227,-0.624436667699
1759,SAINTE-EANNE,0.7000000000000001,46.3915503941,-0.134321812271
1760,SAIVRES,1.4,46.4370891679,-0.233108202857
1761,THENEZAY,1.5,46.7132141775,-0.0410463377578
1762,LE VERT,0.1,46.1044348487,-0.398782793634
1763,AUMATRE,0.2,49.921572463,1.77316426694
1764,CONTY,1.8,49.7503380472,2.14458684266
1765,CROIX-MOLIGNEAUX,0.30000000000000004,49.8196677644,3.00036517518
1766,DEVISE,0.1,49.8511316053,3.00863370114
1767,EPEHY,1.2,50.0062828894,3.13298664943
1768,ETELFAY,0.4,49.6643512814,2.61085791876
1769,FLEURY,0.2,49.7357232045,2.11453536529
1770,FONCHES-FONCHETTE,0.1,49.7761107379,2.82157926223
1771,GRIVESNES,0.4,49.6868458366,2.45819167099
1772,LE HAMEL,0.5,49.8958798781,2.57277507788
1773,HEM-HARDINVAL,0.4,50.1530964553,2.28736362894
1774,HUPPY,0.8,50.0240574056,1.76011940003
1775,LOUVRECHY,0.2,49.7318985145,2.39721661859
1776,MARCELCAVE,1.1,49.8483821329,2.57064959188
1777,MAUCOURT,0.2,49.7932635969,2.75234072333
1778,MERS-LES-BAINS,3.1,50.0705181348,1.40473307328
1779,MONCHY-LAGACHE,0.7000000000000001,49.850644033,3.04313545321
1780,MONTIGNY-LES-JONGLEURS,0.1,50.17823069,2.13581151088
1781,MOYENCOURT,0.30000000000000004,49.7241561473,2.94715623094
1782,OCCOCHES,0.1,50.1823597887,2.28746052815
1783,PERTAIN,0.4,49.8059761599,2.86900836707
1784,PIERREPONT-SUR-AVRE,0.6000000000000001,49.7068924487,2.5511767234
1785,PROYART,0.6000000000000001,49.8887503855,2.70543811348
1786,SAINT-CHRIST-BRIOST,0.5,49.8544622576,2.92524408101
1787,SAINT-MARD,0.2,49.6891007736,2.7565588401
1788,SAINT-MAXENT,0.4,49.998092452,1.73127217091
1789,BERNAC,0.2,43.9532150821,2.02995456926
1790,DONNAZAC,0.1,44.0124743506,1.94438171897
1791,FAUCH,0.5,43.8391719667,2.25836350572
1792,JONQUIERES,0.5,43.6585990989,2.14341169546
1793,LACAUNE,2.6,43.6972753085,2.68833285874
1794,LAMONTELARIE,0.1,43.6201473366,2.6080895123
1795,MARNAVES,0.1,44.0959603431,1.87162676035
1796,MONTPINIER,0.2,43.6789611247,2.18996517245
1797,MONT-ROC,0.2,43.8056390894,2.37632529774
1798,MOULAYRES,0.2,43.7043614884,2.02400479753
1799,MOUZIEYS-PANENS,0.2,44.1054127277,1.93295083712
1800,POUDIS,0.2,43.5242225907,1.98138103273
1801,RAYSSAC,0.30000000000000004,43.8037266652,2.42461409466
1802,LE RIALET,0.0,43.5590728174,2.47081958622
1803,SAINT-JULIEN-DU-PUY,0.4,43.751631087,2.08059603326
1804,TREBAN,0.0,44.0915936004,2.3448678628
1805,VIEUX,0.2,43.9964922909,1.86610930745
1806,VINDRAC-ALAYRAC,0.1,44.0596168532,1.90210640065
1807,CUMONT,0.1,43.8703403158,0.903369775759
1808,LAGUEPIE,0.7000000000000001,44.163304209,1.95842635186
1809,MARSAC,0.2,43.9414664825,0.829474499399
1810,PUYGAILLARD-DE-QUERCY,0.30000000000000004,44.0245113626,1.63164922322
1811,SAINT-CIRICE,0.2,44.0616740438,0.838811755985
1812,VAREN,0.7000000000000001,44.1580435232,1.88633565997
1813,VILLEBRUMIER,1.2,43.9202948869,1.4512543274
1814,BARGEMON,1.5,43.6333104555,6.54244589208
1815,MONS,0.9,43.6989466461,6.70893258048
1816,OLLIOULES,12.9,43.1386133658,5.85369204547
1817,SOLLIES-PONT,11.1,43.1907611248,6.06327697157
1818,TOULON,165.5,43.1361589728,5.93239634249
1819,AVIGNON,89.6,43.9352448339,4.84071572505
1820,BEDARRIDES,5.1,44.0477457533,4.90804109098
1821,CADENET,4.1,43.7304056282,5.38354319666
1822,CHEVAL-BLANC,4.2,43.7886782282,5.12410732071
1823,LA MOTTE-D'AIGUES,1.4,43.7840840338,5.52149188026
1824,SAINT-HIPPOLYTE-LE-GRAVEYRON,0.2,44.1203739984,5.07610929797
1825,SORGUES,18.0,44.0145763951,4.86740515419
1826,VACQUEYRAS,1.1,44.1452203037,4.9790786368
1827,VAUGINES,0.5,43.7786185321,5.40667854286
1828,BRETIGNOLLES-SUR-MER,4.1,46.6374826705,-1.86324200464
1829,LE GIROUARD,0.9,46.5726064909,-1.58872487716
1830,JARD-SUR-MER,2.5,46.4246376808,-1.60014921643
1831,POUILLE,0.6000000000000001,46.5022256779,-0.955223380119
1832,ROCHESERVIERE,2.9,46.9274273036,-1.50132208111
1833,SAINT-GERVAIS,2.2,46.9285711589,-1.98059327519
1834,SAINT-PROUANT,1.5,46.7502017421,-0.974504061491
1835,LA TRANCHE-SUR-MER,2.7,46.3564601605,-1.43136322126
1836,TREIZE-SEPTIERS,2.9,46.9975586143,-1.23193361154
1837,BONNEUIL-MATOURS,2.0,46.6795805197,0.566087021513
1838,FLEIX,0.2,46.5580414765,0.747824458548
1839,MAILLE,0.6000000000000001,46.6780011133,0.0958034977141
1840,PERSAC,0.9,46.3410990682,0.731125498359
1841,PRINCAY,0.2,46.9289774841,0.253952307477
1842,SAINT-CHRISTOPHE,0.4,46.9252807285,0.374730280796
1843,USSON-DU-POITOU,1.3,46.2806798185,0.544510234533
1844,VIVONNE,3.2,46.412040698,0.257005369348
1845,VOUZAILLES,0.5,46.7134181526,0.0956426803777
1846,ROUSSAC,0.5,46.0716643434,1.19803600698
1847,SAINT-LAURENT-SUR-GORRE,1.4,45.7680643586,0.973319205658
1848,AMBACOURT,0.30000000000000004,48.3519571223,6.13963930684
1849,LA BAFFE,0.6000000000000001,48.1590314003,6.56190492977
1850,CHANTRAINE,3.1,48.1667597776,6.41955760454
1851,DOLAINCOURT,0.1,48.3394348739,5.80990134614
1852,GERARDMER,8.8,48.0653057669,6.85912240068
1853,GIRECOURT-SUR-DURBION,0.30000000000000004,48.2483163554,6.59863899407
1854,MARTINVELLE,0.1,47.9903283135,6.00645786429
1855,MONTHUREUX-LE-SEC,0.2,48.1678786007,6.02913581296
1856,ORTONCOURT,0.1,48.3681665513,6.50942324126
1857,RAMONCHAMP,2.0,47.8957257819,6.74118658301
1858,ROZEROTTE,0.2,48.2385664029,6.08531096455
1859,SANS-VALLOIS,0.1,48.1617644637,6.1030177625
1860,THEY-SOUS-MONTFORT,0.2,48.2295778524,5.97261217234
1861,UZEMAIN,1.1,48.1015554236,6.34403529547
1862,LA VACHERESSE-ET-LA-ROUILLIE,0.1,48.1460226049,5.79618923036
1863,VIEUX-MOULIN,0.30000000000000004,48.39320709,7.00559918116
1864,VILLONCOURT,0.1,48.2696270418,6.51634563394
1865,WISEMBACH,0.4,48.2614197049,7.11887100206
1866,AILLANT-SUR-THOLON,1.4,47.8710829792,3.32834802576
1867,ARTHONNAY,0.2,47.9316900287,4.22973303932
1868,ASQUINS,0.30000000000000004,47.4878050152,3.74721603984
1869,CHAMPIGNY,2.1,48.3042190014,3.13177066366
1870,COURTOIN,0.0,48.1216195741,3.10995909647
1871,EPINEAU-LES-VOVES,0.7000000000000001,47.9468458779,3.46998413292
1872,FOUCHERES,0.4,48.1744609196,3.14702856425
1873,GURGY,1.6,47.8782473912,3.55956207309
1874,HAUTERIVE,0.4,47.9314503852,3.60699286989
1875,MALAY-LE-GRAND,1.5,48.1633768115,3.35131160799
1876,MALIGNY,0.8,47.8664420498,3.79721123196
1877,MERRY-LA-VALLEE,0.4,47.7877688234,3.31454038152
1878,NUITS,0.4,47.7192463173,4.19503154053
1879,QUENNE,0.5,47.779604419,3.65137450935
1880,TURNY,0.7000000000000001,48.0654471891,3.73424677868
1881,VAULT-DE-LUGNY,0.30000000000000004,47.5025414674,3.84177784703
1882,VILLENEUVE-L'ARCHEVEQUE,1.2,48.2355837478,3.56315804862
1883,VILLIERS-LES-HAUTS,0.1,47.718668015,4.14977186887
1884,VILLIERS-SAINT-BENOIT,0.5,47.7820741656,3.22439167522
1885,BAVILLIERS,4.9,47.6199695086,6.83065542168
1886,CHEVREMONT,1.5,47.6278946489,6.92965534221
1887,VAUTHIERMONT,0.2,47.6811834758,7.0246637056
1888,BOUVILLE,0.6000000000000001,48.4326483441,2.2783856422
1889,BRUNOY,25.3,48.6964396294,2.50394753271
1890,CHAMPMOTTEUX,0.4,48.3439397579,2.31485115366
1891,CHAUFFOUR-LES-ETRECHY,0.1,48.5078619555,2.16843822281
1892,LES GRANGES-LE-ROI,1.0,48.4981066436,2.01059778399
1893,MEREVILLE,3.2,48.3183780776,2.07369929257
1894,PUSSAY,1.9,48.3501390368,1.99758393379
1895,VILLECONIN,0.7000000000000001,48.5019182614,2.12813043077
1896,LA VILLE-DU-BOIS,7.2,48.6610194975,2.26503430984
